{"webData": [{"url":"http://www.doctoralia.com.br/medico/julian+silvia+regina-10583894","doctor": {"address":{"1":{"address":{"lat":-23.5010476,"lng":-46.6229382,"locality":"02036021","location":"02036021 São Paulo, São Paulo SP","street":"Rua Duarte de Azevedo, 284- cj 47 (Santana)"},"insurances":"Pacientes privados (sem plano de saúde), Unimed, CABESP, Marítima, Omint, Cruz Azul, Life Empresarial","misc":"","name":"Consultório","phone":"(11) 25947247","working_hours":"2as f tarde e 6af manha"}},"education":{"1":{"degree":"TITULO DE ESPECIALISTA EM INFECTOLOGIA","institute":"SOCIEDADE BRASILEIRA DE INFECTOLOGIA","year":"2012"}},"experience":"","name":"Silvia Regina Julian","picture":"http://photos.doctoralia.com/634568373959347675_2.jpg","registration_number":"","salutation":"Dra","services":"Hepatite, Soropositividade Para Hiv","speciality":"Infectologista","subspecialities":"","website":"http://www.drasilviajulian.com.br"}},{"url":"http://www.doctoralia.com.br/medico/sabbaga+amato+valdir-12113991","doctor": {"address":{"1":{"address":{"lat":-23.5500328,"lng":-46.658528999999,"locality":"012-39040","location":"012-39040 São Paulo, São Paulo SP","street":"Rua Mato Grosso,306 - conj.612 (Higienópolis)"},"insurances":"","misc":"","name":"Amato Neto Infectologia E Clínica Médica","phone":"3256-2389","working_hours":""},"2":{"address":{"lat":-23.5500328,"lng":-46.658528999999,"locality":"01239040","location":"01239040 São Paulo, São Paulo SP","street":"Rua Mato Grosso 306, conjunto 613/612 (Higienópolis)"},"insurances":"Pacientes privados (sem plano de saúde), Bradesco Saúde, Porto Seguro","misc":"","name":"Consultório","phone":"32562389","working_hours":"14-20 Hs"}},"education":{"1":{"degree":"Doutorado","institute":"Universidade de Saõ Paulo","year":"2001"},"2":{"degree":"Livre - Docente","institute":"Universidade de São Paulo","year":"2013"}},"experience":"Hepatite, Leishmaniose, Soropositividade Para Hiv","name":"Valdir Sabbaga Amato","picture":"http://photos.doctoralia.com/634568373959347675_2.jpg","registration_number":"","salutation":"Prof","services":"Avaliação pré-operatória, Check up","speciality":"Médico clínico geral, Infectologista","subspecialities":"Cuidados Continuados, Infectologia Hospitalar"}},{"url":"http://www.doctoralia.com.br/medico/castro+de+barros+cesar+augusto-12805596","doctor": {"address":{"1":{"address":{"lat":-23.5500328,"lng":-46.658528999999,"locality":"01239-040","location":"01239-040 São Paulo, São Paulo SP","street":"Rua Mato Grosso 306 (conj 1001A) (Higienópolis)"},"insurances":"","misc":"","name":"Consultório","phone":"55477778","working_hours":""}},"education":{"1":{"degree":"Diploma em Medicina Tropical e Higiene","institute":"University of Alabama","year":"2012"},"2":{"degree":"Certificação em Medicina Tropical e Medicina do Viajante","institute":"American Society of Tropical Medicine and Hygiene","year":"2012"},"3":{"degree":"Título de especialista em Infectologia","institute":"Instituto de Infectologia Emílio Ribas","year":"2013"}},"experience":"","name":"Cesar Augusto Castro de Barros","picture":"http://photos.doctoralia.com/634993250568810699_1.jpg","registration_number":"138594","salutation":"Dr","services":"Doenças Parasitárias, HIV e AIDS, Infecção Hospitalar","speciality":"Infectologista","subspecialities":""}},{"url":"http://www.doctoralia.com.br/medico/catia+cristina+carpinelli-12086909","doctor": {"address":{"1":{"address":{"lat":-23.5966672,"lng":-46.6762943,"locality":"04537002","location":"04537002 São Paulo, São Paulo SP","street":"Rua Clodomiro Amazonas 1.422 (conjunto 81) (Itaim Bibi)"},"insurances":"","misc":"","name":"Consultório","phone":"25280302, 82591948","working_hours":""}},"education":{},"experience":"","name":"Catia Cristina Carpinelli","picture":"http://photos.doctoralia.com/634733956118777477_1.jpg","registration_number":"","salutation":"","services":"Hepatite, Soropositividade Para Hiv","speciality":"Infectologista","subspecialities":"Infectologia Hospitalar"}},{"url":"http://www.doctoralia.com.br/medico/eduardo+ronner+lagonegro-10606964","doctor": {"address":{"1":{"address":{"lat":-23.5680135,"lng":-46.6485563,"locality":"01311-000","location":"01311-000 São Paulo, São Paulo SP","street":"Av. Paulista, 575 (Cj 1208) (Bela Vista)"},"insurances":"","misc":"","name":"Consultório","phone":"(11) 3285-2746","working_hours":""}},"education":{},"experience":"","name":"Eduardo Ronner Lagonegro","picture":"http://photos.doctoralia.com/634838508376126891_1.jpg","registration_number":"","salutation":"Dr","services":"","speciality":"Médico clínico, Infectologista","subspecialities":""}},{"url":"http://www.doctoralia.com.br/medico/amato+neto+vicente-12107520","doctor": {"address":{"1":{"address":{"lat":-23.5500328,"lng":-46.658528999999,"locality":"012-39040","location":"012-39040 São Paulo, São Paulo SP","street":"Rua Mato Grosso,306 - conj.612 (Higienópolis)"},"insurances":"Pacientes privados (sem plano de saúde), Bradesco Saúde, Lincx, Medial saude, Porto Seguro","misc":"","name":"Consultório","phone":"3256-2389","working_hours":""},"2":{"address":{"lat":-23.5500328,"lng":-46.658528999999,"locality":"012-39040","location":"012-39040 São Paulo, São Paulo SP","street":"Rua Mato Grosso,306 - conj.612 (Higienópolis)"},"insurances":"","misc":"","name":"Amato Neto Infectologia E Clínica Médica","phone":"3256-2389","working_hours":""}},"education":{},"experience":"","name":"Vicente Amato Neto","picture":"http://photos.doctoralia.com/V2635265117725969798_2.jpg","registration_number":"","salutation":"Prof","services":"","speciality":"Médico clínico, Infectologista","subspecialities":"Cuidados Continuados, Infectologia Hospitalar"}},{"url":"http://www.doctoralia.com.br/medico/alexandre+ely+campeas-10615096","doctor": {"address":{"1":{"address":{"lat":-23.5026014,"lng":-46.6314238,"locality":"02013-001","location":"02013-001 São Paulo, São Paulo SP","street":"Rua Doutor Cesar, 530 - 2 Andar Cj 201 (Santana)"},"insurances":"Pacientes privados (sem plano de saúde), Cassi","misc":"","name":"Consultório","phone":"(11) 6971-8809","working_hours":""}},"education":{},"experience":"","name":"Alexandre Ely Campeas","picture":"http://photos.doctoralia.com/634568373959347675_2.jpg","registration_number":"","salutation":"Dr","services":"","speciality":"Pediatra, Infectologista","subspecialities":""}},{"url":"http://www.doctoralia.com.br/medico/fabio+franco-10604983","doctor": {"address":{"1":{"address":{"lat":-23.5409979,"lng":-46.6557186,"locality":"01228-000","location":"01228-000 São Paulo, São Paulo SP","street":"Av. Angelica, 916 - Cj. 802 8º Andar (Santa Cecilia)"},"insurances":"Pacientes privados (sem plano de saúde), Cassi","misc":"","name":"Consultório","phone":"","working_hours":""}},"education":{},"experience":"","name":"Fabio Franco","picture":"http://photos.doctoralia.com/634568373959347675_2.jpg","registration_number":"","salutation":"Dr","services":"","speciality":"Médico clínico, Infectologista","subspecialities":""}},{"url":"http://www.doctoralia.com.br/medico/siqueira+marchini+evaldo-10605984","doctor": {"address":{"1":{"address":{"lat":-23.5689168,"lng":-46.6467856,"locality":"1310-100","location":"1310-100 São Paulo, São Paulo SP","street":"Paulista, 326 - Cj. 51 (Paraíso)"},"insurances":"Pacientes privados (sem plano de saúde), Bradesco Saúde, Unimed, Cassi, Marítima","misc":"","name":"Consultório","phone":"(11) 3262-1818, (11) 3262-3389","working_hours":""}},"education":{},"experience":"","name":"Evaldo Siqueira Marchini","picture":"http://photos.doctoralia.com/634568373959347675_2.jpg","registration_number":"","salutation":"Dr","services":"","speciality":"Infectologista","subspecialities":""}},{"url":"http://www.doctoralia.com.br/medico/antonio+marmo+miziara-10612864","doctor": {"address":{"1":{"address":{"lat":-23.550615,"lng":-46.6604197,"locality":"01228-200","location":"01228-200 São Paulo, São Paulo SP","street":"Av. Angélica, 2100 - Cj. 44 (Consolação)"},"insurances":"Pacientes privados (sem plano de saúde), Amil, Unimed, Mediservice, Omint","misc":"","name":"Consultório","phone":"(11) 3259-2452","working_hours":""}},"education":{},"experience":"","name":"Antonio Marmo Miziara","picture":"http://photos.doctoralia.com/634568373959347675_2.jpg","registration_number":"","salutation":"Dr","services":"","speciality":"Infectologista","subspecialities":""}},{"url":"http://www.doctoralia.com.br/medico/isaac+tcherniacovski-10601829","doctor": {"address":{"1":{"address":{"lat":-23.5817385,"lng":-46.6705498,"locality":"13574-540","location":"13574-540 São Paulo, São Paulo SP","street":"Av. Sao Gabriel, 149 - Cj. 202 (Jardim Paulista)"},"insurances":"Pacientes privados (sem plano de saúde), Cassi","misc":"","name":"Consultório","phone":"","working_hours":""}},"education":{},"experience":"","name":"Isaac Tcherniacovski","picture":"http://photos.doctoralia.com/634568373959347675_2.jpg","registration_number":"","salutation":"Dr","services":"","speciality":"Infectologista","subspecialities":""}},{"url":"http://www.doctoralia.com.br/medico/daniella+costa+de+menezes+e+goncalves-12033887","doctor": {"address":{"1":{"address":{"lat":-23.5399061,"lng":-46.6614896,"locality":"01232012","location":"01232012 São Paulo, São Paulo SP","street":"Rua Conselheiro Brotero 1539 (conjunto 93) (Higienopolis)"},"insurances":"","misc":"","name":"Consultório","phone":"(11)3661-1944","working_hours":""},"2":{"address":{"lat":-23.556738,"lng":-46.670129,"locality":"05403-000","location":"05403-000 São Paulo, São Paulo SP","street":"Av. Dr. Enéas de Carvalho Aguiar, 255 (Cerqueira César)"},"insurances":"","misc":"Departamento: Imunologia Posto: LIM 60","name":"Hospital das Clínicas FMUSP","phone":"(11) 3069-6000, (11) 3069-5219","working_hours":""},"3":{"address":{"lat":-23.5394467,"lng":-46.6614498,"locality":"01232-010","location":"01232-010 São Paulo, São Paulo SP","street":"R. Conselheiro Brotero, 1486 (Higienópolis)"},"insurances":"","misc":"Departamento: Infectologia","name":"Hospital Samaritano de São Paulo","phone":"(11) 3821-5300","working_hours":""}},"education":{},"experience":"","name":"Daniella Costa de Menezes e Goncalves","picture":"http://photos.doctoralia.com/634568373959347675_2.jpg","registration_number":"","salutation":"","services":"","speciality":"Infectologista","subspecialities":""}},{"url":"http://www.doctoralia.com.br/medico/duarte+de+lima+dorival-10667082","doctor": {"address":{"1":{"address":{"lat":-23.563678,"lng":-46.6340432,"locality":"01525-010","location":"01525-010 São Paulo, São Paulo SP","street":"Rua Rocha Pombo, 49"},"insurances":"","misc":"","name":"Hospital Adventista de São Paulo","phone":"(11) 2838-7100, (11) 2838-7000","working_hours":""}},"education":{},"experience":"","name":"Dorival Duarte de Lima","picture":"http://photos.doctoralia.com/634568373959347675_2.jpg","registration_number":"","salutation":"Dr","services":"","speciality":"Médico clínico, Infectologista","subspecialities":""}},{"url":"http://www.doctoralia.com.br/medico/nunes+de+siqueira+katia-10667092","doctor": {"address":{"1":{"address":{"lat":-23.563678,"lng":-46.6340432,"locality":"01525-010","location":"01525-010 São Paulo, São Paulo SP","street":"Rua Rocha Pombo, 49"},"insurances":"","misc":"","name":"Hospital Adventista de São Paulo","phone":"(11) 2838-7100, (11) 2838-7000","working_hours":""}},"education":{},"experience":"","name":"Katia Nunes de Siqueira","picture":"http://photos.doctoralia.com/634568373959347675_2.jpg","registration_number":"","salutation":"Dra","services":"","speciality":"Médico clínico, Infectologista","subspecialities":""}},{"url":"http://www.doctoralia.com.br/medico/marilia+sallum+bull-10591458","doctor": {"address":{"1":{"address":{"lat":-23.620081,"lng":-46.6413906,"locality":"04055-040","location":"04055-040 São Paulo, São Paulo SP","street":"Rua Mauro, 323 (Saude)"},"insurances":"Pacientes privados (sem plano de saúde), Cassi","misc":"","name":"Consultório","phone":"","working_hours":""}},"education":{},"experience":"","name":"Marilia Sallum Bull","picture":"http://photos.doctoralia.com/634568373959347675_2.jpg","registration_number":"","salutation":"Dra","services":"","speciality":"Infectologista","subspecialities":""}},{"url":"http://www.doctoralia.com.br/medico/nedia+maria+hallage-10589783","doctor": {"address":{"1":{"address":{"lat":-23.5368308,"lng":-46.6992077,"locality":"05053-070","location":"05053-070 São Paulo, São Paulo SP","street":"Jaricunas, 158 (Vila Romana)"},"insurances":"Pacientes privados (sem plano de saúde), Intermédica, Medial saude","misc":"","name":"Consultório","phone":"(11) 3872-7520","working_hours":""}},"education":{},"experience":"","name":"Nédia Maria Hallage","picture":"http://photos.doctoralia.com/V2635265117725969798_2.jpg","registration_number":"","salutation":"Dra","services":"","speciality":"Médico clínico, Infectologista","subspecialities":"Infectologia Hospitalar"}},{"url":"http://www.doctoralia.com.br/medico/anderson+jose+dias+da+silva-10613704","doctor": {"address":{"1":{"address":{"lat":-23.5006569,"lng":-46.6212701,"locality":"02036-001","location":"02036-001 São Paulo, São Paulo SP","street":"Rua Jovita, 433-A (Santana)"},"insurances":"","misc":"","name":"Consultório","phone":"(11) 2589-0373","working_hours":""}},"education":{},"experience":"","name":"Anderson Jose Dias da Silva","picture":"http://photos.doctoralia.com/634568373959347675_2.jpg","registration_number":"","salutation":"Dr","services":"","speciality":"Infectologista","subspecialities":"Infectologia Hospitalar"}},{"url":"http://www.doctoralia.com.br/medico/suiko+kosaka-11898095","doctor": {"address":{"1":{"address":{"lat":-23.5542758,"lng":-46.4710757,"locality":"08285-130","location":"08285-130 São Paulo, São Paulo SP","street":"Rua Medio Iguacu, 86 (Cidade Lider)"},"insurances":"","misc":"","name":"Sae Dst Aids Cidade Lider II","phone":"(11) 2748-0255","working_hours":""}},"education":{},"experience":"","name":"Suiko Kosaka","picture":"http://photos.doctoralia.com/634568373959347675_2.jpg","registration_number":"","salutation":"","services":"","speciality":"Infectologista","subspecialities":""}},{"url":"http://www.doctoralia.com.br/medico/jorge+figueiredo+senise-11962882","doctor": {"address":{"1":{"address":{"lat":-23.5837935,"lng":-46.6110737,"locality":"04262-000","location":"04262-000 São Paulo, São Paulo SP","street":"Av. Nazaré, 28, (Ipiranga)"},"insurances":"","misc":"","name":"Hospital Ipiranga","phone":"(11) 2067-7799","working_hours":""}},"education":{},"experience":"","name":"Jorge Figueiredo Senise","picture":"http://photos.doctoralia.com/634568373959347675_2.jpg","registration_number":"","salutation":"","services":"","speciality":"Infectologista","subspecialities":""}},{"url":"http://www.doctoralia.com.br/medico/gandra+de+souza+dias+maria+beatriz-10593553","doctor": {"address":{"1":{"address":{"lat":-23.5572835,"lng":-46.654814599999,"locality":"01308-050","location":"01308-050 São Paulo, São Paulo SP","street":"R. Dona Adma Jafet, 50 (Cj 54) (Bela Vista)"},"insurances":"","misc":"","name":"Consultório","phone":"(11) 3255-5999","working_hours":""}},"education":{},"experience":"","name":"Maria Beatriz Gandra de Souza Dias","picture":"http://photos.doctoralia.com/634568373959347675_2.jpg","registration_number":"","salutation":"Dra","services":"","speciality":"Infectologista","subspecialities":""}},{"url":"http://www.doctoralia.com.br/medico/mauricio+bruzarrosco+de+souza+rios-11962884","doctor": {"address":{"1":{"address":{"lat":-23.5837935,"lng":-46.6110737,"locality":"04262-000","location":"04262-000 São Paulo, São Paulo SP","street":"Av. Nazaré, 28, (Ipiranga)"},"insurances":"","misc":"","name":"Hospital Ipiranga","phone":"(11) 2067-7799","working_hours":""}},"education":{},"experience":"","name":"Mauricio Bruzarrosco de Souza Rios","picture":"http://photos.doctoralia.com/634568373959347675_2.jpg","registration_number":"","salutation":"","services":"","speciality":"Infectologista","subspecialities":""}},{"url":"http://www.doctoralia.com.br/medico/luciana+marcenal+longo+conte-11962887","doctor": {"address":{"1":{"address":{"lat":-23.5837935,"lng":-46.6110737,"locality":"04262-000","location":"04262-000 São Paulo, São Paulo SP","street":"Av. Nazaré, 28, (Ipiranga)"},"insurances":"","misc":"","name":"Hospital Ipiranga","phone":"(11) 2067-7799","working_hours":""}},"education":{},"experience":"","name":"Luciana Marcenal Longo Conte","picture":"http://photos.doctoralia.com/634568373959347675_2.jpg","registration_number":"","salutation":"","services":"","speciality":"Infectologista","subspecialities":""}},{"url":"http://www.doctoralia.com.br/medico/esper+georges+kallas-11943594","doctor": {"address":{"1":{"address":{"lat":-23.6154149,"lng":-46.6941847,"locality":"04583-100","location":"04583-100 São Paulo, São Paulo SP","street":"Rua Jurubatuba, 461 (Vila Cordeiro)"},"insurances":"","misc":"","name":"Premier Residence Hospital","phone":"(11) 5090-5000","working_hours":""}},"education":{},"experience":"","name":"Esper Georges Kallas","picture":"http://photos.doctoralia.com/634568373959347675_2.jpg","registration_number":"","salutation":"","services":"","speciality":"Infectologista","subspecialities":""}},{"url":"http://www.doctoralia.com.br/medico/rosana+richtmann-11924067","doctor": {"address":{"1":{"address":{"lat":-23.5655034,"lng":-46.6501717,"locality":"01403-001","location":"01403-001 São Paulo, São Paulo SP","street":"Al. Joaquim Eugenio de Lima, 383 (Jardim Paulista)"},"insurances":"","misc":"","name":"Pro Matre Paulista","phone":"(11) 3269-2233","working_hours":""}},"education":{},"experience":"","name":"Rosana Richtmann","picture":"http://photos.doctoralia.com/634568373959347675_2.jpg","registration_number":"","salutation":"","services":"","speciality":"Infectologista","subspecialities":""}},{"url":"http://www.doctoralia.com.br/medico/jose+marcos+pereira+costa-11898112","doctor": {"address":{"1":{"address":{"lat":-23.568557,"lng":-46.7420577,"locality":"05339-000","location":"05339-000 São Paulo, São Paulo SP","street":"Avenida Corifeu de Azevedo Marques, 3596 (Butanta)"},"insurances":"","misc":"","name":"Sae Dstaids Butanta","phone":"(11) 3765-1692","working_hours":""}},"education":{},"experience":"","name":"Jose Marcos Pereira Costa","picture":"http://photos.doctoralia.com/634568373959347675_2.jpg","registration_number":"","salutation":"","services":"","speciality":"Infectologista","subspecialities":""}},{"url":"http://www.doctoralia.com.br/medico/maria+goreti+vale-11898097","doctor": {"address":{"1":{"address":{"lat":-23.5542758,"lng":-46.4710757,"locality":"08285-130","location":"08285-130 São Paulo, São Paulo SP","street":"Rua Medio Iguacu, 86 (Cidade Lider)"},"insurances":"","misc":"","name":"Sae Dst Aids Cidade Lider II","phone":"(11) 2748-0255","working_hours":""}},"education":{},"experience":"","name":"Maria Goreti Vale","picture":"http://photos.doctoralia.com/634568373959347675_2.jpg","registration_number":"","salutation":"","services":"","speciality":"Infectologista","subspecialities":""}},{"url":"http://www.doctoralia.com.br/medico/hercilia+maria+ferreira+borges-11962883","doctor": {"address":{"1":{"address":{"lat":-23.5837935,"lng":-46.6110737,"locality":"04262-000","location":"04262-000 São Paulo, São Paulo SP","street":"Av. Nazaré, 28, (Ipiranga)"},"insurances":"","misc":"","name":"Hospital Ipiranga","phone":"(11) 2067-7799","working_hours":""}},"education":{},"experience":"","name":"Hercilia Maria Ferreira Borges","picture":"http://photos.doctoralia.com/634568373959347675_2.jpg","registration_number":"","salutation":"","services":"","speciality":"Infectologista","subspecialities":""}},{"url":"http://www.doctoralia.com.br/medico/guilherme+alves+bianco-11898098","doctor": {"address":{"1":{"address":{"lat":-23.5542758,"lng":-46.4710757,"locality":"08285-130","location":"08285-130 São Paulo, São Paulo SP","street":"Rua Medio Iguacu, 86 (Cidade Lider)"},"insurances":"","misc":"","name":"Sae Dst Aids Cidade Lider II","phone":"(11) 2748-0255","working_hours":""}},"education":{},"experience":"","name":"Guilherme Alves Bianco","picture":"http://photos.doctoralia.com/634568373959347675_2.jpg","registration_number":"","salutation":"","services":"","speciality":"Infectologista","subspecialities":""}},{"url":"http://www.doctoralia.com.br/medico/marilia+condotta-11898100","doctor": {"address":{"1":{"address":{"lat":-23.5542758,"lng":-46.4710757,"locality":"08285-130","location":"08285-130 São Paulo, São Paulo SP","street":"Rua Medio Iguacu, 86 (Cidade Lider)"},"insurances":"","misc":"","name":"Sae Dst Aids Cidade Lider II","phone":"(11) 2748-0255","working_hours":""}},"education":{},"experience":"","name":"Marilia Condotta","picture":"http://photos.doctoralia.com/634568373959347675_2.jpg","registration_number":"","salutation":"","services":"","speciality":"Infectologista","subspecialities":""}},{"url":"http://www.doctoralia.com.br/medico/rodrigo+jose+sini+de+almeida-11987262","doctor": {"address":{"1":{"address":{"lat":-23.5427318,"lng":-46.6489045,"locality":"01221-020","location":"01221-020 São Paulo, São Paulo SP","street":"R. Dr. Cesario Motta Jr, 112 (Vila Buarque)"},"insurances":"","misc":"","name":"Santa Casa de São Paulo Hospital Central","phone":"(11) 2176-7000","working_hours":""}},"education":{},"experience":"","name":"Rodrigo Jose Sini de Almeida","picture":"http://photos.doctoralia.com/634568373959347675_2.jpg","registration_number":"","salutation":"","services":"","speciality":"Infectologista","subspecialities":""}},{"url":"http://www.doctoralia.com.br/medico/mariangela+ferraz+lima-10591749","doctor": {"address":{"1":{"address":{"lat":-23.5436977,"lng":-46.5566025,"locality":"3319-001","location":"3319-001 São Paulo, São Paulo SP","street":"Cantagalo, 1803 (Tatuapé)"},"insurances":"Pacientes privados (sem plano de saúde), Unimed","misc":"","name":"Consultório","phone":"(11) 6198-4396","working_hours":""}},"education":{},"experience":"","name":"Mariangela Ferraz Lima","picture":"http://photos.doctoralia.com/634568373959347675_2.jpg","registration_number":"","salutation":"Dra","services":"","speciality":"Infectologista","subspecialities":""}},{"url":"http://www.doctoralia.com.br/medico/nemesio+leal+jr-10589976","doctor": {"address":{"1":{"address":{"lat":-23.6006604,"lng":-46.640052399999,"locality":"4044-060","location":"4044-060 São Paulo, São Paulo SP","street":"Primeiro de Janeiro, 108 (Vl. Mariana)"},"insurances":"Pacientes privados (sem plano de saúde), Unimed","misc":"","name":"Consultório","phone":"(11) 5579-5469","working_hours":""}},"education":{},"experience":"","name":"Nemésio Leal Jr.","picture":"http://photos.doctoralia.com/634568373959347675_2.jpg","registration_number":"","salutation":"Dr","services":"","speciality":"Infectologista","subspecialities":""}},{"url":"http://www.doctoralia.com.br/medico/decio+diament-10608488","doctor": {"address":{"1":{"address":{"lat":-23.5505199,"lng":-46.633309399999,"locality":"01246-000","location":"01246-000 São Paulo, São Paulo SP","street":"Av. Dr. Arnaldo, 165 - Ambulatório de Hepatites (Cerqueira César)"},"insurances":"Pacientes privados (sem plano de saúde), Unimed","misc":"","name":"Consultório","phone":"(11) 3896-1422, (11) 3896-1241","working_hours":""}},"education":{},"experience":"","name":"Décio Diament","picture":"http://photos.doctoralia.com/634568373959347675_2.jpg","registration_number":"","salutation":"Dr","services":"","speciality":"Infectologista","subspecialities":""}},{"url":"http://www.doctoralia.com.br/medico/melillo+sauer+mariana-12010747","doctor": {"address":{"1":{"address":{"lat":-23.5324194,"lng":-46.6588979,"locality":"01232","location":"01232 São Paulo, São Paulo SP","street":"R. Conselheiro Brotero"},"insurances":"","misc":"","name":"Consultório","phone":"3825-5144","working_hours":""}},"education":{},"experience":"","name":"Mariana Melillo Sauer","picture":"http://photos.doctoralia.com/634568373959347675_2.jpg","registration_number":"","salutation":"Dra","services":"","speciality":"Infectologista","subspecialities":""}},{"url":"http://www.doctoralia.com.br/medico/luiz+carlos+buchalla-10595749","doctor": {"address":{"1":{"address":{"lat":-23.5802803,"lng":-46.6388245,"locality":"04101-000","location":"04101-000 São Paulo, São Paulo SP","street":"R Vergueiro, 2087 - Conjunto 1504 (Vl Mariana)"},"insurances":"Pacientes privados (sem plano de saúde), Geap","misc":"","name":"Consultório","phone":"115-5736, (87) 5084-6410","working_hours":""}},"education":{},"experience":"","name":"Luiz Carlos Buchalla","picture":"http://photos.doctoralia.com/634568373959347675_2.jpg","registration_number":"","salutation":"Dr","services":"","speciality":"Infectologista","subspecialities":""}},{"url":"http://www.doctoralia.com.br/medico/helio+de+vasconcelos+lopes-10602561","doctor": {"address":{"1":{"address":{"lat":-23.5795139,"lng":-46.6625251,"locality":"01402-002","location":"01402-002 São Paulo, São Paulo SP","street":"Av Brig Luis Antonio, 4178 (Jardim Paulista)"},"insurances":"Pacientes privados (sem plano de saúde), Cassi","misc":"","name":"Consultório","phone":"(11) 3887-6392","working_hours":""}},"education":{},"experience":"","name":"Helio de Vasconcelos Lopes","picture":"http://photos.doctoralia.com/634568373959347675_2.jpg","registration_number":"","salutation":"Dr","services":"","speciality":"Infectologista","subspecialities":""}},{"url":"http://www.doctoralia.com.br/medico/focaccia+siciliano+rinaldo-12896569","doctor": {"address":{"1":{"address":{"lat":-23.5409979,"lng":-46.6557186,"locality":"01228-000","location":"01228-000 São Paulo, São Paulo SP","street":"Av. Angélica 916, conjunto 701. (Higienópolis)"},"insurances":"","misc":"","name":"Consultório","phone":"36662202","working_hours":""}},"education":{},"experience":"","name":"Rinaldo Focaccia Siciliano","picture":"http://photos.doctoralia.com/634568373959347675_2.jpg","registration_number":"","salutation":"Dr","services":"","speciality":"Infectologista","subspecialities":""}},{"url":"http://www.doctoralia.com.br/medico/renato+satovschi+grinbaum-10580790","doctor": {"address":{"1":{"address":{"lat":-23.5668245,"lng":-46.6412999,"locality":"01323-001","location":"01323-001 São Paulo, São Paulo SP","street":"Rua Maestro Cardim, 769 - 769 (Bela Vista)"},"insurances":"Pacientes privados (sem plano de saúde), Unimed","misc":"","name":"Consultório","phone":"","working_hours":""}},"education":{},"experience":"","name":"Renato Satovschi Grinbaum","picture":"http://photos.doctoralia.com/634568373959347675_2.jpg","registration_number":"","salutation":"Dr","services":"","speciality":"Infectologista","subspecialities":""}},{"url":"http://www.doctoralia.com.br/medico/rosana+del+bianco-10585158","doctor": {"address":{"1":{"address":{"lat":-23.5809897,"lng":-46.6660624,"locality":"06421-040","location":"06421-040 São Paulo, São Paulo SP","street":"Rua Groelandia, 68 (Jardim America)"},"insurances":"Pacientes privados (sem plano de saúde), Cassi","misc":"","name":"Consultório","phone":"","working_hours":""}},"education":{},"experience":"","name":"Rosana Del Bianco","picture":"http://photos.doctoralia.com/634568373959347675_2.jpg","registration_number":"","salutation":"Dra","services":"","speciality":"Infectologista","subspecialities":""}},{"url":"http://www.doctoralia.com.br/medico/mario+monteiro+de+messas-10591661","doctor": {"address":{"1":{"address":{"lat":-23.5348001,"lng":-46.5687043,"locality":"03064-000","location":"03064-000 São Paulo, São Paulo SP","street":"Av Celso Garcia, 4536 (Tatuape)"},"insurances":"Pacientes privados (sem plano de saúde), Geap","misc":"","name":"Consultório","phone":"","working_hours":""}},"education":{},"experience":"","name":"Mario Monteiro de Messas","picture":"http://photos.doctoralia.com/634568373959347675_2.jpg","registration_number":"","salutation":"Dr","services":"","speciality":"Infectologista","subspecialities":""}},{"url":"http://www.doctoralia.com.br/medico/lidia+aiko+hamamoto-10597305","doctor": {"address":{"1":{"address":{"lat":-23.5605718,"lng":-46.6726979,"locality":"05402-000","location":"05402-000 São Paulo, São Paulo SP","street":"Av. Reboucas, 1104 - Cj. 22 (Pinheiros)"},"insurances":"Pacientes privados (sem plano de saúde), Cassi","misc":"","name":"Consultório","phone":"","working_hours":""}},"education":{},"experience":"","name":"Lidia Aiko Hamamoto","picture":"http://photos.doctoralia.com/634568373959347675_2.jpg","registration_number":"","salutation":"Dr","services":"","speciality":"Infectologista","subspecialities":""}},{"url":"http://www.doctoralia.com.br/medico/helio+vasconcellos+lopes-10602638","doctor": {"address":{"1":{"address":{"lat":-23.5795139,"lng":-46.6625251,"locality":"01402-002","location":"01402-002 São Paulo, São Paulo SP","street":"Av Brigadeiro Luis Antonio, 4178 (Jardim Paulista)"},"insurances":"Pacientes privados (sem plano de saúde), Unimed","misc":"","name":"Consultório","phone":"","working_hours":""}},"education":{},"experience":"","name":"Helio Vasconcellos Lopes","picture":"http://photos.doctoralia.com/634568373959347675_2.jpg","registration_number":"","salutation":"Dr","services":"","speciality":"Infectologista","subspecialities":""}},{"url":"http://www.doctoralia.com.br/medico/marco+aurelio+palazzi+safadi-11987258","doctor": {"address":{"1":{"address":{"lat":-23.5427318,"lng":-46.6489045,"locality":"01221-020","location":"01221-020 São Paulo, São Paulo SP","street":"R. Dr. Cesario Motta Jr, 112 (Vila Buarque)"},"insurances":"","misc":"","name":"Santa Casa de São Paulo Hospital Central","phone":"(11) 2176-7000","working_hours":""}},"education":{},"experience":"","name":"Marco Aurelio Palazzi Safadi","picture":"http://photos.doctoralia.com/634568373959347675_2.jpg","registration_number":"","salutation":"","services":"","speciality":"Infectologista","subspecialities":""}},{"url":"http://www.doctoralia.com.br/medico/erika+ferrari+rafael+da+silva-12091283","doctor": {"address":{"1":{"address":{"lat":-23.530642,"lng":-46.5994896,"locality":"03021-040","location":"03021-040 São Paulo, São Paulo SP","street":"R. Jequitinhonha, 360\n (Belém)"},"insurances":"","misc":"","name":"PAM Maria Zélia","phone":"(11) 6291-3833, (11) 6291-3025","working_hours":""}},"education":{},"experience":"","name":"Erika Ferrari Rafael da Silva","picture":"http://photos.doctoralia.com/634568373959347675_2.jpg","registration_number":"","salutation":"","services":"","speciality":"Infectologista","subspecialities":""}},{"url":"http://www.doctoralia.com.br/medico/joao+paulo+bueno-11898120","doctor": {"address":{"1":{"address":{"lat":-23.5314633,"lng":-46.6529967,"locality":"01230-000","location":"01230-000 São Paulo, São Paulo SP","street":"Rua Dr Albuquerque Lins, 40 (Santa Cecilia)"},"insurances":"","misc":"","name":"Sae Dstaids Campos Eliseos","phone":"(11) 3825-3766","working_hours":""}},"education":{},"experience":"","name":"Joao Paulo Bueno","picture":"http://photos.doctoralia.com/634568373959347675_2.jpg","registration_number":"","salutation":"","services":"","speciality":"Infectologista","subspecialities":""}},{"url":"http://www.doctoralia.com.br/medico/vladimir+silva+de+souza-11898122","doctor": {"address":{"1":{"address":{"lat":-23.5314633,"lng":-46.6529967,"locality":"01230-000","location":"01230-000 São Paulo, São Paulo SP","street":"Rua Dr Albuquerque Lins, 40 (Santa Cecilia)"},"insurances":"","misc":"","name":"Sae Dstaids Campos Eliseos","phone":"(11) 3825-3766","working_hours":""}},"education":{},"experience":"","name":"Vladimir Silva de Souza","picture":"http://photos.doctoralia.com/634568373959347675_2.jpg","registration_number":"","salutation":"","services":"","speciality":"Infectologista","subspecialities":""}},{"url":"http://www.doctoralia.com.br/medico/luciana+lunardi-11962885","doctor": {"address":{"1":{"address":{"lat":-23.5837935,"lng":-46.6110737,"locality":"04262-000","location":"04262-000 São Paulo, São Paulo SP","street":"Av. Nazaré, 28, (Ipiranga)"},"insurances":"","misc":"","name":"Hospital Ipiranga","phone":"(11) 2067-7799","working_hours":""}},"education":{},"experience":"","name":"Luciana Lunardi","picture":"http://photos.doctoralia.com/634568373959347675_2.jpg","registration_number":"","salutation":"","services":"","speciality":"Infectologista","subspecialities":""}},{"url":"http://www.doctoralia.com.br/medico/maria+tereza+jahnel-11898101","doctor": {"address":{"1":{"address":{"lat":-23.5542758,"lng":-46.4710757,"locality":"08285-130","location":"08285-130 São Paulo, São Paulo SP","street":"Rua Medio Iguacu, 86 (Cidade Lider)"},"insurances":"","misc":"","name":"Sae Dst Aids Cidade Lider II","phone":"(11) 2748-0255","working_hours":""}},"education":{},"experience":"","name":"Maria Tereza Jahnel","picture":"http://photos.doctoralia.com/634568373959347675_2.jpg","registration_number":"","salutation":"","services":"","speciality":"Infectologista","subspecialities":""}},{"url":"http://www.doctoralia.com.br/medico/lena+vania+carneiro+peres-11898111","doctor": {"address":{"1":{"address":{"lat":-23.568557,"lng":-46.7420577,"locality":"05339-000","location":"05339-000 São Paulo, São Paulo SP","street":"Avenida Corifeu de Azevedo Marques, 3596 (Butanta)"},"insurances":"","misc":"","name":"Sae Dstaids Butanta","phone":"(11) 3765-1692","working_hours":""}},"education":{},"experience":"","name":"Lena Vania Carneiro Peres","picture":"http://photos.doctoralia.com/634568373959347675_2.jpg","registration_number":"","salutation":"","services":"","speciality":"Infectologista","subspecialities":""}},{"url":"http://www.doctoralia.com.br/medico/ina+kawasaki-11898121","doctor": {"address":{"1":{"address":{"lat":-23.5314633,"lng":-46.6529967,"locality":"01230-000","location":"01230-000 São Paulo, São Paulo SP","street":"Rua Dr Albuquerque Lins, 40 (Santa Cecilia)"},"insurances":"","misc":"","name":"Sae Dstaids Campos Eliseos","phone":"(11) 3825-3766","working_hours":""}},"education":{},"experience":"","name":"Ina Kawasaki","picture":"http://photos.doctoralia.com/634568373959347675_2.jpg","registration_number":"","salutation":"","services":"","speciality":"Infectologista","subspecialities":""}},{"url":"http://www.doctoralia.com.br/medico/laura+andrade+lagoa-11898124","doctor": {"address":{"1":{"address":{"lat":-23.5314633,"lng":-46.6529967,"locality":"01230-000","location":"01230-000 São Paulo, São Paulo SP","street":"Rua Dr Albuquerque Lins, 40 (Santa Cecilia)"},"insurances":"","misc":"","name":"Sae Dstaids Campos Eliseos","phone":"(11) 3825-3766","working_hours":""}},"education":{},"experience":"","name":"Laura Andrade Lagoa","picture":"http://photos.doctoralia.com/634568373959347675_2.jpg","registration_number":"","salutation":"","services":"","speciality":"Infectologista","subspecialities":""}},{"url":"http://www.doctoralia.com.br/medico/deise+lopes+arantes-11898132","doctor": {"address":{"1":{"address":{"lat":-23.6100289,"lng":-46.5013567,"locality":"03928-240","location":"03928-240 São Paulo, São Paulo SP","street":"Avenida Arquiteto Vila Nova Artigas, 515 (Sapopemba)"},"insurances":"","misc":"","name":"Sae Dstaids Herbert de Souza Betinho","phone":"(11) 2704-3341","working_hours":""}},"education":{},"experience":"","name":"Deise Lopes Arantes","picture":"http://photos.doctoralia.com/634568373959347675_2.jpg","registration_number":"","salutation":"","services":"","speciality":"Infectologista","subspecialities":""}},{"url":"http://www.doctoralia.com.br/medico/eitan+naaman+berezin-11987256","doctor": {"address":{"1":{"address":{"lat":-23.5427318,"lng":-46.6489045,"locality":"01221-020","location":"01221-020 São Paulo, São Paulo SP","street":"R. Dr. Cesario Motta Jr, 112 (Vila Buarque)"},"insurances":"","misc":"","name":"Santa Casa de São Paulo Hospital Central","phone":"(11) 2176-7000","working_hours":""}},"education":{},"experience":"","name":"Eitan Naaman Berezin","picture":"http://photos.doctoralia.com/634568373959347675_2.jpg","registration_number":"","salutation":"","services":"","speciality":"Infectologista","subspecialities":""}},{"url":"http://www.doctoralia.com.br/medico/claudia+regina+cachulo+lopes-11987259","doctor": {"address":{"1":{"address":{"lat":-23.5427318,"lng":-46.6489045,"locality":"01221-020","location":"01221-020 São Paulo, São Paulo SP","street":"R. Dr. Cesario Motta Jr, 112 (Vila Buarque)"},"insurances":"","misc":"","name":"Santa Casa de São Paulo Hospital Central","phone":"(11) 2176-7000","working_hours":""}},"education":{},"experience":"","name":"Claudia Regina Cachulo Lopes","picture":"http://photos.doctoralia.com/634568373959347675_2.jpg","registration_number":"","salutation":"","services":"","speciality":"Infectologista","subspecialities":""}},{"url":"http://www.doctoralia.com.br/medico/giselle+burlamarqui+klautau-11987263","doctor": {"address":{"1":{"address":{"lat":-23.5427318,"lng":-46.6489045,"locality":"01221-020","location":"01221-020 São Paulo, São Paulo SP","street":"R. Dr. Cesario Motta Jr, 112 (Vila Buarque)"},"insurances":"","misc":"","name":"Santa Casa de São Paulo Hospital Central","phone":"(11) 2176-7000","working_hours":""}},"education":{},"experience":"","name":"Giselle Burlamarqui Klautau","picture":"http://photos.doctoralia.com/634568373959347675_2.jpg","registration_number":"","salutation":"","services":"","speciality":"Infectologista","subspecialities":""}},{"url":"http://www.doctoralia.com.br/medico/paulo+roberto+abrao+ferreira-12018652","doctor": {"address":{"1":{"address":{"lat":-23.530642,"lng":-46.5994896,"locality":"03021-040","location":"03021-040 São Paulo, São Paulo SP","street":"R. Jequitinhonha, 360\n (Belém)"},"insurances":"","misc":"","name":"PAM Maria Zélia","phone":"(11) 6291-3833, (11) 6291-3025","working_hours":""},"2":{"address":{"lat":-23.6572847,"lng":-46.6537446,"locality":"04378-500","location":"04378-500 São Paulo, São Paulo SP","street":"Av. Santa Catarina, 2785 (Jabaquara)"},"insurances":"","misc":"","name":"Hospital e Maternidade Santa Marina","phone":"(11) 5013-1100","working_hours":""}},"education":{},"experience":"","name":"Paulo Roberto Abrao Ferreira","picture":"http://photos.doctoralia.com/634568373959347675_2.jpg","registration_number":"","salutation":"","services":"","speciality":"Infectologista","subspecialities":""}},{"url":"http://www.doctoralia.com.br/medico/diaz+ricardo-11604384","doctor": {"address":{"1":{"address":{"lat":-23.6032065,"lng":-46.6469118,"locality":"04025-014","location":"04025-014 São Paulo, São Paulo SP","street":"Rua Leandro Dupré, 967"},"insurances":"","misc":"","name":"Centro de Genomas","phone":"(11) 5079-9593, 11-5079-9593, 11-9448-3671","working_hours":"Comercial (2° a 6°)"}},"education":{},"experience":"","name":"Ricardo Diaz","picture":"http://photos.doctoralia.com/634568373959347675_2.jpg","registration_number":"","salutation":"Dr","services":"","speciality":"Infectologista","subspecialities":""}},{"url":"http://www.doctoralia.com.br/medico/ione+fumiko+ishikawa-11898096","doctor": {"address":{"1":{"address":{"lat":-23.5542758,"lng":-46.4710757,"locality":"08285-130","location":"08285-130 São Paulo, São Paulo SP","street":"Rua Medio Iguacu, 86 (Cidade Lider)"},"insurances":"","misc":"","name":"Sae Dst Aids Cidade Lider II","phone":"(11) 2748-0255","working_hours":""}},"education":{},"experience":"","name":"Ione Fumiko Ishikawa","picture":"http://photos.doctoralia.com/634568373959347675_2.jpg","registration_number":"","salutation":"","services":"","speciality":"Infectologista","subspecialities":""}},{"url":"http://www.doctoralia.com.br/medico/fernanda+cavallini+fernandes-11898099","doctor": {"address":{"1":{"address":{"lat":-23.5542758,"lng":-46.4710757,"locality":"08285-130","location":"08285-130 São Paulo, São Paulo SP","street":"Rua Medio Iguacu, 86 (Cidade Lider)"},"insurances":"","misc":"","name":"Sae Dst Aids Cidade Lider II","phone":"(11) 2748-0255","working_hours":""}},"education":{},"experience":"","name":"Fernanda Cavallini Fernandes","picture":"http://photos.doctoralia.com/634568373959347675_2.jpg","registration_number":"","salutation":"","services":"","speciality":"Infectologista","subspecialities":""}},{"url":"http://www.doctoralia.com.br/medico/juliana+da+hora+santiago+tavares-11898123","doctor": {"address":{"1":{"address":{"lat":-23.5314633,"lng":-46.6529967,"locality":"01230-000","location":"01230-000 São Paulo, São Paulo SP","street":"Rua Dr Albuquerque Lins, 40 (Santa Cecilia)"},"insurances":"","misc":"","name":"Sae Dstaids Campos Eliseos","phone":"(11) 3825-3766","working_hours":""}},"education":{},"experience":"","name":"Juliana da Hora Santiago Tavares","picture":"http://photos.doctoralia.com/634568373959347675_2.jpg","registration_number":"","salutation":"","services":"","speciality":"Infectologista","subspecialities":""}},{"url":"http://www.doctoralia.com.br/medico/alvaro+furtado+da+costa-11898140","doctor": {"address":{"1":{"address":{"lat":-23.6423135,"lng":-46.781010599999,"locality":"05791-080","location":"05791-080 São Paulo, São Paulo SP","street":"Rua Frei Xisto Teuber, 50 (Jardim Mitsutani)"},"insurances":"","misc":"","name":"Sae Dstaids J Mitsutani","phone":"(11) 5841-9020","working_hours":""}},"education":{},"experience":"","name":"Alvaro Furtado da Costa","picture":"http://photos.doctoralia.com/634568373959347675_2.jpg","registration_number":"","salutation":"","services":"","speciality":"Infectologista","subspecialities":""}},{"url":"http://www.doctoralia.com.br/medico/maria+silvia+biagioni+santos-11898141","doctor": {"address":{"1":{"address":{"lat":-23.6423135,"lng":-46.781010599999,"locality":"05791-080","location":"05791-080 São Paulo, São Paulo SP","street":"Rua Frei Xisto Teuber, 50 (Jardim Mitsutani)"},"insurances":"","misc":"","name":"Sae Dstaids J Mitsutani","phone":"(11) 5841-9020","working_hours":""}},"education":{},"experience":"","name":"Maria Silvia Biagioni Santos","picture":"http://photos.doctoralia.com/634568373959347675_2.jpg","registration_number":"","salutation":"","services":"","speciality":"Infectologista","subspecialities":""}},{"url":"http://www.doctoralia.com.br/medico/camila+rodrigues-11898158","doctor": {"address":{"1":{"address":{"lat":-23.4928867,"lng":-46.6182091,"locality":"02039-090","location":"02039-090 São Paulo, São Paulo SP","street":"Rua Carlos de Camargo Aranha, 10 (Jardim Sao Paulo)"},"insurances":"","misc":"","name":"Nefros","phone":"(11) 2283-6320","working_hours":""}},"education":{},"experience":"","name":"Camila Rodrigues","picture":"http://photos.doctoralia.com/634568373959347675_2.jpg","registration_number":"","salutation":"","services":"","speciality":"Infectologista","subspecialities":""}},{"url":"http://www.doctoralia.com.br/medico/anderson+jose+dias+silva-11898457","doctor": {"address":{"1":{"address":{"lat":-23.501026,"lng":-46.62152,"locality":"02036-021","location":"02036-021 São Paulo, São Paulo SP","street":"Rua Duarte de Azevedo, 460 (Santana)"},"insurances":"","misc":"","name":"Vacciclin","phone":"(11) 6959-1339","working_hours":""}},"education":{},"experience":"","name":"Anderson Jose Dias Silva","picture":"http://photos.doctoralia.com/634568373959347675_2.jpg","registration_number":"","salutation":"","services":"","speciality":"Infectologista","subspecialities":""}},{"url":"http://www.doctoralia.com.br/medico/nilton+jose+fernandes+cavalcante-11958151","doctor": {"address":{"1":{"address":{"lat":-23.5916906,"lng":-46.6391535,"locality":"04020-040","location":"04020-040 São Paulo, São Paulo SP","street":"Rua Coronel Lisboa, 139 (Vila Mariana)"},"insurances":"","misc":"","name":"Residencial Israelita Albert Einstein","phone":"(11) 2151-1233","working_hours":""}},"education":{},"experience":"","name":"Nilton Jose Fernandes Cavalcante","picture":"http://photos.doctoralia.com/634568373959347675_2.jpg","registration_number":"","salutation":"","services":"","speciality":"Infectologista","subspecialities":""}},{"url":"http://www.doctoralia.com.br/medico/vasconcelos+ricardo+de+paula-11961543","doctor": {"address":{"1":{"address":{"lat":-23.7004941,"lng":-46.848831,"locality":"06850-030","location":"06850-030 Itapecerica Da Serra, São Paulo SP","street":"Avenida Guacy Fernandes Domingues, 200 (Embu Mirim)"},"insurances":"","misc":"","name":"Hospital Geral de Itapecerica Da Serra","phone":"(11) 4668-8988","working_hours":""},"2":{"address":{"lat":-23.5500328,"lng":-46.658528999999,"locality":"01239-040","location":"01239-040 São Paulo, São Paulo SP","street":"R. Mato Grosso, 306 (16° andar, cj 1602) (Higienópolis)"},"insurances":"","misc":"","name":"Instituto Abathon - Medicina e Saúde","phone":"(11) 2114-6080","working_hours":""}},"education":{},"experience":"","name":"Ricardo de Paula Vasconcelos","picture":"http://photos.doctoralia.com/634568373959347675_2.jpg","registration_number":"","salutation":"Dr","services":"","speciality":"Infectologista","subspecialities":""}},{"url":"http://www.doctoralia.com.br/medico/marcia+yoshida-11962886","doctor": {"address":{"1":{"address":{"lat":-23.5837935,"lng":-46.6110737,"locality":"04262-000","location":"04262-000 São Paulo, São Paulo SP","street":"Av. Nazaré, 28, (Ipiranga)"},"insurances":"","misc":"","name":"Hospital Ipiranga","phone":"(11) 2067-7799","working_hours":""}},"education":{},"experience":"","name":"Marcia Yoshida","picture":"http://photos.doctoralia.com/634568373959347675_2.jpg","registration_number":"","salutation":"","services":"","speciality":"Infectologista","subspecialities":""}},{"url":"http://www.doctoralia.com.br/medico/lycia+mara+jenne+mimica-11987257","doctor": {"address":{"1":{"address":{"lat":-23.5427318,"lng":-46.6489045,"locality":"01221-020","location":"01221-020 São Paulo, São Paulo SP","street":"R. Dr. Cesario Motta Jr, 112 (Vila Buarque)"},"insurances":"","misc":"","name":"Santa Casa de São Paulo Hospital Central","phone":"(11) 2176-7000","working_hours":""}},"education":{},"experience":"","name":"Lycia Mara Jenne Mimica","picture":"http://photos.doctoralia.com/634568373959347675_2.jpg","registration_number":"","salutation":"","services":"","speciality":"Infectologista","subspecialities":""}},{"url":"http://www.doctoralia.com.br/medico/marcelo+jenne+mimica-11987260","doctor": {"address":{"1":{"address":{"lat":-23.5427318,"lng":-46.6489045,"locality":"01221-020","location":"01221-020 São Paulo, São Paulo SP","street":"R. Dr. Cesario Motta Jr, 112 (Vila Buarque)"},"insurances":"","misc":"","name":"Santa Casa de São Paulo Hospital Central","phone":"(11) 2176-7000","working_hours":""}},"education":{},"experience":"","name":"Marcelo Jenne Mimica","picture":"http://photos.doctoralia.com/634568373959347675_2.jpg","registration_number":"","salutation":"","services":"","speciality":"Infectologista","subspecialities":""}},{"url":"http://www.doctoralia.com.br/medico/maria+fernanda+badue+pereira-11987261","doctor": {"address":{"1":{"address":{"lat":-23.5427318,"lng":-46.6489045,"locality":"01221-020","location":"01221-020 São Paulo, São Paulo SP","street":"R. Dr. Cesario Motta Jr, 112 (Vila Buarque)"},"insurances":"","misc":"","name":"Santa Casa de São Paulo Hospital Central","phone":"(11) 2176-7000","working_hours":""}},"education":{},"experience":"","name":"Maria Fernanda Badue Pereira","picture":"http://photos.doctoralia.com/634568373959347675_2.jpg","registration_number":"","salutation":"","services":"","speciality":"Infectologista","subspecialities":""}},{"url":"http://www.doctoralia.com.br/medico/moacyr+silva+junior-12018653","doctor": {"address":{"1":{"address":{"lat":-23.6572847,"lng":-46.6537446,"locality":"04378-500","location":"04378-500 São Paulo, São Paulo SP","street":"Av. Santa Catarina, 2785 (Jabaquara)"},"insurances":"","misc":"","name":"Hospital e Maternidade Santa Marina","phone":"(11) 5013-1100","working_hours":""}},"education":{},"experience":"","name":"Moacyr Silva Junior","picture":"http://photos.doctoralia.com/634568373959347675_2.jpg","registration_number":"","salutation":"","services":"","speciality":"Infectologista","subspecialities":""}},{"url":"http://www.doctoralia.com.br/medico/audrey+egypto+macedo-12087841","doctor": {"address":{"1":{"address":{"lat":-23.5566208,"lng":-46.6253464,"locality":"01518-020","location":"01518-020 São Paulo, São Paulo SP","street":"Rua Leopoldo Miguez, 327 (Cambuci)"},"insurances":"","misc":"","name":"Pam Varzea Do Carmo Nga 63","phone":"(11) 3385-7000","working_hours":""}},"education":{},"experience":"","name":"Audrey Egypto Macedo","picture":"http://photos.doctoralia.com/634568373959347675_2.jpg","registration_number":"","salutation":"","services":"","speciality":"Infectologista","subspecialities":""}},{"url":"http://www.doctoralia.com.br/medico/anapaula+kadekaru+yshimine-12093654","doctor": {"address":{"1":{"address":{"lat":-23.6159389,"lng":-46.674311499999,"locality":"04614-010","location":"04614-010 São Paulo, São Paulo SP","street":"Rua Demóstenes, 507 (Campo Belo)"},"insurances":"","misc":"","name":"Clínica São Lucas","phone":"(11) 5543-7759","working_hours":""}},"education":{},"experience":"","name":"Anapaula Kadekaru Yshimine","picture":"http://photos.doctoralia.com/634568373959347675_2.jpg","registration_number":"","salutation":"","services":"","speciality":"Infectologista","subspecialities":""}},{"url":"http://www.doctoralia.com.br/medico/paulo+antonio+leitao-11898456","doctor": {"address":{"1":{"address":{"lat":-23.501026,"lng":-46.62152,"locality":"02036-021","location":"02036-021 São Paulo, São Paulo SP","street":"Rua Duarte de Azevedo, 460 (Santana)"},"insurances":"","misc":"","name":"Vacciclin","phone":"(11) 6959-1339","working_hours":""}},"education":{},"experience":"","name":"Paulo Antonio Leitao","picture":"http://photos.doctoralia.com/634568373959347675_2.jpg","registration_number":"","salutation":"","services":"","speciality":"Infectologista","subspecialities":""}}]}