{"webData": [{"url":"http://www.doctoralia.com.br/medico/granja+maria+mercedes-10592150","doctor": {"address":{"1":{"address":{"lat":-23.584297,"lng":-46.676871899999,"locality":"04542-050","location":"04542-050 São Paulo, São Paulo SP","street":"Rua Urussui, 92 - 125"},"insurances":"Pacientes privados (sem plano de saúde), Mediservice","misc":"","name":"Consultório","phone":"(11) 3079-3000, (11) 3079-4676","working_hours":""}},"education":{},"experience":"","name":"Maria Mercedes Granja","picture":"http://photos.doctoralia.com/635628895710102527_2.jpg","registration_number":"32","salutation":"Dra","services":"","speciality":"Patologista clínico, Nutrologista","subspecialities":""}},{"url":"http://www.doctoralia.com.br/medico/reynaldo+augusto+machado-10586794","doctor": {"address":{"1":{"address":{"lat":-23.5666043,"lng":-46.6429404,"locality":"01321-001","location":"01321-001 São Paulo, São Paulo SP","street":"R Martiniano de Carvalho, 883 (Bela Vista)"},"insurances":"Pacientes privados (sem plano de saúde), Geap","misc":"","name":"Consultório","phone":"","working_hours":""}},"education":{},"experience":"","name":"Reynaldo Augusto Machado","picture":"http://photos.doctoralia.com/635217547365143604_1.jpg","registration_number":"","salutation":"Dr","services":"","speciality":"Anátomopatologista, Patologista clínico","subspecialities":"Citopatologia"}},{"url":"http://www.doctoralia.com.br/medico/ivan+fernandes+da+silva-10601477","doctor": {"address":{"1":{"address":{"lat":-23.5681272,"lng":-46.6484941,"locality":"1311-000","location":"1311-000 São Paulo, São Paulo SP","street":"Paulista, 509 - Cj. 1107 (Bela Vista)"},"insurances":"Pacientes privados (sem plano de saúde), Unimed","misc":"","name":"Consultório","phone":"(11) 3283-5233","working_hours":""}},"education":{},"experience":"","name":"Ivan Fernandes da Silva","picture":"http://photos.doctoralia.com/V2635322461198592127_2.jpg","registration_number":"","salutation":"Dr","services":"","speciality":"Anátomopatologista, Ginecologista","subspecialities":""}},{"url":"http://www.doctoralia.com.br/medico/ricardo+manoel+de+oliveira-10586518","doctor": {"address":{"1":{"address":{"lat":-23.5716149,"lng":-46.6693875,"locality":"01430-001","location":"01430-001 São Paulo, São Paulo SP","street":"Av. Brasil, 1150 (J. America)"},"insurances":"Pacientes privados (sem plano de saúde)","misc":"","name":"Consultório","phone":"(11) 3065-0800","working_hours":""}},"education":{},"experience":"","name":"Ricardo Manoel de Oliveira","picture":"http://photos.doctoralia.com/635217547365143604_1.jpg","registration_number":"","salutation":"Dr","services":"Infertilidade","speciality":"Patologista clínico","subspecialities":""}},{"url":"http://www.doctoralia.com.br/medico/vanderley+alfredo+madeira+da+fonseca-10582210","doctor": {"address":{"1":{"address":{"lat":-23.6145937,"lng":-46.6803527,"locality":"04563-020","location":"04563-020 São Paulo, São Paulo SP","street":"Jacucaim, 104 (Brooklin)"},"insurances":"Pacientes privados (sem plano de saúde), Cassi","misc":"","name":"Consultório","phone":"(11) 5542-9244, (11) 5542-8672","working_hours":""}},"education":{},"experience":"","name":"Vanderley Alfredo Madeira da Fonseca","picture":"http://photos.doctoralia.com/635427142180220271_2.jpg","registration_number":"","salutation":"Dr","services":"","speciality":"Acupunturista, Patologista clínico","subspecialities":"Citopatologia"}},{"url":"http://www.doctoralia.com.br/medico/jaildo+de+souza+canuto-11987572","doctor": {"address":{"1":{"address":{"lat":-23.5427318,"lng":-46.6489045,"locality":"01221-020","location":"01221-020 São Paulo, São Paulo SP","street":"R. Dr. Cesario Motta Jr, 112 (Vila Buarque)"},"insurances":"","misc":"","name":"Santa Casa de São Paulo Hospital Central","phone":"(11) 2176-7000","working_hours":""}},"education":{},"experience":"","name":"Jaildo de Souza Canuto","picture":"http://photos.doctoralia.com/635217547365143604_1.jpg","registration_number":"","salutation":"","services":"","speciality":"Patologista clínico","subspecialities":""}},{"url":"http://www.doctoralia.com.br/medico/martins+carla+guerra-11924073","doctor": {"address":{"1":{"address":{"lat":-23.5655034,"lng":-46.6501717,"locality":"01403-001","location":"01403-001 São Paulo, São Paulo SP","street":"Al. Joaquim Eugenio de Lima, 383 (Jardim Paulista)"},"insurances":"","misc":"","name":"Pro Matre Paulista","phone":"(11) 3269-2233","working_hours":""}},"education":{},"experience":"","name":"Carla Guerra Martins","picture":"http://photos.doctoralia.com/635217547365143604_1.jpg","registration_number":"","salutation":"","services":"","speciality":"Patologista clínico","subspecialities":""}},{"url":"http://www.doctoralia.com.br/medico/mabezia+m+m+vilas+boas-11880856","doctor": {"address":{"1":{"address":{"lat":-23.5680342,"lng":-46.6207423,"locality":"01540-000","location":"01540-000 São Paulo, São Paulo SP","street":"Rua Herminio Lemos, 385 (Cambuci)"},"insurances":"","misc":"","name":"Santamalia Saude Cambuci","phone":"(11) 3278-1000","working_hours":""}},"education":{},"experience":"","name":"Mabezia M M Vilas Boas","picture":"http://photos.doctoralia.com/635217547365143604_1.jpg","registration_number":"","salutation":"","services":"","speciality":"Patologista clínico","subspecialities":""}},{"url":"http://www.doctoralia.com.br/medico/joao+guidugli+neto-11924070","doctor": {"address":{"1":{"address":{"lat":-23.5655034,"lng":-46.6501717,"locality":"01403-001","location":"01403-001 São Paulo, São Paulo SP","street":"Al. Joaquim Eugenio de Lima, 383 (Jardim Paulista)"},"insurances":"","misc":"","name":"Pro Matre Paulista","phone":"(11) 3269-2233","working_hours":""}},"education":{},"experience":"","name":"Joao Guidugli Neto","picture":"http://photos.doctoralia.com/635648902444227303_1.jpg","registration_number":"","salutation":"","services":"","speciality":"Patologista clínico","subspecialities":""}},{"url":"http://www.doctoralia.com.br/medico/deborah+pimenta+ferreira-12091303","doctor": {"address":{"1":{"address":{"lat":-23.530642,"lng":-46.5994896,"locality":"03021-040","location":"03021-040 São Paulo, São Paulo SP","street":"R. Jequitinhonha, 360\n (Belém)"},"insurances":"","misc":"","name":"PAM Maria Zélia","phone":"(11) 6291-3833, (11) 6291-3025","working_hours":""}},"education":{},"experience":"","name":"Deborah Pimenta Ferreira","picture":"http://photos.doctoralia.com/635648902444227303_1.jpg","registration_number":"","salutation":"","services":"","speciality":"Patologista clínico","subspecialities":""}},{"url":"http://www.doctoralia.com.br/medico/marcia+marcelino+de+souza+ishigai-11924072","doctor": {"address":{"1":{"address":{"lat":-23.5655034,"lng":-46.6501717,"locality":"01403-001","location":"01403-001 São Paulo, São Paulo SP","street":"Al. Joaquim Eugenio de Lima, 383 (Jardim Paulista)"},"insurances":"","misc":"","name":"Pro Matre Paulista","phone":"(11) 3269-2233","working_hours":""}},"education":{},"experience":"","name":"Marcia Marcelino de Souza Ishigai","picture":"http://photos.doctoralia.com/635648902444227303_1.jpg","registration_number":"","salutation":"","services":"","speciality":"Patologista clínico","subspecialities":""}},{"url":"http://www.doctoralia.com.br/medico/debora+krutman+zveibil-11924074","doctor": {"address":{"1":{"address":{"lat":-23.5655034,"lng":-46.6501717,"locality":"01403-001","location":"01403-001 São Paulo, São Paulo SP","street":"Al. Joaquim Eugenio de Lima, 383 (Jardim Paulista)"},"insurances":"","misc":"","name":"Pro Matre Paulista","phone":"(11) 3269-2233","working_hours":""}},"education":{},"experience":"","name":"Debora Krutman Zveibil","picture":"http://photos.doctoralia.com/635217547365143604_1.jpg","registration_number":"","salutation":"","services":"","speciality":"Patologista clínico","subspecialities":""}},{"url":"http://www.doctoralia.com.br/medico/gustavo+r+de+azevedo+focchi-11924077","doctor": {"address":{"1":{"address":{"lat":-23.5655034,"lng":-46.6501717,"locality":"01403-001","location":"01403-001 São Paulo, São Paulo SP","street":"Al. Joaquim Eugenio de Lima, 383 (Jardim Paulista)"},"insurances":"","misc":"","name":"Pro Matre Paulista","phone":"(11) 3269-2233","working_hours":""}},"education":{},"experience":"","name":"Gustavo R de Azevedo Focchi","picture":"http://photos.doctoralia.com/635648902444227303_1.jpg","registration_number":"","salutation":"","services":"","speciality":"Patologista clínico","subspecialities":""}},{"url":"http://www.doctoralia.com.br/medico/francy+reis+da+silva+patricio-11924078","doctor": {"address":{"1":{"address":{"lat":-23.5655034,"lng":-46.6501717,"locality":"01403-001","location":"01403-001 São Paulo, São Paulo SP","street":"Al. Joaquim Eugenio de Lima, 383 (Jardim Paulista)"},"insurances":"","misc":"","name":"Pro Matre Paulista","phone":"(11) 3269-2233","working_hours":""}},"education":{},"experience":"","name":"Francy Reis da Silva Patricio","picture":"http://photos.doctoralia.com/635648902444227303_1.jpg","registration_number":"","salutation":"","services":"","speciality":"Patologista clínico","subspecialities":""}},{"url":"http://www.doctoralia.com.br/medico/ana+maria+visconti-11987566","doctor": {"address":{"1":{"address":{"lat":-23.5427318,"lng":-46.6489045,"locality":"01221-020","location":"01221-020 São Paulo, São Paulo SP","street":"R. Dr. Cesario Motta Jr, 112 (Vila Buarque)"},"insurances":"","misc":"","name":"Santa Casa de São Paulo Hospital Central","phone":"(11) 2176-7000","working_hours":""}},"education":{},"experience":"","name":"Ana Maria Visconti","picture":"http://photos.doctoralia.com/635648902444227303_1.jpg","registration_number":"","salutation":"","services":"","speciality":"Patologista clínico","subspecialities":""}},{"url":"http://www.doctoralia.com.br/medico/jose+fernando+de+souza-11987570","doctor": {"address":{"1":{"address":{"lat":-23.5427318,"lng":-46.6489045,"locality":"01221-020","location":"01221-020 São Paulo, São Paulo SP","street":"R. Dr. Cesario Motta Jr, 112 (Vila Buarque)"},"insurances":"","misc":"","name":"Santa Casa de São Paulo Hospital Central","phone":"(11) 2176-7000","working_hours":""}},"education":{},"experience":"","name":"Jose Fernando de Souza","picture":"http://photos.doctoralia.com/635217547365143604_1.jpg","registration_number":"","salutation":"","services":"","speciality":"Patologista clínico","subspecialities":""}},{"url":"http://www.doctoralia.com.br/medico/caio+marcio+figueiredo+mendes-11878554","doctor": {"address":{"1":{"address":{"lat":-23.5394467,"lng":-46.6614498,"locality":"01232-010","location":"01232-010 São Paulo, São Paulo SP","street":"Rua Conselheiro Brotero, 1486 (Santa Cecilia)"},"insurances":"","misc":"","name":"Samarim","phone":"(11) 3821-5371, (11) 3821-5749, (11) 3821-5749","working_hours":""}},"education":{},"experience":"","name":"Caio Marcio Figueiredo Mendes","picture":"http://photos.doctoralia.com/635648902444227303_1.jpg","registration_number":"","salutation":"","services":"","speciality":"Patologista clínico","subspecialities":""}},{"url":"http://www.doctoralia.com.br/medico/joao+norberto+stavale-11924071","doctor": {"address":{"1":{"address":{"lat":-23.5655034,"lng":-46.6501717,"locality":"01403-001","location":"01403-001 São Paulo, São Paulo SP","street":"Al. Joaquim Eugenio de Lima, 383 (Jardim Paulista)"},"insurances":"","misc":"","name":"Pro Matre Paulista","phone":"(11) 3269-2233","working_hours":""}},"education":{},"experience":"","name":"Joao Norberto Stavale","picture":"http://photos.doctoralia.com/635648902444227303_1.jpg","registration_number":"","salutation":"","services":"","speciality":"Patologista clínico","subspecialities":""}},{"url":"http://www.doctoralia.com.br/medico/renato+lima+de+moraes-11924075","doctor": {"address":{"1":{"address":{"lat":-23.5655034,"lng":-46.6501717,"locality":"01403-001","location":"01403-001 São Paulo, São Paulo SP","street":"Al. Joaquim Eugenio de Lima, 383 (Jardim Paulista)"},"insurances":"","misc":"","name":"Pro Matre Paulista","phone":"(11) 3269-2233","working_hours":""}},"education":{},"experience":"","name":"Renato Lima de Moraes","picture":"http://photos.doctoralia.com/635217547365143604_1.jpg","registration_number":"","salutation":"","services":"","speciality":"Patologista clínico","subspecialities":""}},{"url":"http://www.doctoralia.com.br/medico/maria+do+carmo+guedes+alcoforado+a+queiroz-11924076","doctor": {"address":{"1":{"address":{"lat":-23.5655034,"lng":-46.6501717,"locality":"01403-001","location":"01403-001 São Paulo, São Paulo SP","street":"Al. Joaquim Eugenio de Lima, 383 (Jardim Paulista)"},"insurances":"","misc":"","name":"Pro Matre Paulista","phone":"(11) 3269-2233","working_hours":""}},"education":{},"experience":"","name":"Maria do Carmo Guedes Alcoforado A Queiroz","picture":"http://photos.doctoralia.com/635217547365143604_1.jpg","registration_number":"","salutation":"","services":"","speciality":"Patologista clínico","subspecialities":""}},{"url":"http://www.doctoralia.com.br/medico/jose+eugenio+de+moraes-11962922","doctor": {"address":{"1":{"address":{"lat":-23.5837935,"lng":-46.6110737,"locality":"04262-000","location":"04262-000 São Paulo, São Paulo SP","street":"Av. Nazaré, 28, (Ipiranga)"},"insurances":"","misc":"","name":"Hospital Ipiranga","phone":"(11) 2067-7799","working_hours":""}},"education":{},"experience":"","name":"Jose Eugenio de Moraes","picture":"http://photos.doctoralia.com/635648902444227303_1.jpg","registration_number":"","salutation":"","services":"","speciality":"Patologista clínico","subspecialities":""}},{"url":"http://www.doctoralia.com.br/medico/ernesto+terreri+neto-11962923","doctor": {"address":{"1":{"address":{"lat":-23.5837935,"lng":-46.6110737,"locality":"04262-000","location":"04262-000 São Paulo, São Paulo SP","street":"Av. Nazaré, 28, (Ipiranga)"},"insurances":"","misc":"","name":"Hospital Ipiranga","phone":"(11) 2067-7799","working_hours":""}},"education":{},"experience":"","name":"Ernesto Terreri Neto","picture":"http://photos.doctoralia.com/635217547365143604_1.jpg","registration_number":"","salutation":"","services":"","speciality":"Patologista clínico","subspecialities":""}},{"url":"http://www.doctoralia.com.br/medico/regina+irene+almeida+amendola-11987564","doctor": {"address":{"1":{"address":{"lat":-23.5427318,"lng":-46.6489045,"locality":"01221-020","location":"01221-020 São Paulo, São Paulo SP","street":"R. Dr. Cesario Motta Jr, 112 (Vila Buarque)"},"insurances":"","misc":"","name":"Santa Casa de São Paulo Hospital Central","phone":"(11) 2176-7000","working_hours":""}},"education":{},"experience":"","name":"Regina Irene Almeida Amendola","picture":"http://photos.doctoralia.com/635217547365143604_1.jpg","registration_number":"","salutation":"","services":"","speciality":"Patologista clínico","subspecialities":""}},{"url":"http://www.doctoralia.com.br/medico/vera+lucia+pagliusi+castilho-11987565","doctor": {"address":{"1":{"address":{"lat":-23.5427318,"lng":-46.6489045,"locality":"01221-020","location":"01221-020 São Paulo, São Paulo SP","street":"R. Dr. Cesario Motta Jr, 112 (Vila Buarque)"},"insurances":"","misc":"","name":"Santa Casa de São Paulo Hospital Central","phone":"(11) 2176-7000","working_hours":""}},"education":{},"experience":"","name":"Vera Lucia Pagliusi Castilho","picture":"http://photos.doctoralia.com/635217547365143604_1.jpg","registration_number":"","salutation":"","services":"","speciality":"Patologista clínico","subspecialities":""}},{"url":"http://www.doctoralia.com.br/medico/sonia+dos+santos+rodrigues-11987567","doctor": {"address":{"1":{"address":{"lat":-23.5427318,"lng":-46.6489045,"locality":"01221-020","location":"01221-020 São Paulo, São Paulo SP","street":"R. Dr. Cesario Motta Jr, 112 (Vila Buarque)"},"insurances":"","misc":"","name":"Santa Casa de São Paulo Hospital Central","phone":"(11) 2176-7000","working_hours":""}},"education":{},"experience":"","name":"Sonia dos Santos Rodrigues","picture":"http://photos.doctoralia.com/635217547365143604_1.jpg","registration_number":"","salutation":"","services":"","speciality":"Patologista clínico","subspecialities":""}},{"url":"http://www.doctoralia.com.br/medico/fernando+kooro-11987568","doctor": {"address":{"1":{"address":{"lat":-23.5427318,"lng":-46.6489045,"locality":"01221-020","location":"01221-020 São Paulo, São Paulo SP","street":"R. Dr. Cesario Motta Jr, 112 (Vila Buarque)"},"insurances":"","misc":"","name":"Santa Casa de São Paulo Hospital Central","phone":"(11) 2176-7000","working_hours":""}},"education":{},"experience":"","name":"Fernando Kooro","picture":"http://photos.doctoralia.com/635217547365143604_1.jpg","registration_number":"","salutation":"","services":"","speciality":"Patologista clínico","subspecialities":""}},{"url":"http://www.doctoralia.com.br/medico/fernando+sergio+lavacchini+ramunno-11987569","doctor": {"address":{"1":{"address":{"lat":-23.5427318,"lng":-46.6489045,"locality":"01221-020","location":"01221-020 São Paulo, São Paulo SP","street":"R. Dr. Cesario Motta Jr, 112 (Vila Buarque)"},"insurances":"","misc":"","name":"Santa Casa de São Paulo Hospital Central","phone":"(11) 2176-7000","working_hours":""}},"education":{},"experience":"","name":"Fernando Sergio Lavacchini Ramunno","picture":"http://photos.doctoralia.com/635648902444227303_1.jpg","registration_number":"","salutation":"","services":"","speciality":"Patologista clínico","subspecialities":""}},{"url":"http://www.doctoralia.com.br/medico/aparecida+de+cassia+carvalho-11987571","doctor": {"address":{"1":{"address":{"lat":-23.5427318,"lng":-46.6489045,"locality":"01221-020","location":"01221-020 São Paulo, São Paulo SP","street":"R. Dr. Cesario Motta Jr, 112 (Vila Buarque)"},"insurances":"","misc":"","name":"Santa Casa de São Paulo Hospital Central","phone":"(11) 2176-7000","working_hours":""}},"education":{},"experience":"","name":"Aparecida de Cassia Carvalho","picture":"http://photos.doctoralia.com/635648902444227303_1.jpg","registration_number":"","salutation":"","services":"","speciality":"Patologista clínico","subspecialities":""}},{"url":"http://www.doctoralia.com.br/medico/stanley+nigro-11987573","doctor": {"address":{"1":{"address":{"lat":-23.5427318,"lng":-46.6489045,"locality":"01221-020","location":"01221-020 São Paulo, São Paulo SP","street":"R. Dr. Cesario Motta Jr, 112 (Vila Buarque)"},"insurances":"","misc":"","name":"Santa Casa de São Paulo Hospital Central","phone":"(11) 2176-7000","working_hours":""}},"education":{},"experience":"","name":"Stanley Nigro","picture":"http://photos.doctoralia.com/635648902444227303_1.jpg","registration_number":"","salutation":"","services":"","speciality":"Patologista clínico","subspecialities":""}},{"url":"http://www.doctoralia.com.br/medico/vinicius+batista+moraes-11987574","doctor": {"address":{"1":{"address":{"lat":-23.5427318,"lng":-46.6489045,"locality":"01221-020","location":"01221-020 São Paulo, São Paulo SP","street":"R. Dr. Cesario Motta Jr, 112 (Vila Buarque)"},"insurances":"","misc":"","name":"Santa Casa de São Paulo Hospital Central","phone":"(11) 2176-7000","working_hours":""}},"education":{},"experience":"","name":"Vinicius Batista Moraes","picture":"http://photos.doctoralia.com/635648902444227303_1.jpg","registration_number":"","salutation":"","services":"","speciality":"Patologista clínico","subspecialities":""}},{"url":"http://www.doctoralia.com.br/medico/flavia+carolina+balula+moraes+meluza+paes-11987575","doctor": {"address":{"1":{"address":{"lat":-23.5427318,"lng":-46.6489045,"locality":"01221-020","location":"01221-020 São Paulo, São Paulo SP","street":"R. Dr. Cesario Motta Jr, 112 (Vila Buarque)"},"insurances":"","misc":"","name":"Santa Casa de São Paulo Hospital Central","phone":"(11) 2176-7000","working_hours":""}},"education":{},"experience":"","name":"Flavia Carolina Balula Moraes Meluza Paes","picture":"http://photos.doctoralia.com/635648902444227303_1.jpg","registration_number":"","salutation":"","services":"","speciality":"Patologista clínico","subspecialities":""}},{"url":"http://www.doctoralia.com.br/medico/celita+akiko+yoshikawa-12087871","doctor": {"address":{"1":{"address":{"lat":-23.5566208,"lng":-46.6253464,"locality":"01518-020","location":"01518-020 São Paulo, São Paulo SP","street":"Rua Leopoldo Miguez, 327 (Cambuci)"},"insurances":"","misc":"","name":"Pam Varzea Do Carmo Nga 63","phone":"(11) 3385-7000","working_hours":""}},"education":{},"experience":"","name":"Celita Akiko Yoshikawa","picture":"http://photos.doctoralia.com/635217547365143604_1.jpg","registration_number":"","salutation":"","services":"","speciality":"Patologista clínico","subspecialities":""}}]}