{"webData": [{"url":"http://www.doctoralia.com.br/medico/lima+villela+emanuele-13533943","doctor": {"address":{"1":{"address":{"lat":-23.570165,"lng":-46.6440755,"locality":"01333-011","location":"01333-011 São Paulo, São Paulo SP","street":"Rua Cincinato Braga, 37. Cj 12. (Paraíso)"},"insurances":"Pacientes privados (sem plano de saúde), Bradesco Saúde, Allianz Saúde, Cesp, Gama Saúde, Itaú Seguros, Lincx, Mediservice, Notre Dame,  e 14 maisOmint, Porto Seguro, Saude Caixa, Sul América Saúde, Unibanco Saúde, AFPESP, AFRESP, AMAFRESP, Care Plus, Fundação Cesp, Fundação Pampulha, Life Saúde, Unafisco, Wolks","misc":"Departamento: Endoscopia e Colonoscopia Posto: Médica da equipe","name":"Centro Paulista de Endoscopia","phone":"31494799","working_hours":"07:00 às 20:00"},"2":{"address":{"lat":-23.570165,"lng":-46.6440755,"locality":"01333-011","location":"01333-011 São Paulo, São Paulo SP","street":"Rua Cincinato Braga, 37. Cj 12 (Paraíso)"},"insurances":"Pacientes privados (sem plano de saúde), Bradesco Saúde, Allianz Saúde, Cesp, Gama Saúde, Itaú Seguros, Lincx, Mediservice, Notre Dame,  e 4 maisOmint, Porto Seguro, Sul América Saúde, Unibanco Saúde","misc":"","name":"Consultório","phone":"31494799","working_hours":"7:00 às 20:00"}},"education":{"1":{"degree":"Residência de Gastroenterologia","institute":"Hospital das Clínicas da Faculdade de Medicina da Universidade de São Paulo","year":"2007"},"2":{"degree":"Residência de Endoscopia Digestiva","institute":"Hospital das Clínicas da Faculdade de Medicina da Universidade de São Paulo","year":"2009"},"3":{"degree":"Mestrado","institute":"Hospital das Clínicas da Faculdade de Medicina da Universidade de São Paulo","year":"2010"}},"experience":"Acalasia Esofágica, Câncer colorretal, Dispepsia, Doença Celíaca, Doença De Crohn, Doenças Do Sistema Digestório, Gastrite, Hemorróidas, Pólipos do intestino grosso (cólon e reto), Refluxo Gastroesofágico, Síndrome Do Intestino Irritável, Úlcera gastroduodenal","name":"Emanuele Lima Villela","picture":"http://photos.doctoralia.com/V2635318135048249015_2.jpg","registration_number":"","salutation":"Dra","services":"Biopsia , Colonoscopia do Cólon , CPRE , Esofagoscopia E Tamponamento De Varizes Esofagianas, Esofagoscopia Para Diagnostico Colheita De Material E Biopsia, Gastroscopia, Gastrostomia Videolaparoscopica, Ligadura De Veias Esofagianas, Retossigmoidectomia abdominal por câncer, Retossigmoidoscopia Com Polipectomia, Sigmoidoscopia: exame do reto e sigmóide ","speciality":"Endoscopista","subspecialities":"Endoscopia Digestiva"}},{"url":"http://www.doctoralia.com.br/medico/sakai+paulo-10588403","doctor": {"address":{"1":{"address":{"lat":-23.570165,"lng":-46.6440755,"locality":"01333-011","location":"01333-011 São Paulo, São Paulo SP","street":"R. Cincinato Braga, 37 (cj 12) (Bela Vista)"},"insurances":"Pacientes privados (sem plano de saúde), Bradesco Saúde, Allianz Saúde, CABESP, Cassi, Cesp, Funcef, Gama Saúde, Intermédica,  e 12 maisItaú Seguros, Lincx, Mediservice, Notre Dame, Omint, Porto Seguro, Saude Caixa, Sul América Saúde, Unibanco Saúde, Care Plus, Unafisco, Volks","misc":"","name":"Consultório","phone":"(11) 3149-4799","working_hours":""}},"education":{},"experience":"","name":"Paulo Sakai","picture":"http://photos.doctoralia.com/635447508651134802_1.jpg","registration_number":"17927","salutation":"Dr","services":"CPRE , Endoscopia Digestiva Alta","speciality":"Gastroenterologista, Endoscopista","subspecialities":"Endoscopia Digestiva"}},{"url":"http://www.doctoralia.com.br/medico/kuga+rogerio-12071131","doctor": {"address":{"1":{"address":{"lat":-23.5687168,"lng":-46.645654099999,"locality":"04002-030","location":"04002-030 São Paulo, São Paulo SP","street":"Rua Teixeira da Silva 34 cj. 62 (Bela Vista)"},"insurances":"Pacientes privados (sem plano de saúde), Omint","misc":"","name":"Consultório","phone":"11-3284-1837","working_hours":""}},"education":{"1":{"degree":"Graduação","institute":"Faculdade de Medicina da Universidade de São Paulo","year":"1996"},"2":{"degree":"Título de Especialista em Endoscopia Digestiva","institute":"Universidade de São Paulo","year":"2001"},"3":{"degree":"Mestrado","institute":"Universidade de São Paulo","year":"2007"}},"experience":"","name":"Rogério Kuga","picture":"http://photos.doctoralia.com/V2635318135048249015_2.jpg","registration_number":"","salutation":"Dr","services":"Colonoscopia do Cólon , CPRE , Esofagoscopia E Tamponamento De Varizes Esofagianas, Gastroscopia","speciality":"Endoscopista","subspecialities":"Endoscopia Digestiva"}},{"url":"http://www.doctoralia.com.br/medico/f+de+a+toledo+cynthia-13204981","doctor": {"address":{"1":{"address":{"lat":-23.4977971,"lng":-46.6123503,"locality":"02085000","location":"02085000 São Paulo, São Paulo SP","street":"DELBONI AURIEMO \nAV LUIZ DUMONT VILLARES , 514 (SANTANA)"},"insurances":"","misc":"","name":"Consultório","phone":"20999250, 20999257","working_hours":""},"2":{"address":{"lat":-23.4682691,"lng":-46.5224316,"locality":"07111000","location":"07111000 Guarulhos, São Paulo SP","street":"DELBONI AURIEMO - LABORATORIO\nRUA PAULO FACCINI 267 (MACEDO)"},"insurances":"","misc":"","name":"Consultório","phone":"30496999, 30496956","working_hours":""},"3":{"address":{"lat":-23.5094409,"lng":-46.6261792,"locality":"02010200","location":"02010200 São Paulo, São Paulo SP","street":"LAVOISIER SANTANA \nRUA VOLUNTARIOS DA PATRIA 1260 (SANTANA)"},"insurances":"","misc":"","name":"Consultório","phone":"30474488, 22511633","working_hours":""},"4":{"address":{"lat":-23.448724,"lng":-46.4952584,"locality":"07190912","location":"07190912 Guarulhos, São Paulo SP","street":"RUA DOS LIRIOS 300, PARQUE CECAP, GUARULHOS (Cecap)"},"insurances":"","misc":"Departamento: Endoscopia","name":"Hospital Geral de Guarulhos/Santa Casa de São Paulo","phone":"34661350, 34661443","working_hours":""},"5":{"address":{"lat":-23.5717497,"lng":-46.5899638,"locality":"03124020","location":"03124020 São Paulo, São Paulo SP","street":"RUA JUVENTUS 562 (MOOCA)"},"insurances":"","misc":"Departamento: Endoscopia","name":"Hospital Municipal Da Mooca - Dr Ignacio de Proença Gouveia","phone":"33947810, 33947816","working_hours":""},"6":{"address":{"lat":-23.4601508,"lng":-46.582184899999,"locality":"02276140","location":"02276140 São Paulo, São Paulo SP","street":"RUA MICHEL OUCHANA 94 (JAÇANA)"},"insurances":"","misc":"Departamento: Endoscopia","name":"Hospital São Luiz Gonzaga/Santa Casa de São Paulo","phone":"34661000","working_hours":""}},"education":{"1":{"degree":"Graduação em Medicina","institute":"Puccamp","year":"1996"},"2":{"degree":"Gastroenterologia Pediatrica","institute":"Santa Casa de São Paulo","year":"2002"},"3":{"degree":"Endoscopia Digestiva","institute":"Santa Casa de São Paulo","year":"2004"}},"experience":"","name":"Cynthia F","picture":"http://photos.doctoralia.com/V2635318135048249015_2.jpg","registration_number":"89088","salutation":"Dra","services":"","speciality":"Endoscopista","subspecialities":"Endoscopia Digestiva"}},{"url":"http://www.doctoralia.com.br/medico/ricardo+pires+de+mello-10586565","doctor": {"address":{"1":{"address":{"lat":-23.5292451,"lng":-46.7109867,"locality":"05060-000","location":"05060-000 São Paulo, São Paulo SP","street":"R Pio Xi, 587 (Alto da Lapa)"},"insurances":"Pacientes privados (sem plano de saúde), Cassi","misc":"","name":"Consultório","phone":"","working_hours":""}},"education":{},"experience":"","name":"Ricardo Pires de Mello","picture":"http://photos.doctoralia.com/V2635318135048249015_2.jpg","registration_number":"","salutation":"Dr","services":"","speciality":"Otorrinolaringologista, Endoscopista","subspecialities":""}},{"url":"http://www.doctoralia.com.br/medico/nelson+yukitoshi+sato-10589972","doctor": {"address":{"1":{"address":{"lat":-23.5273826,"lng":-46.635977999999,"locality":"01124-010","location":"01124-010 São Paulo, São Paulo SP","street":"Rua Bandeirantes, 492 (Bom Retiro)"},"insurances":"Pacientes privados (sem plano de saúde), Cassi","misc":"","name":"Consultório","phone":"","working_hours":""}},"education":{},"experience":"","name":"Nelson Yukitoshi Sato","picture":"http://photos.doctoralia.com/V2635318135048249015_2.jpg","registration_number":"","salutation":"Dr","services":"","speciality":"Endoscopista","subspecialities":"Endoscopia Digestiva"}},{"url":"http://www.doctoralia.com.br/medico/simone+perez+pilli-10584325","doctor": {"address":{"1":{"address":{"lat":-23.5426756,"lng":-46.651989,"locality":"01224-010","location":"01224-010 São Paulo, São Paulo SP","street":"R. Martinico Prado, 90"},"insurances":"Pacientes privados (sem plano de saúde), Bradesco Saúde, Cassi, Notre Dame","misc":"","name":"Consultório","phone":"(11) 3667-1343","working_hours":""}},"education":{},"experience":"","name":"Simone Perez Pilli","picture":"http://photos.doctoralia.com/V2634997519197418138_2.jpg","registration_number":"","salutation":"Dra","services":"","speciality":"Pneumologista, Endoscopista","subspecialities":"Endoscopia Digestiva, Endoscopia Respiratória"}},{"url":"http://www.doctoralia.com.br/medico/albano+armando-10612096","doctor": {"address":{"1":{"address":{"lat":-23.5945924,"lng":-46.6463124,"locality":"04025-010","location":"04025-010 São Paulo, São Paulo SP","street":"R. Leandro Dupré, 42 (Vila Mariana)"},"insurances":"Pacientes privados (sem plano de saúde), Unimed","misc":"","name":"Consultório","phone":"(11) 5572-1479","working_hours":""}},"education":{},"experience":"","name":"Armando Albano","picture":"http://photos.doctoralia.com/V2635318135048249015_2.jpg","registration_number":"","salutation":"Dr","services":"","speciality":"Gastroenterologista, Endoscopista","subspecialities":"Endoscopia Digestiva"}},{"url":"http://www.doctoralia.com.br/medico/koshiti+hondo-10597804","doctor": {"address":{"1":{"address":{"lat":-23.5680255,"lng":-46.563559,"locality":"4002-030","location":"4002-030 São Paulo, São Paulo SP","street":"Teixeira da Silva, 34 - 6º And. (Paraíso)"},"insurances":"Pacientes privados (sem plano de saúde), Unimed","misc":"","name":"Consultório","phone":"113-2841","working_hours":""}},"education":{},"experience":"","name":"Koshiti Hondo","picture":"http://photos.doctoralia.com/V2635318135048249015_2.jpg","registration_number":"","salutation":"Dr","services":"","speciality":"Endoscopista","subspecialities":"Endoscopia Digestiva"}},{"url":"http://www.doctoralia.com.br/medico/carlos+roberto+paula+blassioli-10610197","doctor": {"address":{"1":{"address":{"lat":-23.556109,"lng":-46.652233,"locality":"01308-000","location":"01308-000 São Paulo, São Paulo SP","street":"Rua Barata Ribeiro, 190 - 5º Andar (Bela Vista)"},"insurances":"Pacientes privados (sem plano de saúde), Unimed","misc":"","name":"Consultório","phone":"(11) 3237-3533","working_hours":""}},"education":{},"experience":"","name":"Carlos Roberto Paula Blassioli","picture":"http://photos.doctoralia.com/V2635318135048249015_2.jpg","registration_number":"","salutation":"Dr","services":"","speciality":"Otorrinolaringologista, Endoscopista","subspecialities":""}},{"url":"http://www.doctoralia.com.br/medico/feitosa+ruiz+renzo-12747519","doctor": {"address":{"1":{"address":{"lat":-23.5686312,"lng":-46.6432841,"locality":"01323-903","location":"01323-903 São Paulo, São Paulo SP","street":"Rua João Julião 331 (Bela Vista)"},"insurances":"","misc":"","name":"Hospital Alemão Oswaldo Cruz","phone":"(11) 3549-1000","working_hours":""},"2":{"address":{"lat":-23.5569354,"lng":-46.668461099999,"locality":"05403-900","location":"05403-900 São Paulo, São Paulo SP","street":"Av. Dr. Éneas de Carvalho Aguiar, 44 (Cerqueira Cesar)"},"insurances":"","misc":"","name":"Incor - Instituto do Coração do Hospital das Clínicas da USP","phone":"(11) 3607-0400","working_hours":""}},"education":{},"experience":"","name":"Renzo Feitosa Ruiz","picture":"http://photos.doctoralia.com/V2635318135048249015_2.jpg","registration_number":"","salutation":"Dr","services":"","speciality":"Endoscopista","subspecialities":"Endoscopia Digestiva"}},{"url":"http://www.doctoralia.com.br/medico/danilo+gabriele-11961612","doctor": {"address":{"1":{"address":{"lat":-23.5656169,"lng":-46.682839,"locality":"05422000","location":"05422000 São Paulo, São Paulo SP","street":"rua dos pinheiros 498 cj 152 pinheiros (pinheiros)"},"insurances":"","misc":"","name":"Consultório","phone":"23094590","working_hours":""},"2":{"address":{"lat":-23.5910656,"lng":-46.7036527,"locality":"05673-050","location":"05673-050 São Paulo, São Paulo SP","street":"Rua Engenheiro Oscar Americano, 840 (Morumbi)"},"insurances":"","misc":"","name":"Hospital São Luiz","phone":"(11) 3093-1100","working_hours":""}},"education":{},"experience":"","name":"Danilo Gabriele","picture":"http://photos.doctoralia.com/V2635318135048249015_2.jpg","registration_number":"","salutation":"","services":"","speciality":"Gastroenterologista, Endoscopista","subspecialities":"Endoscopia Digestiva"}},{"url":"http://www.doctoralia.com.br/medico/afonso+tochiaki+kamimura-10616059","doctor": {"address":{"1":{"address":{"lat":-23.5593836,"lng":-46.6529329,"locality":"01332-000","location":"01332-000 São Paulo, São Paulo SP","street":"Rua Itapeva, 378 - Cj 132 (Bela Vista)"},"insurances":"Pacientes privados (sem plano de saúde), Unimed","misc":"","name":"Consultório","phone":"","working_hours":""}},"education":{},"experience":"","name":"Afonso Tochiaki Kamimura","picture":"http://photos.doctoralia.com/V2635318135048249015_2.jpg","registration_number":"","salutation":"Dr","services":"","speciality":"Endoscopista","subspecialities":"Endoscopia Digestiva"}},{"url":"http://www.doctoralia.com.br/medico/gil+kamergorodsky-11987122","doctor": {"address":{"1":{"address":{"lat":-23.5427318,"lng":-46.6489045,"locality":"01221-020","location":"01221-020 São Paulo, São Paulo SP","street":"R. Dr. Cesario Motta Jr, 112 (Vila Buarque)"},"insurances":"","misc":"","name":"Santa Casa de São Paulo Hospital Central","phone":"(11) 2176-7000","working_hours":""}},"education":{},"experience":"","name":"Gil Kamergorodsky","picture":"http://photos.doctoralia.com/V2635318135048249015_2.jpg","registration_number":"","salutation":"","services":"","speciality":"Endoscopista","subspecialities":""}},{"url":"http://www.doctoralia.com.br/medico/ricardo+anuar+dib-11962850","doctor": {"address":{"1":{"address":{"lat":-23.5837935,"lng":-46.6110737,"locality":"04262-000","location":"04262-000 São Paulo, São Paulo SP","street":"Av. Nazaré, 28, (Ipiranga)"},"insurances":"","misc":"","name":"Hospital Ipiranga","phone":"(11) 2067-7799","working_hours":""}},"education":{},"experience":"","name":"Ricardo Anuar Dib","picture":"http://photos.doctoralia.com/V2635318135048249015_2.jpg","registration_number":"","salutation":"","services":"","speciality":"Endoscopista","subspecialities":""}},{"url":"http://www.doctoralia.com.br/medico/fabio+marioni-11987113","doctor": {"address":{"1":{"address":{"lat":-23.5427318,"lng":-46.6489045,"locality":"01221-020","location":"01221-020 São Paulo, São Paulo SP","street":"R. Dr. Cesario Motta Jr, 112 (Vila Buarque)"},"insurances":"","misc":"","name":"Santa Casa de São Paulo Hospital Central","phone":"(11) 2176-7000","working_hours":""}},"education":{},"experience":"","name":"Fabio Marioni","picture":"http://photos.doctoralia.com/V2635318135048249015_2.jpg","registration_number":"","salutation":"","services":"","speciality":"Endoscopista","subspecialities":""}},{"url":"http://www.doctoralia.com.br/medico/alexandre+silva+e+silva-11923657","doctor": {"address":{"1":{"address":{"lat":-23.5655034,"lng":-46.6501717,"locality":"01403-001","location":"01403-001 São Paulo, São Paulo SP","street":"Al. Joaquim Eugenio de Lima, 383 (Jardim Paulista)"},"insurances":"","misc":"","name":"Pro Matre Paulista","phone":"(11) 3269-2233","working_hours":""}},"education":{},"experience":"","name":"Alexandre Silva e Silva","picture":"http://photos.doctoralia.com/V2635318135048249015_2.jpg","registration_number":"","salutation":"","services":"","speciality":"Endoscopista","subspecialities":""}},{"url":"http://www.doctoralia.com.br/medico/wagner+valentino-11987120","doctor": {"address":{"1":{"address":{"lat":-23.5427318,"lng":-46.6489045,"locality":"01221-020","location":"01221-020 São Paulo, São Paulo SP","street":"R. Dr. Cesario Motta Jr, 112 (Vila Buarque)"},"insurances":"","misc":"","name":"Santa Casa de São Paulo Hospital Central","phone":"(11) 2176-7000","working_hours":""}},"education":{},"experience":"","name":"Wagner Valentino","picture":"http://photos.doctoralia.com/V2635318135048249015_2.jpg","registration_number":"","salutation":"","services":"","speciality":"Endoscopista","subspecialities":""}},{"url":"http://www.doctoralia.com.br/medico/emilio+carlos+spina-11987117","doctor": {"address":{"1":{"address":{"lat":-23.5427318,"lng":-46.6489045,"locality":"01221-020","location":"01221-020 São Paulo, São Paulo SP","street":"R. Dr. Cesario Motta Jr, 112 (Vila Buarque)"},"insurances":"","misc":"","name":"Santa Casa de São Paulo Hospital Central","phone":"(11) 2176-7000","working_hours":""}},"education":{},"experience":"","name":"Emilio Carlos Spina","picture":"http://photos.doctoralia.com/V2635318135048249015_2.jpg","registration_number":"","salutation":"","services":"","speciality":"Endoscopista","subspecialities":""}},{"url":"http://www.doctoralia.com.br/medico/regina+rie+imada-11987123","doctor": {"address":{"1":{"address":{"lat":-23.5427318,"lng":-46.6489045,"locality":"01221-020","location":"01221-020 São Paulo, São Paulo SP","street":"R. Dr. Cesario Motta Jr, 112 (Vila Buarque)"},"insurances":"","misc":"","name":"Santa Casa de São Paulo Hospital Central","phone":"(11) 2176-7000","working_hours":""}},"education":{},"experience":"","name":"Regina Rie Imada","picture":"http://photos.doctoralia.com/V2635318135048249015_2.jpg","registration_number":"","salutation":"","services":"","speciality":"Endoscopista","subspecialities":""}},{"url":"http://www.doctoralia.com.br/medico/karina+cristiane+takahashi-11987127","doctor": {"address":{"1":{"address":{"lat":-23.5427318,"lng":-46.6489045,"locality":"01221-020","location":"01221-020 São Paulo, São Paulo SP","street":"R. Dr. Cesario Motta Jr, 112 (Vila Buarque)"},"insurances":"","misc":"","name":"Santa Casa de São Paulo Hospital Central","phone":"(11) 2176-7000","working_hours":""}},"education":{},"experience":"","name":"Karina Cristiane Takahashi","picture":"http://photos.doctoralia.com/V2635318135048249015_2.jpg","registration_number":"","salutation":"","services":"","speciality":"Endoscopista","subspecialities":""}},{"url":"http://www.doctoralia.com.br/medico/lisete+paula+dos+santos+silva-10596968","doctor": {"address":{"1":{"address":{"lat":-23.5320672,"lng":-46.7135769,"locality":"5083-060","location":"5083-060 São Paulo, São Paulo SP","street":"Pres. Antonio Cândido, 68 (Alto da Lapa)"},"insurances":"","misc":"","name":"Consultório","phone":"113-8346","working_hours":""}},"education":{},"experience":"","name":"Lisete Paula dos Santos Silva","picture":"http://photos.doctoralia.com/V2635318135048249015_2.jpg","registration_number":"","salutation":"Dr","services":"","speciality":"Endoscopista","subspecialities":"Endoscopia Digestiva"}},{"url":"http://www.doctoralia.com.br/medico/lucio+giovanni+batista+rossini-11987132","doctor": {"address":{"1":{"address":{"lat":-23.5427318,"lng":-46.6489045,"locality":"01221-020","location":"01221-020 São Paulo, São Paulo SP","street":"R. Dr. Cesario Motta Jr, 112 (Vila Buarque)"},"insurances":"","misc":"","name":"Santa Casa de São Paulo Hospital Central","phone":"(11) 2176-7000","working_hours":""}},"education":{},"experience":"","name":"Lucio Giovanni Batista Rossini","picture":"http://photos.doctoralia.com/V2635318135048249015_2.jpg","registration_number":"","salutation":"","services":"","speciality":"Endoscopista","subspecialities":""}},{"url":"http://www.doctoralia.com.br/medico/ying+siu+tung-11864201","doctor": {"address":{"1":{"address":{"lat":-23.569396,"lng":-46.6109589,"locality":"01552-001","location":"01552-001 São Paulo, São Paulo SP","street":"Avenida Dom Pedro I - 465 (Ipiranga)"},"insurances":"","misc":"","name":"Laboratorio Levi","phone":"(11) 2061-6070, (11) 6161-6070, (11) 6161-6070","working_hours":""}},"education":{},"experience":"","name":"Ying Siu Tung","picture":"http://photos.doctoralia.com/V2635318135048249015_2.jpg","registration_number":"","salutation":"","services":"","speciality":"Endoscopista","subspecialities":""}},{"url":"http://www.doctoralia.com.br/medico/romeu+kiyotaka+nakamura-11987114","doctor": {"address":{"1":{"address":{"lat":-23.5427318,"lng":-46.6489045,"locality":"01221-020","location":"01221-020 São Paulo, São Paulo SP","street":"R. Dr. Cesario Motta Jr, 112 (Vila Buarque)"},"insurances":"","misc":"","name":"Santa Casa de São Paulo Hospital Central","phone":"(11) 2176-7000","working_hours":""}},"education":{},"experience":"","name":"Romeu Kiyotaka Nakamura","picture":"http://photos.doctoralia.com/V2635318135048249015_2.jpg","registration_number":"","salutation":"","services":"","speciality":"Endoscopista","subspecialities":""}},{"url":"http://www.doctoralia.com.br/medico/heitor+correa+barbin-11987119","doctor": {"address":{"1":{"address":{"lat":-23.5427318,"lng":-46.6489045,"locality":"01221-020","location":"01221-020 São Paulo, São Paulo SP","street":"R. Dr. Cesario Motta Jr, 112 (Vila Buarque)"},"insurances":"","misc":"","name":"Santa Casa de São Paulo Hospital Central","phone":"(11) 2176-7000","working_hours":""}},"education":{},"experience":"","name":"Heitor Correa Barbin","picture":"http://photos.doctoralia.com/V2635318135048249015_2.jpg","registration_number":"","salutation":"","services":"","speciality":"Endoscopista","subspecialities":""}},{"url":"http://www.doctoralia.com.br/medico/rogerio+colaiacovo-11987125","doctor": {"address":{"1":{"address":{"lat":-23.5427318,"lng":-46.6489045,"locality":"01221-020","location":"01221-020 São Paulo, São Paulo SP","street":"R. Dr. Cesario Motta Jr, 112 (Vila Buarque)"},"insurances":"","misc":"","name":"Santa Casa de São Paulo Hospital Central","phone":"(11) 2176-7000","working_hours":""}},"education":{},"experience":"","name":"Rogerio Colaiacovo","picture":"http://photos.doctoralia.com/V2635318135048249015_2.jpg","registration_number":"","salutation":"","services":"","speciality":"Endoscopista","subspecialities":""}},{"url":"http://www.doctoralia.com.br/medico/massami+yamada-11962849","doctor": {"address":{"1":{"address":{"lat":-23.5837935,"lng":-46.6110737,"locality":"04262-000","location":"04262-000 São Paulo, São Paulo SP","street":"Av. Nazaré, 28, (Ipiranga)"},"insurances":"","misc":"","name":"Hospital Ipiranga","phone":"(11) 2067-7799","working_hours":""}},"education":{},"experience":"","name":"Massami Yamada","picture":"http://photos.doctoralia.com/V2635318135048249015_2.jpg","registration_number":"","salutation":"","services":"","speciality":"Endoscopista","subspecialities":""}},{"url":"http://www.doctoralia.com.br/medico/sergio+valverde+salume-11868669","doctor": {"address":{"1":{"address":{"lat":-23.5505199,"lng":-46.633309399999,"locality":"05001-000","location":"05001-000 São Paulo, São Paulo SP","street":"Avenida Francisco Matarazzo, 74 / Terreo (Perdizes)"},"insurances":"","misc":"","name":"Seconci","phone":"(11) 3664--5050","working_hours":""}},"education":{},"experience":"","name":"Sergio Valverde Salume","picture":"http://photos.doctoralia.com/V2635318135048249015_2.jpg","registration_number":"","salutation":"","services":"","speciality":"Endoscopista","subspecialities":""}},{"url":"http://www.doctoralia.com.br/medico/jimi+izaques+bifi+scarparo-11962851","doctor": {"address":{"1":{"address":{"lat":-23.5837935,"lng":-46.6110737,"locality":"04262-000","location":"04262-000 São Paulo, São Paulo SP","street":"Av. Nazaré, 28, (Ipiranga)"},"insurances":"","misc":"","name":"Hospital Ipiranga","phone":"(11) 2067-7799","working_hours":""},"2":{"address":{"lat":-23.530642,"lng":-46.5994896,"locality":"03021-040","location":"03021-040 São Paulo, São Paulo SP","street":"R. Jequitinhonha, 360\n (Belém)"},"insurances":"","misc":"","name":"PAM Maria Zélia","phone":"(11) 6291-3833, (11) 6291-3025","working_hours":""}},"education":{},"experience":"","name":"Jimi Izaques Bifi Scarparo","picture":"http://photos.doctoralia.com/V2635318135048249015_2.jpg","registration_number":"","salutation":"","services":"","speciality":"Endoscopista","subspecialities":""}},{"url":"http://www.doctoralia.com.br/medico/paulo+sergio+leal+de+mattos-11962852","doctor": {"address":{"1":{"address":{"lat":-23.5837935,"lng":-46.6110737,"locality":"04262-000","location":"04262-000 São Paulo, São Paulo SP","street":"Av. Nazaré, 28, (Ipiranga)"},"insurances":"","misc":"","name":"Hospital Ipiranga","phone":"(11) 2067-7799","working_hours":""}},"education":{},"experience":"","name":"Paulo Sergio Leal de Mattos","picture":"http://photos.doctoralia.com/V2635318135048249015_2.jpg","registration_number":"","salutation":"","services":"","speciality":"Endoscopista","subspecialities":""}},{"url":"http://www.doctoralia.com.br/medico/jose+flavio+andrade+da+silva-11987112","doctor": {"address":{"1":{"address":{"lat":-23.5427318,"lng":-46.6489045,"locality":"01221-020","location":"01221-020 São Paulo, São Paulo SP","street":"R. Dr. Cesario Motta Jr, 112 (Vila Buarque)"},"insurances":"","misc":"","name":"Santa Casa de São Paulo Hospital Central","phone":"(11) 2176-7000","working_hours":""}},"education":{},"experience":"","name":"Jose Flavio Andrade da Silva","picture":"http://photos.doctoralia.com/V2635318135048249015_2.jpg","registration_number":"","salutation":"","services":"","speciality":"Endoscopista","subspecialities":""}},{"url":"http://www.doctoralia.com.br/medico/sergio+gnatos+lombardi-11987115","doctor": {"address":{"1":{"address":{"lat":-23.5427318,"lng":-46.6489045,"locality":"01221-020","location":"01221-020 São Paulo, São Paulo SP","street":"R. Dr. Cesario Motta Jr, 112 (Vila Buarque)"},"insurances":"","misc":"","name":"Santa Casa de São Paulo Hospital Central","phone":"(11) 2176-7000","working_hours":""}},"education":{},"experience":"","name":"Sergio Gnatos Lombardi","picture":"http://photos.doctoralia.com/V2635318135048249015_2.jpg","registration_number":"","salutation":"","services":"","speciality":"Endoscopista","subspecialities":""}},{"url":"http://www.doctoralia.com.br/medico/armindo+kusaba-11987116","doctor": {"address":{"1":{"address":{"lat":-23.5427318,"lng":-46.6489045,"locality":"01221-020","location":"01221-020 São Paulo, São Paulo SP","street":"R. Dr. Cesario Motta Jr, 112 (Vila Buarque)"},"insurances":"","misc":"","name":"Santa Casa de São Paulo Hospital Central","phone":"(11) 2176-7000","working_hours":""}},"education":{},"experience":"","name":"Armindo Kusaba","picture":"http://photos.doctoralia.com/V2635318135048249015_2.jpg","registration_number":"","salutation":"","services":"","speciality":"Endoscopista","subspecialities":""}},{"url":"http://www.doctoralia.com.br/medico/nelson+yuji+takahashi-11987118","doctor": {"address":{"1":{"address":{"lat":-23.5427318,"lng":-46.6489045,"locality":"01221-020","location":"01221-020 São Paulo, São Paulo SP","street":"R. Dr. Cesario Motta Jr, 112 (Vila Buarque)"},"insurances":"","misc":"","name":"Santa Casa de São Paulo Hospital Central","phone":"(11) 2176-7000","working_hours":""}},"education":{},"experience":"","name":"Nelson Yuji Takahashi","picture":"http://photos.doctoralia.com/V2635318135048249015_2.jpg","registration_number":"","salutation":"","services":"","speciality":"Endoscopista","subspecialities":""}},{"url":"http://www.doctoralia.com.br/medico/osvaldo+massatoshi+araki-11987121","doctor": {"address":{"1":{"address":{"lat":-23.5427318,"lng":-46.6489045,"locality":"01221-020","location":"01221-020 São Paulo, São Paulo SP","street":"R. Dr. Cesario Motta Jr, 112 (Vila Buarque)"},"insurances":"","misc":"","name":"Santa Casa de São Paulo Hospital Central","phone":"(11) 2176-7000","working_hours":""}},"education":{},"experience":"","name":"Osvaldo Massatoshi Araki","picture":"http://photos.doctoralia.com/V2635318135048249015_2.jpg","registration_number":"","salutation":"","services":"","speciality":"Endoscopista","subspecialities":""}},{"url":"http://www.doctoralia.com.br/medico/huang+po+yen-11987124","doctor": {"address":{"1":{"address":{"lat":-23.5427318,"lng":-46.6489045,"locality":"01221-020","location":"01221-020 São Paulo, São Paulo SP","street":"R. Dr. Cesario Motta Jr, 112 (Vila Buarque)"},"insurances":"","misc":"","name":"Santa Casa de São Paulo Hospital Central","phone":"(11) 2176-7000","working_hours":""}},"education":{},"experience":"","name":"Huang Po Yen","picture":"http://photos.doctoralia.com/V2635318135048249015_2.jpg","registration_number":"","salutation":"","services":"","speciality":"Endoscopista","subspecialities":""}},{"url":"http://www.doctoralia.com.br/medico/mauricio+saab+assef-11987126","doctor": {"address":{"1":{"address":{"lat":-23.5427318,"lng":-46.6489045,"locality":"01221-020","location":"01221-020 São Paulo, São Paulo SP","street":"R. Dr. Cesario Motta Jr, 112 (Vila Buarque)"},"insurances":"","misc":"","name":"Santa Casa de São Paulo Hospital Central","phone":"(11) 2176-7000","working_hours":""}},"education":{},"experience":"","name":"Mauricio Saab Assef","picture":"http://photos.doctoralia.com/V2635318135048249015_2.jpg","registration_number":"","salutation":"","services":"","speciality":"Endoscopista","subspecialities":""}},{"url":"http://www.doctoralia.com.br/medico/ana+paula+novaes+campello+horovitz-11987128","doctor": {"address":{"1":{"address":{"lat":-23.5427318,"lng":-46.6489045,"locality":"01221-020","location":"01221-020 São Paulo, São Paulo SP","street":"R. Dr. Cesario Motta Jr, 112 (Vila Buarque)"},"insurances":"","misc":"","name":"Santa Casa de São Paulo Hospital Central","phone":"(11) 2176-7000","working_hours":""}},"education":{},"experience":"","name":"Ana Paula Novaes Campello Horovitz","picture":"http://photos.doctoralia.com/V2635318135048249015_2.jpg","registration_number":"","salutation":"","services":"","speciality":"Endoscopista","subspecialities":""}},{"url":"http://www.doctoralia.com.br/medico/marco+antonio+ribeiro+camunha-11987129","doctor": {"address":{"1":{"address":{"lat":-23.5427318,"lng":-46.6489045,"locality":"01221-020","location":"01221-020 São Paulo, São Paulo SP","street":"R. Dr. Cesario Motta Jr, 112 (Vila Buarque)"},"insurances":"","misc":"","name":"Santa Casa de São Paulo Hospital Central","phone":"(11) 2176-7000","working_hours":""}},"education":{},"experience":"","name":"Marco Antonio Ribeiro Camunha","picture":"http://photos.doctoralia.com/V2635318135048249015_2.jpg","registration_number":"","salutation":"","services":"","speciality":"Endoscopista","subspecialities":""}},{"url":"http://www.doctoralia.com.br/medico/michelle+kucera+kesties-11987130","doctor": {"address":{"1":{"address":{"lat":-23.5427318,"lng":-46.6489045,"locality":"01221-020","location":"01221-020 São Paulo, São Paulo SP","street":"R. Dr. Cesario Motta Jr, 112 (Vila Buarque)"},"insurances":"","misc":"","name":"Santa Casa de São Paulo Hospital Central","phone":"(11) 2176-7000","working_hours":""}},"education":{},"experience":"","name":"Michelle Kucera Kesties","picture":"http://photos.doctoralia.com/V2635318135048249015_2.jpg","registration_number":"","salutation":"","services":"","speciality":"Endoscopista","subspecialities":""}},{"url":"http://www.doctoralia.com.br/medico/george+f+soares+de+macedo-11987131","doctor": {"address":{"1":{"address":{"lat":-23.5427318,"lng":-46.6489045,"locality":"01221-020","location":"01221-020 São Paulo, São Paulo SP","street":"R. Dr. Cesario Motta Jr, 112 (Vila Buarque)"},"insurances":"","misc":"","name":"Santa Casa de São Paulo Hospital Central","phone":"(11) 2176-7000","working_hours":""}},"education":{},"experience":"","name":"George F Soares de Macedo","picture":"http://photos.doctoralia.com/V2635318135048249015_2.jpg","registration_number":"","salutation":"","services":"","speciality":"Endoscopista","subspecialities":""}},{"url":"http://www.doctoralia.com.br/medico/gisele+caneco+pellireo-11987133","doctor": {"address":{"1":{"address":{"lat":-23.5427318,"lng":-46.6489045,"locality":"01221-020","location":"01221-020 São Paulo, São Paulo SP","street":"R. Dr. Cesario Motta Jr, 112 (Vila Buarque)"},"insurances":"","misc":"","name":"Santa Casa de São Paulo Hospital Central","phone":"(11) 2176-7000","working_hours":""}},"education":{},"experience":"","name":"Gisele Caneco Pellireo","picture":"http://photos.doctoralia.com/V2635318135048249015_2.jpg","registration_number":"","salutation":"","services":"","speciality":"Endoscopista","subspecialities":""}},{"url":"http://www.doctoralia.com.br/medico/joaquim+alves+de+c+junior-11987134","doctor": {"address":{"1":{"address":{"lat":-23.5427318,"lng":-46.6489045,"locality":"01221-020","location":"01221-020 São Paulo, São Paulo SP","street":"R. Dr. Cesario Motta Jr, 112 (Vila Buarque)"},"insurances":"","misc":"","name":"Santa Casa de São Paulo Hospital Central","phone":"(11) 2176-7000","working_hours":""}},"education":{},"experience":"","name":"Joaquim Alves de C Junior","picture":"http://photos.doctoralia.com/V2635318135048249015_2.jpg","registration_number":"","salutation":"","services":"","speciality":"Endoscopista","subspecialities":""}},{"url":"http://www.doctoralia.com.br/medico/ana+lucia+schneider+marioni-12087826","doctor": {"address":{"1":{"address":{"lat":-23.5566208,"lng":-46.6253464,"locality":"01518-020","location":"01518-020 São Paulo, São Paulo SP","street":"Rua Leopoldo Miguez, 327 (Cambuci)"},"insurances":"","misc":"","name":"Pam Varzea Do Carmo Nga 63","phone":"(11) 3385-7000","working_hours":""}},"education":{},"experience":"","name":"Ana Lucia Schneider Marioni","picture":"http://photos.doctoralia.com/V2635318135048249015_2.jpg","registration_number":"","salutation":"","services":"","speciality":"Endoscopista","subspecialities":""}},{"url":"http://www.doctoralia.com.br/medico/ana+lucia+anoratti-12087827","doctor": {"address":{"1":{"address":{"lat":-23.5566208,"lng":-46.6253464,"locality":"01518-020","location":"01518-020 São Paulo, São Paulo SP","street":"Rua Leopoldo Miguez, 327 (Cambuci)"},"insurances":"","misc":"","name":"Pam Varzea Do Carmo Nga 63","phone":"(11) 3385-7000","working_hours":""}},"education":{},"experience":"","name":"Ana Lucia Anoratti","picture":"http://photos.doctoralia.com/V2635318135048249015_2.jpg","registration_number":"","salutation":"","services":"","speciality":"Endoscopista","subspecialities":""}},{"url":"http://www.doctoralia.com.br/medico/jorge+gama+delgado-12093653","doctor": {"address":{"1":{"address":{"lat":-23.6159389,"lng":-46.674311499999,"locality":"04614-010","location":"04614-010 São Paulo, São Paulo SP","street":"Rua Demóstenes, 507 (Campo Belo)"},"insurances":"","misc":"","name":"Clínica São Lucas","phone":"(11) 5543-7759","working_hours":""}},"education":{},"experience":"","name":"Jorge Gama Delgado","picture":"http://photos.doctoralia.com/V2635318135048249015_2.jpg","registration_number":"","salutation":"","services":"","speciality":"Endoscopista","subspecialities":""}},{"url":"http://www.doctoralia.com.br/medico/reina+carolina+eliane-12338099","doctor": {"address":{"1":{"address":{"lat":-23.5803659,"lng":-46.7012362,"locality":"05601-001","location":"05601-001 São Paulo, São Paulo SP","street":"Av. Lineu de Paula Machado, 916"},"insurances":"","misc":"","name":"Jorge Reina - Instituto","phone":"(11) 3032-6024","working_hours":""},"2":{"address":{"lat":-23.5803659,"lng":-46.7012362,"locality":"05401001","location":"05401001 São Paulo, São Paulo SP","street":"AV LINEU DE PAULA MACHADO, 916\nCIDADE JARDIM"},"insurances":"","misc":"","name":"Centro de Especialidades Medicas Cidade Jardim","phone":"011-30326024","working_hours":""}},"education":{},"experience":"","name":"Carolina Eliane Reina","picture":"http://photos.doctoralia.com/V2635318135048249015_2.jpg","registration_number":"","salutation":"Dra","services":"","speciality":"Endoscopista","subspecialities":""}}]}