{"webData": [{"url":"http://www.doctoralia.com.br/medico/faria+braga+henrique-12006694","doctor": {"address":{"1":{"address":{"lat":-23.555857,"lng":-46.6683884,"locality":"01246-000","location":"01246-000 São Paulo, São Paulo SP","street":"Av. Dr. Arnaldo, 251 (Cerqueira César)"},"insurances":"","misc":"Departamento: Radioterapia Posto: Médico Assistente - Radioterapia","name":"Instituto do Câncer do Estado de São Paulo - ICESP","phone":"38934538, 3893-2000","working_hours":""},"2":{"address":{"lat":-23.6074752,"lng":-46.595681,"locality":"04231-030","location":"04231-030 São Paulo, São Paulo SP","street":"Rua Conego Xavier, 276 (Sacomã)"},"insurances":"","misc":"Departamento: Serviço de Radioterapia - IAVCPosto: Médico Assistente - Radioterapia","name":"Hospital Heliópolis","phone":"20760595","working_hours":""}},"education":{"1":{"degree":"Graduação em Medicina","institute":"Universidade de São Paulo (USP)","year":"2007"},"2":{"degree":"Residência em Clínica Médica","institute":"Hospital das Clínicas - Faculdade de Medicina da Universidade de São Paulo (HC-FMUSP)","year":"2011"},"3":{"degree":"Especialização em Radioterapia","institute":"Hospital das Clínicas - Faculdade de Medicina da Universidade de São Paulo (HC-FMUSP)","year":"2014"}},"experience":"Câncer e Radioterapia, Metástases ósseas","name":"Henrique Faria Braga","picture":"http://photos.doctoralia.com/634645869533130135_1.jpg","registration_number":"","salutation":"Dr","services":"Braquiterapia, Radiocirurgia Estereotaxica Com Tratamento","speciality":"Radioterapeuta","subspecialities":"Braquiterapia, Radioterapia"}},{"url":"http://www.doctoralia.com.br/medico/carvalho+icaro+thiago+de-12334089","doctor": {"address":{"1":{"address":{"lat":-23.5500328,"lng":-46.658528999999,"locality":"01239-040","location":"01239-040 São Paulo, São Paulo SP","street":"Rua Mato Grosso, 306 (16º andar- Cj 1602) (Higienópolis)"},"insurances":"Pacientes privados (sem plano de saúde)","misc":"","name":"Consultório","phone":"21146080","working_hours":"19:30- 21:00"},"2":{"address":{"lat":-23.569984,"lng":-46.6456397,"locality":"1310-000","location":"1310-000 São Paulo, São Paulo SP","street":"Paulista, 200 (Bela Vista)"},"insurances":"Pacientes privados (sem plano de saúde), Amil, Cassi, Cesp, Lincx, Marítima, Medial saude, Notre Dame, Porto Seguro,  e 1 maisSaude Caixa","misc":"","name":"Hospital Santa Catarina","phone":"113-0164","working_hours":""},"3":{"address":{"lat":-23.5500328,"lng":-46.658528999999,"locality":"01239-040","location":"01239-040 São Paulo, São Paulo SP","street":"R. Mato Grosso, 306 (16° andar, cj 1602) (Higienópolis)"},"insurances":"","misc":"","name":"Instituto Abathon - Medicina e Saúde","phone":"(11) 2114-6080","working_hours":""}},"education":{"1":{"degree":"Graduação em Medicina","institute":"Faculdade de Medicina da Universidade de São Paulo","year":"2002"},"2":{"degree":"Título de Especialista em Cirurgia Geral","institute":"Faculdade de Medicina da Universidade de São Paulo","year":"2006"},"3":{"degree":"Título de especialista em Radioterapia","institute":"Faculdade de Medicina da Universidade de São Paulo","year":"2009"}},"experience":"","name":"Icaro Thiago de Carvalho","picture":"http://photos.doctoralia.com/634612996214377700_1.jpg","registration_number":"","salutation":"Dr","services":"Câncer e Radioterapia, Metástase Neoplásica, Metástases ósseas, Neoplasias","speciality":"Radioterapeuta, Oncologista","subspecialities":"Oncologia Radioterapêutica"}},{"url":"http://www.doctoralia.com.br/medico/machado+guilherme-14810819","doctor": {"address":{"1":{"address":{"lat":-23.6097401,"lng":-46.6975537,"locality":"04578-000","location":"04578-000 São Paulo, São Paulo SP","street":"Avenida das Nações Unidas, 12901 (Brooklin)"},"insurances":"Pacientes privados (sem plano de saúde)","misc":"","name":"Cenu","phone":"94343-1943","working_hours":""}},"education":{"1":{"degree":"Administração","institute":"Pontifícia Universidade Católica","year":"2015"},"2":{"degree":"MBA","institute":"USP","year":"2016"}},"experience":"","name":"Guilherme Machado","picture":"http://photos.doctoralia.com/635567581727890417_1.jpg","registration_number":"","salutation":"","services":"Cordoma, Craniossinostose, Deformidades Adquiridas Nasais, Disostose Craniofacial","speciality":"Cardiologista, Radioterapeuta","subspecialities":""}},{"url":"http://www.doctoralia.com.br/medico/benabou+salomon-12871453","doctor": {"address":{"1":{"address":{"lat":-23.5505199,"lng":-46.633309399999,"locality":"01507-000","location":"01507-000 São Paulo, São Paulo SP","street":"Rua. Barão de Iguape, 209 - 5º subsolo - Bloco A"},"insurances":"","misc":"","name":"Serviço de Radioterapia E Radiocirurgia Estereotáxica Hospital Bandeirantes","phone":"11 31419432","working_hours":""}},"education":{},"experience":"","name":"Salomon Benabou","picture":"http://photos.doctoralia.com/V2635375045566768030_2.jpg","registration_number":"34259","salutation":"Prof","services":"","speciality":"Neurocirurgião, Radioterapeuta","subspecialities":"Cirurgia Oncológica do SNC"}},{"url":"http://www.doctoralia.com.br/medico/irany+mori-10601738","doctor": {"address":{"1":{"address":{"lat":-23.5602304,"lng":-46.6533578,"locality":"01332-000","location":"01332-000 São Paulo, São Paulo SP","street":"R Itapeva, 490 - 11º Andarconjunto 118 (Bela Vista)"},"insurances":"Pacientes privados (sem plano de saúde), Geap","misc":"","name":"Consultório","phone":"(18) 9932-5117","working_hours":""}},"education":{},"experience":"","name":"Irany Mori","picture":"http://photos.doctoralia.com/635252333592463798_2.jpg","registration_number":"","salutation":"Dr","services":"","speciality":"Radioterapeuta","subspecialities":""}},{"url":"http://www.doctoralia.com.br/medico/daniel+grabarz-11879737","doctor": {"address":{"1":{"address":{"lat":-21.7907587,"lng":-46.5469341,"locality":"37704-000","location":"37704-000 Pocos de Caldas, Minas Gerais MG","street":"Avenida Joao Pinheiro, 6180 (Bortolan)"},"insurances":"","misc":"","name":"Clinica Memorial","phone":"(35) 3714-5555","working_hours":""},"2":{"address":{"lat":-23.5505199,"lng":-46.633309399999,"locality":"01507-000","location":"01507-000 São Paulo, São Paulo SP","street":"Rua. Barão de Iguape, 209 - 5º subsolo - Bloco A"},"insurances":"","misc":"","name":"Serviço de Radioterapia E Radiocirurgia Estereotáxica Hospital Bandeirantes","phone":"11 31419432","working_hours":""}},"education":{},"experience":"","name":"Daniel Grabarz","picture":"http://photos.doctoralia.com/635252333592463798_2.jpg","registration_number":"","salutation":"","services":"","speciality":"Radioterapeuta","subspecialities":""}}]}