{"webData": [{"url":"http://www.doctoralia.com.br/medico/eiji+koga+carlos-14805894","doctor": {"address":{"1":{"address":{"lat":-23.5574373,"lng":-46.6775835,"locality":"05406000","location":"05406000 São Paulo, São Paulo SP","street":"rua teodoro Sampaio, 744, cj 51 (pinheiros)"},"insurances":"Pacientes privados (sem plano de saúde)","misc":"","name":"Consultório","phone":"970943033, 30830772","working_hours":""}},"education":{"1":{"degree":"MEDICINA","institute":"Universidade Federal de São Paulo - UNIFESP","year":"2008"},"2":{"degree":"CLINICA MEDICA","institute":"Universidade Federal de São Paulo - UNIFESP","year":"2011"},"3":{"degree":"NEFROLOGIA","institute":"Universidade Federal de São Paulo - UNIFESP","year":"2013"}},"experience":"","name":"Carlos Eiji Koga","picture":"http://photos.doctoralia.com/635615241361341328_2.jpg","registration_number":"133800","salutation":"Dr","services":"Cálculos Renais, Glomerulonefrite, Hipertensão Renovascular, Infecções Urinárias, Insuficiência Renal Aguda, Insuficiencia Renal Crônica","speciality":"Nefrologista","subspecialities":""}},{"url":"http://www.doctoralia.com.br/medico/ligeiro+goncalves+esper+priscila-12340050","doctor": {"address":{"1":{"address":{"lat":-23.5939323,"lng":-46.6770605,"locality":"04537012","location":"04537012 São Paulo, São Paulo SP","street":"R. Clodomiro Amazonas, 1099 (cj 72/73) (Itaim)"},"insurances":"Pacientes privados (sem plano de saúde)","misc":"","name":"Consultório","phone":"11 3849-0927","working_hours":""}},"education":{"1":{"degree":"Medicina","institute":"Universidade Federal de São Paulo- UNIFESP","year":"2005"},"2":{"degree":"Residência Clínica Médica","institute":"Universidade Federal de São Paulo/ Escola Paulista de Medicina","year":"2007"},"3":{"degree":"Título de Especialista em Clinica Médica","institute":"Sociedade Brasileira de Clínica Médica/ Associação Médica Brasileira","year":"2007"},"4":{"degree":"Título de Especialista em Nefrologia","institute":"Sociedade Brasileira de Nefrologia/ Associação Médica Brasileira","year":"2009"},"5":{"degree":"Residência Nefrologia","institute":"Universidade Federal de São Paulo/ Escola Paulista de Medicina","year":"2009"},"6":{"degree":"Pós-graduação em Nutrologia","institute":"Associação Brasileira de Nutrologia/ Faculdade de Medicina da Santa Casa de São Paulo","year":"2012"},"7":{"degree":"Título de Especialista em Nutrologia","institute":"Associação Brasileira de Nutrologia/ Associação Médica Brasileira","year":"2012"}},"experience":"","name":"Priscila Ligeiro Gonçalves Esper","picture":"http://photos.doctoralia.com/V2635486527365694303_2.jpg","registration_number":"119","salutation":"Dra","services":"Cálculos Renais, Cistite, Diabetes Mellitus, Glomerulonefrite, Hipertensão, Infecções Urinárias, Insuficiência Renal, Litíase, Nefrite, Pedras nos rins (cólica renal), Rim Policístico Autossômico Dominante, Síndrome Nefrótica","speciality":"Nefrologista, Nutrologista","subspecialities":"","website":"http://www.doctoralia.com.br/medico/ligeiro+goncalves+esper+priscila-12340050"}},{"url":"http://www.doctoralia.com.br/medico/miguita+okada+victor-14077383","doctor": {"address":{"1":{"address":{"lat":-23.6012276,"lng":-46.661277299999,"locality":"04521022","location":"04521022 São Paulo, São Paulo SP","street":"Avenida Ministro Gabriel de Rezende Passos, 500 (Sala 1016) (Indianópolis)"},"insurances":"Pacientes privados (sem plano de saúde), Amil, Bradesco Saúde, CABESP, Cassi, Dix-Amico, Itaú Seguros, Medial saude, Mediservice,  e 1 maisNotre Dame","misc":"","name":"Consultório","phone":"(011) 5054-1410, (011) 5052-1817","working_hours":""},"2":{"address":{"lat":-23.6012276,"lng":-46.661277299999,"locality":"04521-022","location":"04521-022 São Paulo, São Paulo SP","street":"Avenida Ministro Gabriel Resende Passos, 500 / Cj 307 (Indianopolis)"},"insurances":"","misc":"","name":"Trs Terapia Renal Substitutiva","phone":"(11) 5054-1377","working_hours":""}},"education":{"1":{"degree":"Graduação em Medicina","institute":"Faculdade de Medicina do ABC","year":"2005"},"2":{"degree":"Especialização em Nefrologia","institute":"Faculdade de Medicina do ABC","year":"2010"},"3":{"degree":"Título de especialista em Nefrologia","institute":"SBN/AMB","year":"2010"}},"experience":"","name":"Victor Miguita Okada","picture":"http://photos.doctoralia.com/635324970879344008_1.jpg","registration_number":"122026","salutation":"Dr","services":"Cálculos, Glomerulonefrite, Hipertensão, Insuficiência Renal","speciality":"Nefrologista","subspecialities":""}},{"url":"http://www.doctoralia.com.br/medico/silva+flato+elias+marcos-13856784","doctor": {"address":{"1":{"address":{"lat":-23.1942864,"lng":-46.8850953,"locality":"13207060","location":"13207060 Jundiaí, São Paulo SP","street":"Rua Conde de Monsanto, 483, Vianelo, Jundiaí (Vianelo)"},"insurances":"Pacientes privados (sem plano de saúde)","misc":"","name":"Consultório","phone":"11991798166","working_hours":""},"2":{"address":{"lat":-23.5967791,"lng":-46.6459488,"locality":"04038-002","location":"04038-002 São Paulo, São Paulo SP","street":"Rua Borges Lagoa, 960 (Vila Mariana)"},"insurances":"Pacientes privados (sem plano de saúde)","misc":"","name":"Consultório","phone":"11 50878600","working_hours":"Segundas feiras às 14:00"},"3":{"address":{"lat":-23.5967791,"lng":-46.6459488,"locality":"04039003","location":"04039003 São Paulo, São Paulo SP","street":"Rua Borges Lagoa 960 (Vila Clementino)"},"insurances":"","misc":"Departamento: Ambulatorio Pós Transplante Posto: Ambulatório Anexo","name":"Hospital Do Rim","phone":"5087-0000","working_hours":""}},"education":{"1":{"degree":"Medicina","institute":"Universidade Nove de Julho","year":"2009"},"2":{"degree":"Residência de Clinica Médica","institute":"Irmandade Santa Casa de São Paulo","year":"2012"},"3":{"degree":"Residencia em Nefrolofia","institute":"Universidade Federal de São Paulo","year":"2014"}},"experience":"Albuminuria, Cálculos Renais, Cistite, Falência Renal Crônica","name":"Elias Marcos Silva Flato","picture":"http://photos.doctoralia.com/635307566679877357_1.jpg","registration_number":"140984","salutation":"Dr","services":"Transplante Renal Receptor - Doador Cadaver","speciality":"Nefrologista","subspecialities":"Ambulatorial, Diálise Peritoneal Ambulatorial Contínua (DPAC), Hipertensão, Transplante Renal"}},{"url":"http://www.doctoralia.com.br/medico/basso+geovana-12896638","doctor": {"address":{"1":{"address":{"lat":-23.5965827,"lng":-46.6428875,"locality":"04023-061","location":"04023-061 São Paulo, São Paulo SP","street":"Rua Botucatu, 572 (quinto andar) (Vila Clementino)"},"insurances":"","misc":"","name":"Consultório","phone":"(11) 5574-9015","working_hours":""},"2":{"address":{"lat":-23.5967791,"lng":-46.6459488,"locality":"04039003","location":"04039003 São Paulo, São Paulo SP","street":"Rua Borges Lagoa 960 (Vila Clementino)"},"insurances":"","misc":"","name":"Hospital Do Rim","phone":"5087-0000","working_hours":""}},"education":{"1":{"degree":"Graduação em Medicina","institute":"Universidade Federal de Santa Catarina (UFSC)","year":"2006"},"2":{"degree":"Residência em Medicina Interna","institute":"Hospital Universitário - UFSC","year":"2009"},"3":{"degree":"Nefrologista - Título de Especialista","institute":"Sociedade Brasileira de Nefrologia","year":"2012"}},"experience":"","name":"Geovana Basso","picture":"http://photos.doctoralia.com/V2635098442851063828_1.jpg","registration_number":"136924","salutation":"Dra","services":"Cálculos Renais, Cistite, Falência Renal Crônica, Nefropatias","speciality":"Nefrologista","subspecialities":""}},{"url":"http://www.doctoralia.com.br/medico/ventura+lopes+carlos+eugenio-10610884","doctor": {"address":{"1":{"address":{"lat":-23.5829974,"lng":-46.6825078,"locality":"04531-012","location":"04531-012 São Paulo, São Paulo SP","street":"Rua Pedroso Alvarenga, 1255  CJ 72 (Itaim Bibi)"},"insurances":"Pacientes privados (sem plano de saúde)","misc":"","name":"Consultório","phone":"(11) 98280-2970, (11) 98359-0302","working_hours":"2.a, 4.a e 6.a feiras"},"2":{"address":{"lat":-23.5998959,"lng":-46.7161521,"locality":"05652-900","location":"05652-900 São Paulo, São Paulo SP","street":"Av. Albert Einstein, 627 (Morumbi)"},"insurances":"Pacientes privados (sem plano de saúde)","misc":"","name":"Hospital Israelita Albert Einstein","phone":"(11) 2151-1233","working_hours":""}},"education":{},"experience":"","name":"Carlos Eugênio Ventura Lopes","picture":"http://photos.doctoralia.com/635615241361341328_2.jpg","registration_number":"46","salutation":"Dr","services":"","speciality":"Nefrologista, Nutrologista","subspecialities":""}},{"url":"http://www.doctoralia.com.br/medico/piason+franca+fernando-10605240","doctor": {"address":{"1":{"address":{"lat":-23.5324529,"lng":-46.5659534,"locality":"3086-040","location":"3086-040 São Paulo, São Paulo SP","street":"Rua: Siria, 136 (Tatuapé)"},"insurances":"Pacientes privados (sem plano de saúde), Unimed","misc":"","name":"Consultório","phone":"(11) 2098-4616, (11) 2941-9611","working_hours":""}},"education":{},"experience":"","name":"Fernando Piason França","picture":"http://photos.doctoralia.com/635615241361341328_2.jpg","registration_number":"54363","salutation":"Dr","services":"","speciality":"Nefrologista","subspecialities":""}},{"url":"http://www.doctoralia.com.br/medico/eduardo+alves+garcia-10607308","doctor": {"address":{"1":{"address":{"lat":-23.4797098,"lng":-46.6110597,"locality":"2330-003","location":"2330-003 São Paulo, São Paulo SP","street":"Nova Cantareira, 1984 - 5º And. (Tucuruvi)"},"insurances":"Pacientes privados (sem plano de saúde), Unimed","misc":"","name":"Consultório","phone":"116-9915, (74) 6991-6325","working_hours":""}},"education":{},"experience":"","name":"Eduardo Alves Garcia","picture":"http://photos.doctoralia.com/635615241361341328_2.jpg","registration_number":"","salutation":"Dr","services":"","speciality":"Nefrologista","subspecialities":""}},{"url":"http://www.doctoralia.com.br/medico/paulo+augusto+grabenweger-10580702","doctor": {"address":{"1":{"address":{"lat":-23.6083956,"lng":-46.6656808,"locality":"13052-207","location":"13052-207 São Paulo, São Paulo SP","street":"Avenida Irai, 79 (Indianopolis)"},"insurances":"Pacientes privados (sem plano de saúde), Geap","misc":"","name":"Consultório","phone":"(11) 5533-6107","working_hours":""}},"education":{},"experience":"","name":"Paulo Augusto Grabenweger","picture":"http://photos.doctoralia.com/635615241361341328_2.jpg","registration_number":"","salutation":"Dr","services":"","speciality":"Nefrologista","subspecialities":""}},{"url":"http://www.doctoralia.com.br/medico/maria+margarida+galvao-10592135","doctor": {"address":{"1":{"address":{"lat":-23.5409979,"lng":-46.6557186,"locality":"01228-000","location":"01228-000 São Paulo, São Paulo SP","street":"Av. Angelica, 916 - Cj. 4084º Andar (Santa Cecilia)"},"insurances":"Pacientes privados (sem plano de saúde), Cassi","misc":"","name":"Consultório","phone":"(11) 3826-0401","working_hours":""}},"education":{},"experience":"","name":"Maria Margarida Galvao","picture":"http://photos.doctoralia.com/635615241361341328_2.jpg","registration_number":"","salutation":"Dra","services":"","speciality":"Nefrologista","subspecialities":""}},{"url":"http://www.doctoralia.com.br/medico/luiz+antonio+miorin-11987267","doctor": {"address":{"1":{"address":{"lat":-23.5427318,"lng":-46.6489045,"locality":"01221-020","location":"01221-020 São Paulo, São Paulo SP","street":"R. Dr. Cesario Motta Jr, 112 (Vila Buarque)"},"insurances":"","misc":"","name":"Santa Casa de São Paulo Hospital Central","phone":"(11) 2176-7000","working_hours":""}},"education":{},"experience":"","name":"Luiz Antonio Miorin","picture":"http://photos.doctoralia.com/635615241361341328_2.jpg","registration_number":"","salutation":"","services":"","speciality":"Nefrologista","subspecialities":""}},{"url":"http://www.doctoralia.com.br/medico/lilian+gandolpho-11898071","doctor": {"address":{"1":{"address":{"lat":-23.5301634,"lng":-46.6971857,"locality":"05044-010","location":"05044-010 São Paulo, São Paulo SP","street":"Rua Marcelina, 470 (Vil Romana)"},"insurances":"","misc":"","name":"Pronefron","phone":"(11) 3865-8319","working_hours":""}},"education":{},"experience":"","name":"Lilian Gandolpho","picture":"http://photos.doctoralia.com/635615241361341328_2.jpg","registration_number":"","salutation":"","services":"Hipertensão","speciality":"Nefrologista","subspecialities":""}},{"url":"http://www.doctoralia.com.br/medico/ribeiro+de+almeida+thomaz-10582858","doctor": {"address":{"1":{"address":{"lat":-23.5867756,"lng":-46.6719742,"locality":"04530-020","location":"04530-020 São Paulo, São Paulo SP","street":"R. Paula Oliveira, 30 - Itaim Bibi"},"insurances":"","misc":"","name":"Consultório","phone":"(11) 3845-9435, (11) 3845-6327","working_hours":""},"2":{"address":{"lat":-23.5676267,"lng":-46.658445699999,"locality":"01423-000","location":"01423-000 São Paulo, São Paulo SP","street":"R. José Maria Lisboa, 41 (2º andar) (Cerqueira César)"},"insurances":"","misc":"","name":"Consultório","phone":"(11) 3885-7999","working_hours":""}},"education":{},"experience":"","name":"Thomaz Ribeiro de Almeida","picture":"http://photos.doctoralia.com/635615241361341328_2.jpg","registration_number":"","salutation":"Dr","services":"","speciality":"Nefrologista","subspecialities":""}},{"url":"http://www.doctoralia.com.br/medico/baptista+baldo+ricardo-10586874","doctor": {"address":{"1":{"address":{"lat":-23.502102,"lng":-46.6272633,"locality":"02016-001","location":"02016-001 São Paulo, São Paulo SP","street":"R. Salete, 201 (Santana)"},"insurances":"","misc":"","name":"Consultório","phone":"(11) 2973-1800","working_hours":""}},"education":{},"experience":"","name":"Ricardo Baptista Baldo","picture":"http://photos.doctoralia.com/635615241361341328_2.jpg","registration_number":"","salutation":"Dr","services":"","speciality":"Nefrologista","subspecialities":""}},{"url":"http://www.doctoralia.com.br/medico/francisco+joaquim+de+castro+neto-11880855","doctor": {"address":{"1":{"address":{"lat":-23.5680342,"lng":-46.6207423,"locality":"01540-000","location":"01540-000 São Paulo, São Paulo SP","street":"Rua Herminio Lemos, 385 (Cambuci)"},"insurances":"","misc":"","name":"Santamalia Saude Cambuci","phone":"(11) 3278-1000","working_hours":""}},"education":{},"experience":"","name":"Francisco Joaquim de Castro Neto","picture":"http://photos.doctoralia.com/635615241361341328_2.jpg","registration_number":"","salutation":"","services":"","speciality":"Nefrologista","subspecialities":""}},{"url":"http://www.doctoralia.com.br/medico/larry+calvo+perez-11869994","doctor": {"address":{"1":{"address":{"lat":-23.5300867,"lng":-46.6786092,"locality":"05024-030","location":"05024-030 São Paulo, São Paulo SP","street":"Rua Venancio Aires, 52 (Perdizes)"},"insurances":"","misc":"","name":"Nephron","phone":"(11) 3676-0346, (11) 3676-1046, (11) 3676-1046","working_hours":""}},"education":{},"experience":"","name":"Larry Calvo Perez","picture":"http://photos.doctoralia.com/635615241361341328_2.jpg","registration_number":"","salutation":"","services":"","speciality":"Nefrologista","subspecialities":""}},{"url":"http://www.doctoralia.com.br/medico/andrea+olivares+magalhaes-11898209","doctor": {"address":{"1":{"address":{"lat":-23.5270935,"lng":-46.7015578,"locality":"05051-020","location":"05051-020 São Paulo, São Paulo SP","street":"R Manoel Jacinto,, 206 (Vl Sonia)"},"insurances":"","misc":"","name":"Medserv Unidade de Dialise","phone":"(11) 3502-4001","working_hours":""},"2":{"address":{"lat":-23.5427318,"lng":-46.6489045,"locality":"01221-020","location":"01221-020 São Paulo, São Paulo SP","street":"R. Dr. Cesario Motta Jr, 112 (Vila Buarque)"},"insurances":"","misc":"","name":"Santa Casa de São Paulo Hospital Central","phone":"(11) 2176-7000","working_hours":""}},"education":{},"experience":"","name":"Andrea Olivares Magalhaes","picture":"http://photos.doctoralia.com/635615241361341328_2.jpg","registration_number":"","salutation":"","services":"","speciality":"Nefrologista","subspecialities":""}},{"url":"http://www.doctoralia.com.br/medico/olberes+vitor+braga+de+andrade-11987268","doctor": {"address":{"1":{"address":{"lat":-23.5427318,"lng":-46.6489045,"locality":"01221-020","location":"01221-020 São Paulo, São Paulo SP","street":"R. Dr. Cesario Motta Jr, 112 (Vila Buarque)"},"insurances":"","misc":"","name":"Santa Casa de São Paulo Hospital Central","phone":"(11) 2176-7000","working_hours":""}},"education":{},"experience":"","name":"Olberes Vitor Braga de Andrade","picture":"http://photos.doctoralia.com/635615241361341328_2.jpg","registration_number":"","salutation":"","services":"","speciality":"Nefrologista","subspecialities":""}},{"url":"http://www.doctoralia.com.br/medico/fabio+jorge+de+andrade-11871153","doctor": {"address":{"1":{"address":{"lat":-23.6137744,"lng":-46.6598538,"locality":"04076-012","location":"04076-012 São Paulo, São Paulo SP","street":"Alameda dos Guaramomis, 1038 (Planalto Paulista)"},"insurances":"","misc":"","name":"Zawicor Servicos Medicos","phone":"(11) 5055-3970, (11) 5055-7464, (11) 5055-7464","working_hours":""}},"education":{},"experience":"","name":"Fabio Jorge de Andrade","picture":"http://photos.doctoralia.com/635615241361341328_2.jpg","registration_number":"","salutation":"","services":"","speciality":"Nefrologista","subspecialities":""}},{"url":"http://www.doctoralia.com.br/medico/luiz+fernando+orlandi+saraiva-11870756","doctor": {"address":{"1":{"address":{"lat":-23.5839758,"lng":-46.6480548,"locality":"04012-070","location":"04012-070 São Paulo, São Paulo SP","street":"Rua Catequese - 255 (Butanta)"},"insurances":"","misc":"","name":"Nefrocor","phone":"(11) 5575-3958","working_hours":""},"2":{"address":{"lat":-23.6012276,"lng":-46.661277299999,"locality":"04521-022","location":"04521-022 São Paulo, São Paulo SP","street":"Avenida Ministro Gabriel Resende Passos, 500 / Cj 307 (Indianopolis)"},"insurances":"","misc":"","name":"Trs Terapia Renal Substitutiva","phone":"(11) 5054-1377","working_hours":""}},"education":{},"experience":"","name":"Luiz Fernando Orlandi Saraiva","picture":"http://photos.doctoralia.com/635615241361341328_2.jpg","registration_number":"","salutation":"","services":"","speciality":"Nefrologista","subspecialities":""}},{"url":"http://www.doctoralia.com.br/medico/alvaro+pacheco+silva+e+filho-11958156","doctor": {"address":{"1":{"address":{"lat":-23.5916906,"lng":-46.6391535,"locality":"04020-040","location":"04020-040 São Paulo, São Paulo SP","street":"Rua Coronel Lisboa, 139 (Vila Mariana)"},"insurances":"","misc":"","name":"Residencial Israelita Albert Einstein","phone":"(11) 2151-1233","working_hours":""}},"education":{},"experience":"","name":"Alvaro Pacheco Silva e Filho","picture":"http://photos.doctoralia.com/635615241361341328_2.jpg","registration_number":"","salutation":"","services":"","speciality":"Nefrologista","subspecialities":""}},{"url":"http://www.doctoralia.com.br/medico/eduardo+cantoni+rosa-10607336","doctor": {"address":{"1":{"address":{"lat":-23.5646965,"lng":-46.6470285,"locality":"1318-002","location":"1318-002 São Paulo, São Paulo SP","street":"Brig.Luiz Antonio, 1892 - 5º And. (B Vista)"},"insurances":"","misc":"","name":"Consultório","phone":"113-2899","working_hours":""}},"education":{},"experience":"","name":"Eduardo Cantoni Rosa","picture":"http://photos.doctoralia.com/635615241361341328_2.jpg","registration_number":"","salutation":"Dr","services":"","speciality":"Nefrologista","subspecialities":""}},{"url":"http://www.doctoralia.com.br/medico/moacir+nicodemos+marte-11870758","doctor": {"address":{"1":{"address":{"lat":-23.6012276,"lng":-46.661277299999,"locality":"04521-022","location":"04521-022 São Paulo, São Paulo SP","street":"Avenida Ministro Gabriel Resende Passos, 500 / Cj 307 (Indianopolis)"},"insurances":"","misc":"","name":"Trs Terapia Renal Substitutiva","phone":"(11) 5054-1377","working_hours":""}},"education":{},"experience":"","name":"Moacir Nicodemos Marte","picture":"http://photos.doctoralia.com/635615241361341328_2.jpg","registration_number":"","salutation":"","services":"","speciality":"Nefrologista","subspecialities":""}},{"url":"http://www.doctoralia.com.br/medico/simone+paiva+laranjo+martins-11987274","doctor": {"address":{"1":{"address":{"lat":-23.5427318,"lng":-46.6489045,"locality":"01221-020","location":"01221-020 São Paulo, São Paulo SP","street":"R. Dr. Cesario Motta Jr, 112 (Vila Buarque)"},"insurances":"","misc":"","name":"Santa Casa de São Paulo Hospital Central","phone":"(11) 2176-7000","working_hours":""}},"education":{},"experience":"","name":"Simone Paiva Laranjo Martins","picture":"http://photos.doctoralia.com/635615241361341328_2.jpg","registration_number":"","salutation":"","services":"","speciality":"Nefrologista","subspecialities":""}},{"url":"http://www.doctoralia.com.br/medico/julio+toporovsky-11987292","doctor": {"address":{"1":{"address":{"lat":-23.5427318,"lng":-46.6489045,"locality":"01221-020","location":"01221-020 São Paulo, São Paulo SP","street":"R. Dr. Cesario Motta Jr, 112 (Vila Buarque)"},"insurances":"","misc":"","name":"Santa Casa de São Paulo Hospital Central","phone":"(11) 2176-7000","working_hours":""}},"education":{},"experience":"","name":"Julio Toporovsky","picture":"http://photos.doctoralia.com/635615241361341328_2.jpg","registration_number":"","salutation":"","services":"","speciality":"Nefrologista","subspecialities":""}},{"url":"http://www.doctoralia.com.br/medico/renata+cristiane+piva-11987283","doctor": {"address":{"1":{"address":{"lat":-23.5427318,"lng":-46.6489045,"locality":"01221-020","location":"01221-020 São Paulo, São Paulo SP","street":"R. Dr. Cesario Motta Jr, 112 (Vila Buarque)"},"insurances":"","misc":"","name":"Santa Casa de São Paulo Hospital Central","phone":"(11) 2176-7000","working_hours":""}},"education":{},"experience":"","name":"Renata Cristiane Piva","picture":"http://photos.doctoralia.com/635615241361341328_2.jpg","registration_number":"","salutation":"","services":"","speciality":"Nefrologista","subspecialities":""}},{"url":"http://www.doctoralia.com.br/medico/tais+helena+mastrocinque-11987271","doctor": {"address":{"1":{"address":{"lat":-23.5427318,"lng":-46.6489045,"locality":"01221-020","location":"01221-020 São Paulo, São Paulo SP","street":"R. Dr. Cesario Motta Jr, 112 (Vila Buarque)"},"insurances":"","misc":"","name":"Santa Casa de São Paulo Hospital Central","phone":"(11) 2176-7000","working_hours":""}},"education":{},"experience":"","name":"Tais Helena Mastrocinque","picture":"http://photos.doctoralia.com/635615241361341328_2.jpg","registration_number":"","salutation":"","services":"","speciality":"Nefrologista","subspecialities":""}},{"url":"http://www.doctoralia.com.br/medico/frederico+canavarro+rodrigues+dos+santos-11864644","doctor": {"address":{"1":{"address":{"lat":-23.6364928,"lng":-46.7362654,"locality":"05718-300","location":"05718-300 São Paulo, São Paulo SP","street":"Rua Clarindo, 59 (Vila Andrade)"},"insurances":"","misc":"","name":"Senesp","phone":"(11) 3771-2203","working_hours":""}},"education":{},"experience":"","name":"Frederico Canavarro Rodrigues dos Santos","picture":"http://photos.doctoralia.com/635615241361341328_2.jpg","registration_number":"","salutation":"","services":"","speciality":"Nefrologista","subspecialities":""}},{"url":"http://www.doctoralia.com.br/medico/walcyr+ferezin+junior-11871109","doctor": {"address":{"1":{"address":{"lat":-23.5839758,"lng":-46.6480548,"locality":"04012-070","location":"04012-070 São Paulo, São Paulo SP","street":"Rua Catequese - 255 (Butanta)"},"insurances":"","misc":"","name":"Nefrocor","phone":"(11) 5575-3958","working_hours":""},"2":{"address":{"lat":-23.6012276,"lng":-46.661277299999,"locality":"04521-022","location":"04521-022 São Paulo, São Paulo SP","street":"Avenida Ministro Gabriel Resende Passos, 500 / Cj 307 (Indianopolis)"},"insurances":"","misc":"","name":"Trs Terapia Renal Substitutiva","phone":"(11) 5054-1377","working_hours":""}},"education":{},"experience":"","name":"Walcyr Ferezin Junior","picture":"http://photos.doctoralia.com/635615241361341328_2.jpg","registration_number":"","salutation":"","services":"","speciality":"Nefrologista","subspecialities":""}},{"url":"http://www.doctoralia.com.br/medico/guido+sergio+de+fornasari-11869987","doctor": {"address":{"1":{"address":{"lat":-23.5300867,"lng":-46.6786092,"locality":"05024-030","location":"05024-030 São Paulo, São Paulo SP","street":"Rua Venancio Aires, 52 (Perdizes)"},"insurances":"","misc":"","name":"Nephron","phone":"(11) 3676-0346, (11) 3676-1046, (11) 3676-1046","working_hours":""}},"education":{},"experience":"","name":"Guido Sergio de Fornasari","picture":"http://photos.doctoralia.com/635615241361341328_2.jpg","registration_number":"","salutation":"","services":"","speciality":"Nefrologista","subspecialities":""}},{"url":"http://www.doctoralia.com.br/medico/luciana+de+santis+feltran-11878552","doctor": {"address":{"1":{"address":{"lat":-23.5394467,"lng":-46.6614498,"locality":"01232-010","location":"01232-010 São Paulo, São Paulo SP","street":"Rua Conselheiro Brotero, 1486 (Santa Cecilia)"},"insurances":"","misc":"","name":"Samarim","phone":"(11) 3821-5371, (11) 3821-5749, (11) 3821-5749","working_hours":""}},"education":{},"experience":"","name":"Luciana de Santis Feltran","picture":"http://photos.doctoralia.com/635615241361341328_2.jpg","registration_number":"","salutation":"","services":"","speciality":"Nefrologista","subspecialities":""}},{"url":"http://www.doctoralia.com.br/medico/jose+oscar+ferreira+crespo-11898156","doctor": {"address":{"1":{"address":{"lat":-23.5809294,"lng":-46.59018,"locality":"03127-001","location":"03127-001 São Paulo, São Paulo SP","street":"Rua Chamanta, 1351 (Prq da Mooca)"},"insurances":"","misc":"","name":"Sedit Unidade de Dialise","phone":"(11) 6168-7822","working_hours":""},"2":{"address":{"lat":-23.5324529,"lng":-46.5659534,"locality":"03086-040","location":"03086-040 São Paulo, São Paulo SP","street":"Rua Siria, 136 / Sala 01 (Tatuape)"},"insurances":"","misc":"","name":"Nefrocenter Servicos Medicos","phone":"","working_hours":""}},"education":{},"experience":"","name":"Jose Oscar Ferreira Crespo","picture":"http://photos.doctoralia.com/635615241361341328_2.jpg","registration_number":"","salutation":"","services":"","speciality":"Nefrologista","subspecialities":""}},{"url":"http://www.doctoralia.com.br/medico/eliana+biondi+medeiros+guidoni-11987270","doctor": {"address":{"1":{"address":{"lat":-23.5427318,"lng":-46.6489045,"locality":"01221-020","location":"01221-020 São Paulo, São Paulo SP","street":"R. Dr. Cesario Motta Jr, 112 (Vila Buarque)"},"insurances":"","misc":"","name":"Santa Casa de São Paulo Hospital Central","phone":"","working_hours":""}},"education":{},"experience":"","name":"Eliana Biondi Medeiros Guidoni","registration_number":"","salutation":"","services":"","speciality":"Nefrologista","subspecialities":""}},{"url":"http://www.doctoralia.com.br/medico/marcelino+de+souza+durao+junior-11958152","doctor": {"address":{"1":{"address":{"lat":-23.5916906,"lng":-46.6391535,"locality":"04020-040","location":"04020-040 São Paulo, São Paulo SP","street":"Rua Coronel Lisboa, 139 (Vila Mariana)"},"insurances":"","misc":"","name":"Residencial Israelita Albert Einstein","phone":"","working_hours":""}},"education":{},"experience":"","name":"Marcelino de Souza Durao Junior","picture":"http://photos.doctoralia.com/635615241361341328_2.jpg","registration_number":"","salutation":"","services":"","speciality":"Nefrologista","subspecialities":""}},{"url":"http://www.doctoralia.com.br/medico/graziela+ramos+pessanha+salim-11898213","doctor": {"address":{"1":{"address":{"lat":-23.5270935,"lng":-46.7015578,"locality":"05051-020","location":"05051-020 São Paulo, São Paulo SP","street":"R Manoel Jacinto,, 206 (Vl Sonia)"},"insurances":"","misc":"","name":"Medserv Unidade de Dialise","phone":"","working_hours":""}},"education":{},"experience":"","name":"Graziela Ramos Pessanha Salim","picture":"http://photos.doctoralia.com/635615241361341328_2.jpg","registration_number":"","salutation":"","services":"","speciality":"Nefrologista","subspecialities":""}},{"url":"http://www.doctoralia.com.br/medico/reginaldo+carlos+boni-11987277","doctor": {"address":{"1":{"address":{"lat":-23.5427318,"lng":-46.6489045,"locality":"01221-020","location":"01221-020 São Paulo, São Paulo SP","street":"R. Dr. Cesario Motta Jr, 112 (Vila Buarque)"},"insurances":"","misc":"","name":"Santa Casa de São Paulo Hospital Central","phone":"(11) 2176-7000","working_hours":""}},"education":{},"experience":"","name":"Reginaldo Carlos Boni","picture":"http://photos.doctoralia.com/635615241361341328_2.jpg","registration_number":"","salutation":"","services":"","speciality":"Nefrologista","subspecialities":""}},{"url":"http://www.doctoralia.com.br/medico/delma+de+carvalho+balestero+aleixo-11987280","doctor": {"address":{"1":{"address":{"lat":-23.5427318,"lng":-46.6489045,"locality":"01221-020","location":"01221-020 São Paulo, São Paulo SP","street":"R. Dr. Cesario Motta Jr, 112 (Vila Buarque)"},"insurances":"","misc":"","name":"Santa Casa de São Paulo Hospital Central","phone":"(11) 2176-7000","working_hours":""}},"education":{},"experience":"","name":"Delma de Carvalho Balestero Aleixo","picture":"http://photos.doctoralia.com/635615241361341328_2.jpg","registration_number":"","salutation":"","services":"","speciality":"Nefrologista","subspecialities":""}},{"url":"http://www.doctoralia.com.br/medico/flavio+de+oliveira+ihara-11987281","doctor": {"address":{"1":{"address":{"lat":-23.5427318,"lng":-46.6489045,"locality":"01221-020","location":"01221-020 São Paulo, São Paulo SP","street":"R. Dr. Cesario Motta Jr, 112 (Vila Buarque)"},"insurances":"","misc":"","name":"Santa Casa de São Paulo Hospital Central","phone":"(11) 2176-7000","working_hours":""}},"education":{},"experience":"","name":"Flavio de Oliveira Ihara","picture":"http://photos.doctoralia.com/635615241361341328_2.jpg","registration_number":"","salutation":"","services":"","speciality":"Nefrologista","subspecialities":""}},{"url":"http://www.doctoralia.com.br/medico/leonel+fernandes-11962888","doctor": {"address":{"1":{"address":{"lat":-23.5837935,"lng":-46.6110737,"locality":"04262-000","location":"04262-000 São Paulo, São Paulo SP","street":"Av. Nazaré, 28, (Ipiranga)"},"insurances":"","misc":"","name":"Hospital Ipiranga","phone":"(11) 2067-7799","working_hours":""}},"education":{},"experience":"","name":"Leonel Fernandes","picture":"http://photos.doctoralia.com/635615241361341328_2.jpg","registration_number":"","salutation":"","services":"","speciality":"Nefrologista","subspecialities":""}},{"url":"http://www.doctoralia.com.br/medico/maria+alice+muniz+domingos-11898214","doctor": {"address":{"1":{"address":{"lat":-23.5270935,"lng":-46.7015578,"locality":"05051-020","location":"05051-020 São Paulo, São Paulo SP","street":"R Manoel Jacinto,, 206 (Vl Sonia)"},"insurances":"","misc":"","name":"Medserv Unidade de Dialise","phone":"(11) 3502-4001","working_hours":""},"2":{"address":{"lat":-23.530642,"lng":-46.5994896,"locality":"03021-040","location":"03021-040 São Paulo, São Paulo SP","street":"R. Jequitinhonha, 360\n (Belém)"},"insurances":"","misc":"","name":"PAM Maria Zélia","phone":"(11) 6291-3833, (11) 6291-3025","working_hours":""}},"education":{},"experience":"","name":"Maria Alice Muniz Domingos","picture":"http://photos.doctoralia.com/635615241361341328_2.jpg","registration_number":"","salutation":"","services":"","speciality":"Nefrologista","subspecialities":""}},{"url":"http://www.doctoralia.com.br/medico/celia+mara+viana+novelino-11898466","doctor": {"address":{"1":{"address":{"lat":-23.552608,"lng":-46.6507684,"locality":"01307-001","location":"01307-001 São Paulo, São Paulo SP","street":"Rua Frei Caneca, 351 (Bela Vista)"},"insurances":"","misc":"","name":"Untr Unidade de Nefrologia Dialise E Transplante Renal","phone":"(11) 3255-5404","working_hours":""}},"education":{},"experience":"","name":"Celia Mara Viana Novelino","picture":"http://photos.doctoralia.com/635615241361341328_2.jpg","registration_number":"","salutation":"","services":"","speciality":"Nefrologista","subspecialities":""}},{"url":"http://www.doctoralia.com.br/medico/lilian+monteiro+pereira-11898467","doctor": {"address":{"1":{"address":{"lat":-23.552608,"lng":-46.6507684,"locality":"01307-001","location":"01307-001 São Paulo, São Paulo SP","street":"Rua Frei Caneca, 351 (Bela Vista)"},"insurances":"","misc":"","name":"Untr Unidade de Nefrologia Dialise E Transplante Renal","phone":"(11) 3255-5404","working_hours":""}},"education":{},"experience":"","name":"Lilian Monteiro Pereira","picture":"http://photos.doctoralia.com/635615241361341328_2.jpg","registration_number":"","salutation":"","services":"","speciality":"Nefrologista","subspecialities":""}},{"url":"http://www.doctoralia.com.br/medico/elisangela+dos+santos+prado+andrade-11898468","doctor": {"address":{"1":{"address":{"lat":-23.552608,"lng":-46.6507684,"locality":"01307-001","location":"01307-001 São Paulo, São Paulo SP","street":"Rua Frei Caneca, 351 (Bela Vista)"},"insurances":"","misc":"","name":"Untr Unidade de Nefrologia Dialise E Transplante Renal","phone":"(11) 3255-5404","working_hours":""}},"education":{},"experience":"","name":"Elisangela dos Santos Prado Andrade","picture":"http://photos.doctoralia.com/635615241361341328_2.jpg","registration_number":"","salutation":"","services":"","speciality":"Nefrologista","subspecialities":""}},{"url":"http://www.doctoralia.com.br/medico/gustavo+fernandes+ferreira-11898469","doctor": {"address":{"1":{"address":{"lat":-23.552608,"lng":-46.6507684,"locality":"01307-001","location":"01307-001 São Paulo, São Paulo SP","street":"Rua Frei Caneca, 351 (Bela Vista)"},"insurances":"","misc":"","name":"Untr Unidade de Nefrologia Dialise E Transplante Renal","phone":"(11) 3255-5404","working_hours":""}},"education":{},"experience":"","name":"Gustavo Fernandes Ferreira","picture":"http://photos.doctoralia.com/635615241361341328_2.jpg","registration_number":"","salutation":"","services":"","speciality":"Nefrologista","subspecialities":""}},{"url":"http://www.doctoralia.com.br/medico/leonardo+victor+barbosa+pereira-11898470","doctor": {"address":{"1":{"address":{"lat":-23.552608,"lng":-46.6507684,"locality":"01307-001","location":"01307-001 São Paulo, São Paulo SP","street":"Rua Frei Caneca, 351 (Bela Vista)"},"insurances":"","misc":"","name":"Untr Unidade de Nefrologia Dialise E Transplante Renal","phone":"(11) 3255-5404","working_hours":""}},"education":{},"experience":"","name":"Leonardo Victor Barbosa Pereira","picture":"http://photos.doctoralia.com/635615241361341328_2.jpg","registration_number":"","salutation":"","services":"","speciality":"Nefrologista","subspecialities":""}},{"url":"http://www.doctoralia.com.br/medico/guaraciaba+oliveira+ferreira-11898472","doctor": {"address":{"1":{"address":{"lat":-23.552608,"lng":-46.6507684,"locality":"01307-001","location":"01307-001 São Paulo, São Paulo SP","street":"Rua Frei Caneca, 351 (Bela Vista)"},"insurances":"","misc":"","name":"Untr Unidade de Nefrologia Dialise E Transplante Renal","phone":"(11) 3255-5404","working_hours":""}},"education":{},"experience":"","name":"Guaraciaba Oliveira Ferreira","picture":"http://photos.doctoralia.com/635615241361341328_2.jpg","registration_number":"","salutation":"","services":"","speciality":"Nefrologista","subspecialities":""}},{"url":"http://www.doctoralia.com.br/medico/luiz+fernando+haigag+djabraian-11899655","doctor": {"address":{"1":{"address":{"lat":-23.5373656,"lng":-46.5888692,"locality":"03014-020","location":"03014-020 São Paulo, São Paulo SP","street":"Praca Major Guilherme Rudge, 91 (Belem)"},"insurances":"","misc":"","name":"Strano E Djabraian Consultorios Medicos","phone":"(11) 6291-0050","working_hours":""}},"education":{},"experience":"","name":"Luiz Fernando Haigag Djabraian","picture":"http://photos.doctoralia.com/635615241361341328_2.jpg","registration_number":"","salutation":"","services":"","speciality":"Nefrologista","subspecialities":""}},{"url":"http://www.doctoralia.com.br/medico/maria+luiza+dautro+moreira-11899656","doctor": {"address":{"1":{"address":{"lat":-23.5443983,"lng":-46.5207768,"locality":"03520-000","location":"03520-000 São Paulo, São Paulo SP","street":"Avenida Dalila, 80 (Vila Dalila)"},"insurances":"","misc":"","name":"Luiz Augusto Do Val Servicos Medicos","phone":"(11) 6654-3171","working_hours":""}},"education":{},"experience":"","name":"Maria Luiza Dautro Moreira","picture":"http://photos.doctoralia.com/635615241361341328_2.jpg","registration_number":"","salutation":"","services":"","speciality":"Nefrologista","subspecialities":""}},{"url":"http://www.doctoralia.com.br/medico/irina+antunes-11958153","doctor": {"address":{"1":{"address":{"lat":-23.5916906,"lng":-46.6391535,"locality":"04020-040","location":"04020-040 São Paulo, São Paulo SP","street":"Rua Coronel Lisboa, 139 (Vila Mariana)"},"insurances":"","misc":"","name":"Residencial Israelita Albert Einstein","phone":"(11) 2151-1233","working_hours":""}},"education":{},"experience":"","name":"Irina Antunes","picture":"http://photos.doctoralia.com/635615241361341328_2.jpg","registration_number":"","salutation":"","services":"","speciality":"Nefrologista","subspecialities":""}},{"url":"http://www.doctoralia.com.br/medico/roberto+galvao-11958154","doctor": {"address":{"1":{"address":{"lat":-23.5916906,"lng":-46.6391535,"locality":"04020-040","location":"04020-040 São Paulo, São Paulo SP","street":"Rua Coronel Lisboa, 139 (Vila Mariana)"},"insurances":"","misc":"","name":"Residencial Israelita Albert Einstein","phone":"(11) 2151-1233","working_hours":""}},"education":{},"experience":"","name":"Roberto Galvao","picture":"http://photos.doctoralia.com/635615241361341328_2.jpg","registration_number":"","salutation":"","services":"","speciality":"Nefrologista","subspecialities":""}},{"url":"http://www.doctoralia.com.br/medico/mauricio+galvao+pereira-11958155","doctor": {"address":{"1":{"address":{"lat":-23.5916906,"lng":-46.6391535,"locality":"04020-040","location":"04020-040 São Paulo, São Paulo SP","street":"Rua Coronel Lisboa, 139 (Vila Mariana)"},"insurances":"","misc":"","name":"Residencial Israelita Albert Einstein","phone":"(11) 2151-1233","working_hours":""},"2":{"address":{"lat":-23.6572847,"lng":-46.6537446,"locality":"04378-500","location":"04378-500 São Paulo, São Paulo SP","street":"Av. Santa Catarina, 2785 (Jabaquara)"},"insurances":"","misc":"","name":"Hospital e Maternidade Santa Marina","phone":"(11) 5013-1100","working_hours":""}},"education":{},"experience":"","name":"Mauricio Galvao Pereira","picture":"http://photos.doctoralia.com/635615241361341328_2.jpg","registration_number":"","salutation":"","services":"","speciality":"Nefrologista","subspecialities":""}},{"url":"http://www.doctoralia.com.br/medico/vanda+benini-11987265","doctor": {"address":{"1":{"address":{"lat":-23.5427318,"lng":-46.6489045,"locality":"01221-020","location":"01221-020 São Paulo, São Paulo SP","street":"R. Dr. Cesario Motta Jr, 112 (Vila Buarque)"},"insurances":"","misc":"","name":"Santa Casa de São Paulo Hospital Central","phone":"(11) 2176-7000","working_hours":""}},"education":{},"experience":"","name":"Vanda Benini","picture":"http://photos.doctoralia.com/635615241361341328_2.jpg","registration_number":"","salutation":"","services":"","speciality":"Nefrologista","subspecialities":""}},{"url":"http://www.doctoralia.com.br/medico/helio+gomes+cardim+silva-11987269","doctor": {"address":{"1":{"address":{"lat":-23.5427318,"lng":-46.6489045,"locality":"01221-020","location":"01221-020 São Paulo, São Paulo SP","street":"R. Dr. Cesario Motta Jr, 112 (Vila Buarque)"},"insurances":"","misc":"","name":"Santa Casa de São Paulo Hospital Central","phone":"(11) 2176-7000","working_hours":""}},"education":{},"experience":"","name":"Helio Gomes Cardim Silva","picture":"http://photos.doctoralia.com/635615241361341328_2.jpg","registration_number":"","salutation":"","services":"","speciality":"Nefrologista","subspecialities":""}},{"url":"http://www.doctoralia.com.br/medico/cicera+da+silva+bento-11987272","doctor": {"address":{"1":{"address":{"lat":-23.5427318,"lng":-46.6489045,"locality":"01221-020","location":"01221-020 São Paulo, São Paulo SP","street":"R. Dr. Cesario Motta Jr, 112 (Vila Buarque)"},"insurances":"","misc":"","name":"Santa Casa de São Paulo Hospital Central","phone":"(11) 2176-7000","working_hours":""}},"education":{},"experience":"","name":"Cicera da Silva Bento","picture":"http://photos.doctoralia.com/635615241361341328_2.jpg","registration_number":"","salutation":"","services":"","speciality":"Nefrologista","subspecialities":""}},{"url":"http://www.doctoralia.com.br/medico/juliana+goncalves+de+lima-11987282","doctor": {"address":{"1":{"address":{"lat":-23.5427318,"lng":-46.6489045,"locality":"01221-020","location":"01221-020 São Paulo, São Paulo SP","street":"R. Dr. Cesario Motta Jr, 112 (Vila Buarque)"},"insurances":"","misc":"","name":"Santa Casa de São Paulo Hospital Central","phone":"(11) 2176-7000","working_hours":""}},"education":{},"experience":"","name":"Juliana Goncalves de Lima","picture":"http://photos.doctoralia.com/635615241361341328_2.jpg","registration_number":"","salutation":"","services":"","speciality":"Nefrologista","subspecialities":""}},{"url":"http://www.doctoralia.com.br/medico/marcos+de+figueiredo+cardoso-11987284","doctor": {"address":{"1":{"address":{"lat":-23.5427318,"lng":-46.6489045,"locality":"01221-020","location":"01221-020 São Paulo, São Paulo SP","street":"R. Dr. Cesario Motta Jr, 112 (Vila Buarque)"},"insurances":"","misc":"","name":"Santa Casa de São Paulo Hospital Central","phone":"(11) 2176-7000","working_hours":""}},"education":{},"experience":"","name":"Marcos de Figueiredo Cardoso","picture":"http://photos.doctoralia.com/635615241361341328_2.jpg","registration_number":"","salutation":"","services":"","speciality":"Nefrologista","subspecialities":""}},{"url":"http://www.doctoralia.com.br/medico/fabiana+leitao+amadei-11987285","doctor": {"address":{"1":{"address":{"lat":-23.5427318,"lng":-46.6489045,"locality":"01221-020","location":"01221-020 São Paulo, São Paulo SP","street":"R. Dr. Cesario Motta Jr, 112 (Vila Buarque)"},"insurances":"","misc":"","name":"Santa Casa de São Paulo Hospital Central","phone":"(11) 2176-7000","working_hours":""}},"education":{},"experience":"","name":"Fabiana Leitao Amadei","picture":"http://photos.doctoralia.com/635615241361341328_2.jpg","registration_number":"","salutation":"","services":"","speciality":"Nefrologista","subspecialities":""}},{"url":"http://www.doctoralia.com.br/medico/leticia+mendes-11987286","doctor": {"address":{"1":{"address":{"lat":-23.5427318,"lng":-46.6489045,"locality":"01221-020","location":"01221-020 São Paulo, São Paulo SP","street":"R. Dr. Cesario Motta Jr, 112 (Vila Buarque)"},"insurances":"","misc":"","name":"Santa Casa de São Paulo Hospital Central","phone":"(11) 2176-7000","working_hours":""}},"education":{},"experience":"","name":"Leticia Mendes","picture":"http://photos.doctoralia.com/635615241361341328_2.jpg","registration_number":"","salutation":"","services":"","speciality":"Nefrologista","subspecialities":""}},{"url":"http://www.doctoralia.com.br/medico/adolfo+mansano+garcia-11987287","doctor": {"address":{"1":{"address":{"lat":-23.5427318,"lng":-46.6489045,"locality":"01221-020","location":"01221-020 São Paulo, São Paulo SP","street":"R. Dr. Cesario Motta Jr, 112 (Vila Buarque)"},"insurances":"","misc":"","name":"Santa Casa de São Paulo Hospital Central","phone":"(11) 2176-7000","working_hours":""}},"education":{},"experience":"","name":"Adolfo Mansano Garcia","picture":"http://photos.doctoralia.com/635615241361341328_2.jpg","registration_number":"","salutation":"","services":"","speciality":"Nefrologista","subspecialities":""}},{"url":"http://www.doctoralia.com.br/medico/deane+cedraz+carneiro-11987289","doctor": {"address":{"1":{"address":{"lat":-23.5427318,"lng":-46.6489045,"locality":"01221-020","location":"01221-020 São Paulo, São Paulo SP","street":"R. Dr. Cesario Motta Jr, 112 (Vila Buarque)"},"insurances":"","misc":"","name":"Santa Casa de São Paulo Hospital Central","phone":"(11) 2176-7000","working_hours":""}},"education":{},"experience":"","name":"Deane Cedraz Carneiro","picture":"http://photos.doctoralia.com/635615241361341328_2.jpg","registration_number":"","salutation":"","services":"","speciality":"Nefrologista","subspecialities":""}},{"url":"http://www.doctoralia.com.br/medico/rodrigio+azevedo+de+oliveira-11987290","doctor": {"address":{"1":{"address":{"lat":-23.5427318,"lng":-46.6489045,"locality":"01221-020","location":"01221-020 São Paulo, São Paulo SP","street":"R. Dr. Cesario Motta Jr, 112 (Vila Buarque)"},"insurances":"","misc":"","name":"Santa Casa de São Paulo Hospital Central","phone":"(11) 2176-7000","working_hours":""}},"education":{},"experience":"","name":"Rodrigio Azevedo de Oliveira","picture":"http://photos.doctoralia.com/635615241361341328_2.jpg","registration_number":"","salutation":"","services":"","speciality":"Nefrologista","subspecialities":""}},{"url":"http://www.doctoralia.com.br/medico/kikumi+suzete+ozaki-12018655","doctor": {"address":{"1":{"address":{"lat":-23.6572847,"lng":-46.6537446,"locality":"04378-500","location":"04378-500 São Paulo, São Paulo SP","street":"Av. Santa Catarina, 2785 (Jabaquara)"},"insurances":"","misc":"","name":"Hospital e Maternidade Santa Marina","phone":"(11) 5013-1100","working_hours":""}},"education":{},"experience":"","name":"Kikumi Suzete Ozaki","picture":"http://photos.doctoralia.com/635615241361341328_2.jpg","registration_number":"","salutation":"","services":"","speciality":"Nefrologista","subspecialities":""}},{"url":"http://www.doctoralia.com.br/medico/marcelo+pinheiro+marcal-12018656","doctor": {"address":{"1":{"address":{"lat":-23.6572847,"lng":-46.6537446,"locality":"04378-500","location":"04378-500 São Paulo, São Paulo SP","street":"Av. Santa Catarina, 2785 (Jabaquara)"},"insurances":"","misc":"","name":"Hospital e Maternidade Santa Marina","phone":"(11) 5013-1100","working_hours":""}},"education":{},"experience":"","name":"Marcelo Pinheiro Marcal","picture":"http://photos.doctoralia.com/635615241361341328_2.jpg","registration_number":"","salutation":"","services":"","speciality":"Nefrologista","subspecialities":""}},{"url":"http://www.doctoralia.com.br/medico/braz+henrique+delgado-12018658","doctor": {"address":{"1":{"address":{"lat":-23.6572847,"lng":-46.6537446,"locality":"04378-500","location":"04378-500 São Paulo, São Paulo SP","street":"Av. Santa Catarina, 2785 (Jabaquara)"},"insurances":"","misc":"","name":"Hospital e Maternidade Santa Marina","phone":"(11) 5013-1100","working_hours":""}},"education":{},"experience":"","name":"Braz Henrique Delgado","picture":"http://photos.doctoralia.com/635615241361341328_2.jpg","registration_number":"","salutation":"","services":"","speciality":"Nefrologista","subspecialities":""}},{"url":"http://www.doctoralia.com.br/medico/denise+leite-12018659","doctor": {"address":{"1":{"address":{"lat":-23.6572847,"lng":-46.6537446,"locality":"04378-500","location":"04378-500 São Paulo, São Paulo SP","street":"Av. Santa Catarina, 2785 (Jabaquara)"},"insurances":"","misc":"","name":"Hospital e Maternidade Santa Marina","phone":"(11) 5013-1100","working_hours":""}},"education":{},"experience":"","name":"Denise Leite","picture":"http://photos.doctoralia.com/635615241361341328_2.jpg","registration_number":"","salutation":"","services":"","speciality":"Nefrologista","subspecialities":""}},{"url":"http://www.doctoralia.com.br/medico/alessandra+dias+barbosa-12018661","doctor": {"address":{"1":{"address":{"lat":-23.6572847,"lng":-46.6537446,"locality":"04378-500","location":"04378-500 São Paulo, São Paulo SP","street":"Av. Santa Catarina, 2785 (Jabaquara)"},"insurances":"","misc":"","name":"Hospital e Maternidade Santa Marina","phone":"(11) 5013-1100","working_hours":""}},"education":{},"experience":"","name":"Alessandra Dias Barbosa","picture":"http://photos.doctoralia.com/635615241361341328_2.jpg","registration_number":"","salutation":"","services":"","speciality":"Nefrologista","subspecialities":""}},{"url":"http://www.doctoralia.com.br/medico/alessandra+coelho+pedrosa-12018662","doctor": {"address":{"1":{"address":{"lat":-23.6572847,"lng":-46.6537446,"locality":"04378-500","location":"04378-500 São Paulo, São Paulo SP","street":"Av. Santa Catarina, 2785 (Jabaquara)"},"insurances":"","misc":"","name":"Hospital e Maternidade Santa Marina","phone":"(11) 5013-1100","working_hours":""}},"education":{},"experience":"","name":"Alessandra Coelho Pedrosa","picture":"http://photos.doctoralia.com/635615241361341328_2.jpg","registration_number":"","salutation":"","services":"","speciality":"Nefrologista","subspecialities":""}},{"url":"http://www.doctoralia.com.br/medico/renata+fabbri+dominguez-12087842","doctor": {"address":{"1":{"address":{"lat":-23.5566208,"lng":-46.6253464,"locality":"01518-020","location":"01518-020 São Paulo, São Paulo SP","street":"Rua Leopoldo Miguez, 327 (Cambuci)"},"insurances":"","misc":"","name":"Pam Varzea Do Carmo Nga 63","phone":"(11) 3385-7000","working_hours":""}},"education":{},"experience":"","name":"Renata Fabbri Dominguez","picture":"http://photos.doctoralia.com/635615241361341328_2.jpg","registration_number":"","salutation":"","services":"","speciality":"Nefrologista","subspecialities":""}},{"url":"http://www.doctoralia.com.br/medico/jean+carlo+rodrigues+pegas-12091286","doctor": {"address":{"1":{"address":{"lat":-23.530642,"lng":-46.5994896,"locality":"03021-040","location":"03021-040 São Paulo, São Paulo SP","street":"R. Jequitinhonha, 360\n (Belém)"},"insurances":"","misc":"","name":"PAM Maria Zélia","phone":"(11) 6291-3833, (11) 6291-3025","working_hours":""}},"education":{},"experience":"","name":"Jean Carlo Rodrigues Pegas","picture":"http://photos.doctoralia.com/635615241361341328_2.jpg","registration_number":"","salutation":"","services":"","speciality":"Nefrologista","subspecialities":""}},{"url":"http://www.doctoralia.com.br/medico/luciana+frigo+da+silva-11987288","doctor": {"address":{"1":{"address":{"lat":-23.5427318,"lng":-46.6489045,"locality":"01221-020","location":"01221-020 São Paulo, São Paulo SP","street":"R. Dr. Cesario Motta Jr, 112 (Vila Buarque)"},"insurances":"","misc":"","name":"Santa Casa de São Paulo Hospital Central","phone":"(11) 2176-7000","working_hours":""}},"education":{},"experience":"","name":"Luciana Frigo da Silva","picture":"http://photos.doctoralia.com/635615241361341328_2.jpg","registration_number":"","salutation":"","services":"","speciality":"Nefrologista","subspecialities":""}},{"url":"http://www.doctoralia.com.br/medico/valderez+raposo+mello+souza-11987291","doctor": {"address":{"1":{"address":{"lat":-23.5427318,"lng":-46.6489045,"locality":"01221-020","location":"01221-020 São Paulo, São Paulo SP","street":"R. Dr. Cesario Motta Jr, 112 (Vila Buarque)"},"insurances":"","misc":"","name":"Santa Casa de São Paulo Hospital Central","phone":"(11) 2176-7000","working_hours":""}},"education":{},"experience":"","name":"Valderez Raposo Mello Souza","picture":"http://photos.doctoralia.com/635615241361341328_2.jpg","registration_number":"","salutation":"","services":"","speciality":"Nefrologista","subspecialities":""}},{"url":"http://www.doctoralia.com.br/medico/ricardo+de+castro+cintra+sesso-12087331","doctor": {"address":{"1":{"address":{"lat":-23.5446782,"lng":-46.6386066,"locality":"01037-000","location":"01037-000 São Paulo, São Paulo SP","street":"Rua Conselheiro Crispiniano, 20 (Centro)"},"insurances":"","misc":"","name":"Pam Centro Nga 55","phone":"(11) 3106-8528","working_hours":""}},"education":{},"experience":"","name":"Ricardo de Castro Cintra Sesso","picture":"http://photos.doctoralia.com/635615241361341328_2.jpg","registration_number":"","salutation":"","services":"","speciality":"Nefrologista","subspecialities":""}},{"url":"http://www.doctoralia.com.br/medico/nilton+araujo+leite+machado-11898471","doctor": {"address":{"1":{"address":{"lat":-23.552608,"lng":-46.6507684,"locality":"01307-001","location":"01307-001 São Paulo, São Paulo SP","street":"Rua Frei Caneca, 351 (Bela Vista)"},"insurances":"","misc":"","name":"Untr Unidade de Nefrologia Dialise E Transplante Renal","phone":"(11) 3255-5404","working_hours":""}},"education":{},"experience":"","name":"Nilton Araujo Leite Machado","picture":"http://photos.doctoralia.com/635615241361341328_2.jpg","registration_number":"","salutation":"","services":"","speciality":"Nefrologista","subspecialities":""}},{"url":"http://www.doctoralia.com.br/medico/valeria+pinheiro+de+souza-11987276","doctor": {"address":{"1":{"address":{"lat":-23.5427318,"lng":-46.6489045,"locality":"01221-020","location":"01221-020 São Paulo, São Paulo SP","street":"R. Dr. Cesario Motta Jr, 112 (Vila Buarque)"},"insurances":"","misc":"","name":"Santa Casa de São Paulo Hospital Central","phone":"(11) 2176-7000","working_hours":""}},"education":{},"experience":"","name":"Valeria Pinheiro de Souza","picture":"http://photos.doctoralia.com/635615241361341328_2.jpg","registration_number":"","salutation":"","services":"","speciality":"Nefrologista","subspecialities":""}},{"url":"http://www.doctoralia.com.br/medico/carlos+eduardo+pinto+pacca-11870355","doctor": {"address":{"1":{"address":{"lat":-23.5388977,"lng":-46.5893186,"locality":"03058-060","location":"03058-060 São Paulo, São Paulo SP","street":"Avenida álvaro Ramos, 59"},"insurances":"","misc":"","name":"Nefroclin Servicos Medicos","phone":"(11) 2698-0181, (11) 6694-2637, (11) 6694-2637","working_hours":""}},"education":{},"experience":"","name":"Carlos Eduardo Pinto Pacca","picture":"http://photos.doctoralia.com/635615241361341328_2.jpg","registration_number":"","salutation":"","services":"","speciality":"Nefrologista","subspecialities":""}},{"url":"http://www.doctoralia.com.br/medico/ronaldo+roberto+bergamo-11870755","doctor": {"address":{"1":{"address":{"lat":-23.6012276,"lng":-46.661277299999,"locality":"04521-022","location":"04521-022 São Paulo, São Paulo SP","street":"Avenida Ministro Gabriel Resende Passos, 500 / Cj 307 (Indianopolis)"},"insurances":"","misc":"","name":"Trs Terapia Renal Substitutiva","phone":"(11) 5054-1377","working_hours":""}},"education":{},"experience":"","name":"Ronaldo Roberto Bergamo","picture":"http://photos.doctoralia.com/635615241361341328_2.jpg","registration_number":"","salutation":"","services":"","speciality":"Nefrologista","subspecialities":""}},{"url":"http://www.doctoralia.com.br/medico/pedro+aparecido+dotto+junior-10587937","doctor": {"address":{"1":{"address":{"lat":-23.5270935,"lng":-46.7015578,"locality":"05051-020","location":"05051-020 São Paulo, São Paulo SP","street":"R Manoel Jacinto,, 206 (Vl Sonia)"},"insurances":"","misc":"","name":"Medserv-Assist Med E Nefrologica S/C Ltda","phone":"(11) 3502-4001","working_hours":""}},"education":{},"experience":"","name":"Pedro Aparecido Dotto Junior","picture":"http://photos.doctoralia.com/635615241361341328_2.jpg","registration_number":"","salutation":"Dr","services":"","speciality":"Nefrologista","subspecialities":""}},{"url":"http://www.doctoralia.com.br/medico/lilian+andrade+da+rocha-11898217","doctor": {"address":{"1":{"address":{"lat":-23.5270935,"lng":-46.7015578,"locality":"05051-020","location":"05051-020 São Paulo, São Paulo SP","street":"R Manoel Jacinto,, 206 (Vl Sonia)"},"insurances":"","misc":"","name":"Medserv Unidade de Dialise","phone":"(11) 3502-4001","working_hours":""}},"education":{},"experience":"","name":"Lilian Andrade da Rocha","picture":"http://photos.doctoralia.com/635615241361341328_2.jpg","registration_number":"","salutation":"","services":"","speciality":"Nefrologista","subspecialities":""}},{"url":"http://www.doctoralia.com.br/medico/eliana+almeida+de+miranda+menezes-11878550","doctor": {"address":{"1":{"address":{"lat":-23.5394467,"lng":-46.6614498,"locality":"01232-010","location":"01232-010 São Paulo, São Paulo SP","street":"Rua Conselheiro Brotero, 1486 (Santa Cecilia)"},"insurances":"","misc":"","name":"Samarim","phone":"(11) 3821-5371, (11) 3821-5749, (11) 3821-5749","working_hours":""}},"education":{},"experience":"","name":"Eliana Almeida de Miranda Menezes","picture":"http://photos.doctoralia.com/635615241361341328_2.jpg","registration_number":"","salutation":"","services":"","speciality":"Nefrologista","subspecialities":""}},{"url":"http://www.doctoralia.com.br/medico/aldeniz+leite+da+silva+junior-11898157","doctor": {"address":{"1":{"address":{"lat":-23.5324529,"lng":-46.5659534,"locality":"03086-040","location":"03086-040 São Paulo, São Paulo SP","street":"Rua Siria, 136 / Sala 01 (Tatuape)"},"insurances":"","misc":"","name":"Nefrocenter Servicos Medicos","phone":"(11) 6198-4616","working_hours":""}},"education":{},"experience":"","name":"Aldeniz Leite da Silva Junior","picture":"http://photos.doctoralia.com/635615241361341328_2.jpg","registration_number":"","salutation":"","services":"","speciality":"Nefrologista","subspecialities":""}},{"url":"http://www.doctoralia.com.br/medico/joao+cezar+mendes+moreira-11871107","doctor": {"address":{"1":{"address":{"lat":-23.5839758,"lng":-46.6480548,"locality":"04012-070","location":"04012-070 São Paulo, São Paulo SP","street":"Rua Catequese - 255 (Butanta)"},"insurances":"","misc":"","name":"Nefrocor","phone":"(11) 5575-3958","working_hours":""}},"education":{},"experience":"","name":"Joao Cezar Mendes Moreira","picture":"http://photos.doctoralia.com/635615241361341328_2.jpg","registration_number":"","salutation":"","services":"","speciality":"Nefrologista","subspecialities":""}},{"url":"http://www.doctoralia.com.br/medico/jose+orlando+campos+santos-11869986","doctor": {"address":{"1":{"address":{"lat":-23.5300867,"lng":-46.6786092,"locality":"05024-030","location":"05024-030 São Paulo, São Paulo SP","street":"Rua Venancio Aires, 52 (Perdizes)"},"insurances":"","misc":"","name":"Nephron","phone":"(11) 3676-0346, (11) 3676-1046, (11) 3676-1046","working_hours":""},"2":{"address":{"lat":-23.552608,"lng":-46.6507684,"locality":"01307-001","location":"01307-001 São Paulo, São Paulo SP","street":"Rua Frei Caneca, 351 (Bela Vista)"},"insurances":"","misc":"","name":"Untr Unidade de Nefrologia Dialise E Transplante Renal","phone":"(11) 3255-5404","working_hours":""}},"education":{},"experience":"","name":"Jose Orlando Campos Santos","picture":"http://photos.doctoralia.com/635615241361341328_2.jpg","registration_number":"","salutation":"","services":"","speciality":"Nefrologista","subspecialities":""}},{"url":"http://www.doctoralia.com.br/medico/luiz+augusto+menegazzo-11869989","doctor": {"address":{"1":{"address":{"lat":-23.5300867,"lng":-46.6786092,"locality":"05024-030","location":"05024-030 São Paulo, São Paulo SP","street":"Rua Venancio Aires, 52 (Perdizes)"},"insurances":"","misc":"","name":"Nephron","phone":"","working_hours":""}},"education":{},"experience":"","name":"Luiz Augusto Menegazzo","registration_number":"","salutation":"","services":"","speciality":"Nefrologista","subspecialities":""}},{"url":"http://www.doctoralia.com.br/medico/giovanio+vieira+da+silva-11869991","doctor": {"address":{"1":{"address":{"lat":-23.5300867,"lng":-46.6786092,"locality":"05024-030","location":"05024-030 São Paulo, São Paulo SP","street":"Rua Venancio Aires, 52 (Perdizes)"},"insurances":"","misc":"","name":"Nephron","phone":"","working_hours":""}},"education":{},"experience":"","name":"Giovanio Vieira da Silva","picture":"http://photos.doctoralia.com/635615241361341328_2.jpg","registration_number":"","salutation":"","services":"","speciality":"Nefrologista","subspecialities":""}},{"url":"http://www.doctoralia.com.br/medico/alexandre+monteiro+zilenovski-11878547","doctor": {"address":{"1":{"address":{"lat":-23.5394467,"lng":-46.6614498,"locality":"01232-010","location":"01232-010 São Paulo, São Paulo SP","street":"Rua Conselheiro Brotero, 1486 (Santa Cecilia)"},"insurances":"","misc":"","name":"Samarim","phone":"(11) 3821-5371, (11) 3821-5749, (11) 3821-5749","working_hours":""}},"education":{},"experience":"","name":"Alexandre Monteiro Zilenovski","picture":"http://photos.doctoralia.com/635615241361341328_2.jpg","registration_number":"","salutation":"","services":"","speciality":"Nefrologista","subspecialities":""}},{"url":"http://www.doctoralia.com.br/medico/vanda+jorgetti-11878548","doctor": {"address":{"1":{"address":{"lat":-23.5394467,"lng":-46.6614498,"locality":"01232-010","location":"01232-010 São Paulo, São Paulo SP","street":"Rua Conselheiro Brotero, 1486 (Santa Cecilia)"},"insurances":"","misc":"","name":"Samarim","phone":"(11) 3821-5371, (11) 3821-5749, (11) 3821-5749","working_hours":""}},"education":{},"experience":"","name":"Vanda Jorgetti","picture":"http://photos.doctoralia.com/635615241361341328_2.jpg","registration_number":"","salutation":"","services":"","speciality":"Nefrologista","subspecialities":""}},{"url":"http://www.doctoralia.com.br/medico/victor+hugo+bezerra+rodrigues-11898079","doctor": {"address":{"1":{"address":{"lat":-23.5809294,"lng":-46.59018,"locality":"03127-001","location":"03127-001 São Paulo, São Paulo SP","street":"Rua Chamanta, 1351 (Prq da Mooca)"},"insurances":"","misc":"","name":"Sedit Unidade de Dialise","phone":"(11) 6168-7822","working_hours":""}},"education":{},"experience":"","name":"Victor Hugo Bezerra Rodrigues","picture":"http://photos.doctoralia.com/635615241361341328_2.jpg","registration_number":"","salutation":"","services":"","speciality":"Nefrologista","subspecialities":""}},{"url":"http://www.doctoralia.com.br/medico/ana+paula+fernandes+bertocchi-11864640","doctor": {"address":{"1":{"address":{"lat":-23.6364928,"lng":-46.7362654,"locality":"05718-300","location":"05718-300 São Paulo, São Paulo SP","street":"Rua Clarindo, 59 (Vila Andrade)"},"insurances":"","misc":"","name":"Senesp","phone":"(11) 3771-2203","working_hours":""}},"education":{},"experience":"","name":"Ana Paula Fernandes Bertocchi","picture":"http://photos.doctoralia.com/635615241361341328_2.jpg","registration_number":"","salutation":"","services":"","speciality":"Nefrologista","subspecialities":""}},{"url":"http://www.doctoralia.com.br/medico/savina+adriana+bobbio-11898070","doctor": {"address":{"1":{"address":{"lat":-23.5301634,"lng":-46.6971857,"locality":"05044-010","location":"05044-010 São Paulo, São Paulo SP","street":"Rua Marcelina, 470 (Vil Romana)"},"insurances":"","misc":"","name":"Pronefron","phone":"(11) 3865-8319","working_hours":""}},"education":{},"experience":"","name":"Savina Adriana Bobbio","picture":"http://photos.doctoralia.com/635615241361341328_2.jpg","registration_number":"","salutation":"","services":"","speciality":"Nefrologista","subspecialities":""}},{"url":"http://www.doctoralia.com.br/medico/joao+marcos+goes+peixoto-11898154","doctor": {"address":{"1":{"address":{"lat":-23.5324529,"lng":-46.5659534,"locality":"03086-040","location":"03086-040 São Paulo, São Paulo SP","street":"Rua Siria, 136 / Sala 01 (Tatuape)"},"insurances":"","misc":"","name":"Nefrocenter Servicos Medicos","phone":"(11) 6198-4616","working_hours":""}},"education":{},"experience":"","name":"Joao Marcos Goes Peixoto","picture":"http://photos.doctoralia.com/635615241361341328_2.jpg","registration_number":"","salutation":"","services":"","speciality":"Nefrologista","subspecialities":""}},{"url":"http://www.doctoralia.com.br/medico/maria+cecilia+reis+martins-11898155","doctor": {"address":{"1":{"address":{"lat":-23.5324529,"lng":-46.5659534,"locality":"03086-040","location":"03086-040 São Paulo, São Paulo SP","street":"Rua Siria, 136 / Sala 01 (Tatuape)"},"insurances":"","misc":"","name":"Nefrocenter Servicos Medicos","phone":"(11) 6198-4616","working_hours":""}},"education":{},"experience":"","name":"Maria Cecilia Reis Martins","picture":"http://photos.doctoralia.com/635615241361341328_2.jpg","registration_number":"","salutation":"","services":"","speciality":"Nefrologista","subspecialities":""}},{"url":"http://www.doctoralia.com.br/medico/marco+antonio+mora-11898161","doctor": {"address":{"1":{"address":{"lat":-23.4928867,"lng":-46.6182091,"locality":"02039-090","location":"02039-090 São Paulo, São Paulo SP","street":"Rua Carlos de Camargo Aranha, 10 (Jardim Sao Paulo)"},"insurances":"","misc":"","name":"Nefros","phone":"(11) 2283-6320","working_hours":""}},"education":{},"experience":"","name":"Marco Antonio Mora","picture":"http://photos.doctoralia.com/635615241361341328_2.jpg","registration_number":"","salutation":"","services":"","speciality":"Nefrologista","subspecialities":""}},{"url":"http://www.doctoralia.com.br/medico/denise+lemos+silva+baena-11898164","doctor": {"address":{"1":{"address":{"lat":-23.4928867,"lng":-46.6182091,"locality":"02039-090","location":"02039-090 São Paulo, São Paulo SP","street":"Rua Carlos de Camargo Aranha, 10 (Jardim Sao Paulo)"},"insurances":"","misc":"","name":"Nefros","phone":"(11) 2283-6320","working_hours":""}},"education":{},"experience":"","name":"Denise Lemos Silva Baena","picture":"http://photos.doctoralia.com/635615241361341328_2.jpg","registration_number":"","salutation":"","services":"","speciality":"Nefrologista","subspecialities":""}},{"url":"http://www.doctoralia.com.br/medico/paula+fuscaldo+calderon-11898210","doctor": {"address":{"1":{"address":{"lat":-23.5270935,"lng":-46.7015578,"locality":"05051-020","location":"05051-020 São Paulo, São Paulo SP","street":"R Manoel Jacinto,, 206 (Vl Sonia)"},"insurances":"","misc":"","name":"Medserv Unidade de Dialise","phone":"(11) 3502-4001","working_hours":""}},"education":{},"experience":"","name":"Paula Fuscaldo Calderon","picture":"http://photos.doctoralia.com/635615241361341328_2.jpg","registration_number":"","salutation":"","services":"","speciality":"Nefrologista","subspecialities":""}},{"url":"http://www.doctoralia.com.br/medico/luis+antonio+lucarelli-11898215","doctor": {"address":{"1":{"address":{"lat":-23.5270935,"lng":-46.7015578,"locality":"05051-020","location":"05051-020 São Paulo, São Paulo SP","street":"R Manoel Jacinto,, 206 (Vl Sonia)"},"insurances":"","misc":"","name":"Medserv Unidade de Dialise","phone":"(11) 3502-4001","working_hours":""}},"education":{},"experience":"","name":"Luis Antonio Lucarelli","picture":"http://photos.doctoralia.com/635615241361341328_2.jpg","registration_number":"","salutation":"","services":"","speciality":"Nefrologista","subspecialities":""}},{"url":"http://www.doctoralia.com.br/medico/ana+ludimila+espada-11898216","doctor": {"address":{"1":{"address":{"lat":-23.5270935,"lng":-46.7015578,"locality":"05051-020","location":"05051-020 São Paulo, São Paulo SP","street":"R Manoel Jacinto,, 206 (Vl Sonia)"},"insurances":"","misc":"","name":"Medserv Unidade de Dialise","phone":"(11) 3502-4001","working_hours":""}},"education":{},"experience":"","name":"Ana Ludimila Espada","picture":"http://photos.doctoralia.com/635615241361341328_2.jpg","registration_number":"","salutation":"","services":"","speciality":"Nefrologista","subspecialities":""}},{"url":"http://www.doctoralia.com.br/medico/pereira+de+albuquerque+patricia+maria-11899029","doctor": {"address":{"1":{"address":{"lat":-23.5955131,"lng":-46.6453597,"locality":"04037-003","location":"04037-003 São Paulo, São Paulo SP","street":"R. Dr. Diogo de Faria, 892 (Vila Clementino)"},"insurances":"","misc":"","name":"Consultório","phone":"(11) 5083-8222","working_hours":""}},"education":{},"experience":"","name":"Patricia Maria Pereira de Albuquerque","picture":"http://photos.doctoralia.com/635615241361341328_2.jpg","registration_number":"","salutation":"Dra","services":"","speciality":"Nefrologista","subspecialities":""}},{"url":"http://www.doctoralia.com.br/medico/ana+cristina+carvalho+matos-11958157","doctor": {"address":{"1":{"address":{"lat":-23.5916906,"lng":-46.6391535,"locality":"04020-040","location":"04020-040 São Paulo, São Paulo SP","street":"Rua Coronel Lisboa, 139 (Vila Mariana)"},"insurances":"","misc":"","name":"Residencial Israelita Albert Einstein","phone":"(11) 2151-1233","working_hours":""}},"education":{},"experience":"","name":"Ana Cristina Carvalho Matos","picture":"http://photos.doctoralia.com/635615241361341328_2.jpg","registration_number":"","salutation":"","services":"","speciality":"Nefrologista","subspecialities":""}},{"url":"http://www.doctoralia.com.br/medico/pedro+jabur-11987264","doctor": {"address":{"1":{"address":{"lat":-23.5427318,"lng":-46.6489045,"locality":"01221-020","location":"01221-020 São Paulo, São Paulo SP","street":"R. Dr. Cesario Motta Jr, 112 (Vila Buarque)"},"insurances":"","misc":"","name":"Santa Casa de São Paulo Hospital Central","phone":"(11) 2176-7000","working_hours":""}},"education":{},"experience":"","name":"Pedro Jabur","picture":"http://photos.doctoralia.com/635615241361341328_2.jpg","registration_number":"","salutation":"","services":"","speciality":"Nefrologista","subspecialities":""}},{"url":"http://www.doctoralia.com.br/medico/yvoty+alves+dos+santos+sens-11987266","doctor": {"address":{"1":{"address":{"lat":-23.5427318,"lng":-46.6489045,"locality":"01221-020","location":"01221-020 São Paulo, São Paulo SP","street":"R. Dr. Cesario Motta Jr, 112 (Vila Buarque)"},"insurances":"","misc":"","name":"Santa Casa de São Paulo Hospital Central","phone":"(11) 2176-7000","working_hours":""}},"education":{},"experience":"","name":"Yvoty Alves dos Santos Sens","picture":"http://photos.doctoralia.com/635615241361341328_2.jpg","registration_number":"","salutation":"","services":"","speciality":"Nefrologista","subspecialities":""}},{"url":"http://www.doctoralia.com.br/medico/marcia+regina+de+souza+amoroso+quedinho-11987273","doctor": {"address":{"1":{"address":{"lat":-23.5427318,"lng":-46.6489045,"locality":"01221-020","location":"01221-020 São Paulo, São Paulo SP","street":"R. Dr. Cesario Motta Jr, 112 (Vila Buarque)"},"insurances":"","misc":"","name":"Santa Casa de São Paulo Hospital Central","phone":"(11) 2176-7000","working_hours":""}},"education":{},"experience":"","name":"Marcia Regina de Souza Amoroso Quedinho","picture":"http://photos.doctoralia.com/635615241361341328_2.jpg","registration_number":"","salutation":"","services":"","speciality":"Nefrologista","subspecialities":""}},{"url":"http://www.doctoralia.com.br/medico/jose+ferraz+de+souza-11987275","doctor": {"address":{"1":{"address":{"lat":-23.5427318,"lng":-46.6489045,"locality":"01221-020","location":"01221-020 São Paulo, São Paulo SP","street":"R. Dr. Cesario Motta Jr, 112 (Vila Buarque)"},"insurances":"","misc":"","name":"Santa Casa de São Paulo Hospital Central","phone":"(11) 2176-7000","working_hours":""}},"education":{},"experience":"","name":"Jose Ferraz de Souza","picture":"http://photos.doctoralia.com/635615241361341328_2.jpg","registration_number":"","salutation":"","services":"","speciality":"Nefrologista","subspecialities":""}},{"url":"http://www.doctoralia.com.br/medico/fabiana+rodrigues+hernandes-12018657","doctor": {"address":{"1":{"address":{"lat":-23.6572847,"lng":-46.6537446,"locality":"04378-500","location":"04378-500 São Paulo, São Paulo SP","street":"Av. Santa Catarina, 2785 (Jabaquara)"},"insurances":"","misc":"","name":"Hospital e Maternidade Santa Marina","phone":"(11) 5013-1100","working_hours":""}},"education":{},"experience":"","name":"Fabiana Rodrigues Hernandes","picture":"http://photos.doctoralia.com/635615241361341328_2.jpg","registration_number":"","salutation":"","services":"","speciality":"Nefrologista","subspecialities":""}},{"url":"http://www.doctoralia.com.br/medico/vinicius+alves+thomaz+fernandes-12091284","doctor": {"address":{"1":{"address":{"lat":-23.530642,"lng":-46.5994896,"locality":"03021-040","location":"03021-040 São Paulo, São Paulo SP","street":"R. Jequitinhonha, 360\n (Belém)"},"insurances":"","misc":"","name":"PAM Maria Zélia","phone":"(11) 6291-3833, (11) 6291-3025","working_hours":""}},"education":{},"experience":"","name":"Vinicius Alves Thomaz Fernandes","picture":"http://photos.doctoralia.com/635615241361341328_2.jpg","registration_number":"","salutation":"","services":"","speciality":"Nefrologista","subspecialities":""}},{"url":"http://www.doctoralia.com.br/medico/jose+antonio+de+lima-11898207","doctor": {"address":{"1":{"address":{"lat":-23.5270935,"lng":-46.7015578,"locality":"05051-020","location":"05051-020 São Paulo, São Paulo SP","street":"R Manoel Jacinto,, 206 (Vl Sonia)"},"insurances":"","misc":"","name":"Medserv Unidade de Dialise","phone":"(11) 3502-4001","working_hours":""}},"education":{},"experience":"","name":"Jose Antonio de Lima","picture":"http://photos.doctoralia.com/635615241361341328_2.jpg","registration_number":"","salutation":"","services":"","speciality":"Nefrologista","subspecialities":""}},{"url":"http://www.doctoralia.com.br/medico/luna+santana+matos-11864641","doctor": {"address":{"1":{"address":{"lat":-23.6364928,"lng":-46.7362654,"locality":"05718-300","location":"05718-300 São Paulo, São Paulo SP","street":"Rua Clarindo, 59 (Vila Andrade)"},"insurances":"","misc":"","name":"Senesp","phone":"(11) 3771-2203","working_hours":""},"2":{"address":{"lat":-23.4928867,"lng":-46.6182091,"locality":"02039-090","location":"02039-090 São Paulo, São Paulo SP","street":"Rua Carlos de Camargo Aranha, 10 (Jardim Sao Paulo)"},"insurances":"","misc":"","name":"Nefros","phone":"(11) 2283-6320","working_hours":""}},"education":{},"experience":"","name":"Luna Santana Matos","picture":"http://photos.doctoralia.com/635615241361341328_2.jpg","registration_number":"","salutation":"","services":"","speciality":"Nefrologista","subspecialities":""}},{"url":"http://www.doctoralia.com.br/medico/edmilson+rocha+de+lima+filho-11864642","doctor": {"address":{"1":{"address":{"lat":-23.6364928,"lng":-46.7362654,"locality":"05718-300","location":"05718-300 São Paulo, São Paulo SP","street":"Rua Clarindo, 59 (Vila Andrade)"},"insurances":"","misc":"","name":"Senesp","phone":"(11) 3771-2203","working_hours":""}},"education":{},"experience":"","name":"Edmilson Rocha de Lima Filho","picture":"http://photos.doctoralia.com/635615241361341328_2.jpg","registration_number":"","salutation":"","services":"","speciality":"Nefrologista","subspecialities":""}},{"url":"http://www.doctoralia.com.br/medico/mauro+sergio+martins+marrocos-11864639","doctor": {"address":{"1":{"address":{"lat":-23.6364928,"lng":-46.7362654,"locality":"05718-300","location":"05718-300 São Paulo, São Paulo SP","street":"Rua Clarindo, 59 (Vila Andrade)"},"insurances":"","misc":"","name":"Senesp","phone":"(11) 3771-2203","working_hours":""}},"education":{},"experience":"","name":"Mauro Sergio Martins Marrocos","picture":"http://photos.doctoralia.com/635615241361341328_2.jpg","registration_number":"","salutation":"","services":"","speciality":"Nefrologista","subspecialities":""}},{"url":"http://www.doctoralia.com.br/medico/orlando+damasceno+brandao-11864643","doctor": {"address":{"1":{"address":{"lat":-23.6364928,"lng":-46.7362654,"locality":"05718-300","location":"05718-300 São Paulo, São Paulo SP","street":"Rua Clarindo, 59 (Vila Andrade)"},"insurances":"","misc":"","name":"Senesp","phone":"(11) 3771-2203","working_hours":""}},"education":{},"experience":"","name":"Orlando Damasceno Brandao","picture":"http://photos.doctoralia.com/635615241361341328_2.jpg","registration_number":"","salutation":"","services":"","speciality":"Nefrologista","subspecialities":""}},{"url":"http://www.doctoralia.com.br/medico/francisco+carlos+folgueira+de+castro-11869988","doctor": {"address":{"1":{"address":{"lat":-23.5300867,"lng":-46.6786092,"locality":"05024-030","location":"05024-030 São Paulo, São Paulo SP","street":"Rua Venancio Aires, 52 (Perdizes)"},"insurances":"","misc":"","name":"Nephron","phone":"(11) 3676-0346, (11) 3676-1046, (11) 3676-1046","working_hours":""}},"education":{},"experience":"","name":"Francisco Carlos Folgueira de Castro","picture":"http://photos.doctoralia.com/635615241361341328_2.jpg","registration_number":"","salutation":"","services":"","speciality":"Nefrologista","subspecialities":""}},{"url":"http://www.doctoralia.com.br/medico/manoel+do+vale+souza+junior-11869990","doctor": {"address":{"1":{"address":{"lat":-23.5300867,"lng":-46.6786092,"locality":"05024-030","location":"05024-030 São Paulo, São Paulo SP","street":"Rua Venancio Aires, 52 (Perdizes)"},"insurances":"","misc":"","name":"Nephron","phone":"(11) 3676-0346, (11) 3676-1046, (11) 3676-1046","working_hours":""}},"education":{},"experience":"","name":"Manoel do Vale Souza Junior","picture":"http://photos.doctoralia.com/635615241361341328_2.jpg","registration_number":"","salutation":"","services":"","speciality":"Nefrologista","subspecialities":""}},{"url":"http://www.doctoralia.com.br/medico/rafael+cruzeiro+teixeira+de+siqueira-11869993","doctor": {"address":{"1":{"address":{"lat":-23.5300867,"lng":-46.6786092,"locality":"05024-030","location":"05024-030 São Paulo, São Paulo SP","street":"Rua Venancio Aires, 52 (Perdizes)"},"insurances":"","misc":"","name":"Nephron","phone":"(11) 3676-0346, (11) 3676-1046, (11) 3676-1046","working_hours":""}},"education":{},"experience":"","name":"Rafael Cruzeiro Teixeira de Siqueira","picture":"http://photos.doctoralia.com/635615241361341328_2.jpg","registration_number":"","salutation":"","services":"","speciality":"Nefrologista","subspecialities":""}},{"url":"http://www.doctoralia.com.br/medico/raquel+cruzeiro+siqueira-11869995","doctor": {"address":{"1":{"address":{"lat":-23.5300867,"lng":-46.6786092,"locality":"05024-030","location":"05024-030 São Paulo, São Paulo SP","street":"Rua Venancio Aires, 52 (Perdizes)"},"insurances":"","misc":"","name":"Nephron","phone":"(11) 3676-0346, (11) 3676-1046, (11) 3676-1046","working_hours":""},"2":{"address":{"lat":-23.5809294,"lng":-46.59018,"locality":"03127-001","location":"03127-001 São Paulo, São Paulo SP","street":"Rua Chamanta, 1351 (Prq da Mooca)"},"insurances":"","misc":"","name":"Sedit Unidade de Dialise","phone":"(11) 6168-7822","working_hours":""}},"education":{},"experience":"","name":"Raquel Cruzeiro Siqueira","picture":"http://photos.doctoralia.com/635615241361341328_2.jpg","registration_number":"","salutation":"","services":"","speciality":"Nefrologista","subspecialities":""}},{"url":"http://www.doctoralia.com.br/medico/jalil+domingos-11870354","doctor": {"address":{"1":{"address":{"lat":-23.5388977,"lng":-46.5893186,"locality":"03058-060","location":"03058-060 São Paulo, São Paulo SP","street":"Avenida álvaro Ramos, 59"},"insurances":"","misc":"","name":"Nefroclin Servicos Medicos","phone":"(11) 2698-0181, (11) 6694-2637, (11) 6694-2637","working_hours":""}},"education":{},"experience":"","name":"Jalil Domingos","picture":"http://photos.doctoralia.com/635615241361341328_2.jpg","registration_number":"","salutation":"","services":"","speciality":"Nefrologista","subspecialities":""}},{"url":"http://www.doctoralia.com.br/medico/jose+jacinto+de+araujo-11870356","doctor": {"address":{"1":{"address":{"lat":-23.5388977,"lng":-46.5893186,"locality":"03058-060","location":"03058-060 São Paulo, São Paulo SP","street":"Avenida álvaro Ramos, 59"},"insurances":"","misc":"","name":"Nefroclin Servicos Medicos","phone":"(11) 2698-0181, (11) 6694-2637, (11) 6694-2637","working_hours":""}},"education":{},"experience":"","name":"Jose Jacinto de Araujo","picture":"http://photos.doctoralia.com/635615241361341328_2.jpg","registration_number":"","salutation":"","services":"","speciality":"Nefrologista","subspecialities":""}},{"url":"http://www.doctoralia.com.br/medico/lilia+leister+de+almeida+barros-11878549","doctor": {"address":{"1":{"address":{"lat":-23.5394467,"lng":-46.6614498,"locality":"01232-010","location":"01232-010 São Paulo, São Paulo SP","street":"Rua Conselheiro Brotero, 1486 (Santa Cecilia)"},"insurances":"","misc":"","name":"Samarim","phone":"(11) 3821-5371, (11) 3821-5749, (11) 3821-5749","working_hours":""}},"education":{},"experience":"","name":"Lilia Leister de Almeida Barros","picture":"http://photos.doctoralia.com/635615241361341328_2.jpg","registration_number":"","salutation":"","services":"","speciality":"Nefrologista","subspecialities":""}},{"url":"http://www.doctoralia.com.br/medico/renata+martins+guedes+rodrigues-11878551","doctor": {"address":{"1":{"address":{"lat":-23.5394467,"lng":-46.6614498,"locality":"01232-010","location":"01232-010 São Paulo, São Paulo SP","street":"Rua Conselheiro Brotero, 1486 (Santa Cecilia)"},"insurances":"","misc":"","name":"Samarim","phone":"(11) 3821-5371, (11) 3821-5749, (11) 3821-5749","working_hours":""}},"education":{},"experience":"","name":"Renata Martins Guedes Rodrigues","picture":"http://photos.doctoralia.com/635615241361341328_2.jpg","registration_number":"","salutation":"","services":"","speciality":"Nefrologista","subspecialities":""}},{"url":"http://www.doctoralia.com.br/medico/cristiane+bittencourt+dias-11878553","doctor": {"address":{"1":{"address":{"lat":-23.5394467,"lng":-46.6614498,"locality":"01232-010","location":"01232-010 São Paulo, São Paulo SP","street":"Rua Conselheiro Brotero, 1486 (Santa Cecilia)"},"insurances":"","misc":"","name":"Samarim","phone":"(11) 3821-5371, (11) 3821-5749, (11) 3821-5749","working_hours":""}},"education":{},"experience":"","name":"Cristiane Bittencourt Dias","picture":"http://photos.doctoralia.com/635615241361341328_2.jpg","registration_number":"","salutation":"","services":"","speciality":"Nefrologista","subspecialities":""}},{"url":"http://www.doctoralia.com.br/medico/luciana+maria+martins+menegazzo-11878566","doctor": {"address":{"1":{"address":{"lat":-23.5594185,"lng":-46.6558403,"locality":"01409-901","location":"01409-901 São Paulo, São Paulo SP","street":"Rua Peixoto Gomide, 625 / 10 Andar (Jdpaulista)"},"insurances":"","misc":"","name":"Oxigenio Hiperbarico","phone":"(11) 3147-9760, (11) 3263-0611, (11) 3263-0611","working_hours":""}},"education":{},"experience":"","name":"Luciana Maria Martins Menegazzo","picture":"http://photos.doctoralia.com/635615241361341328_2.jpg","registration_number":"","salutation":"","services":"","speciality":"Nefrologista","subspecialities":""}},{"url":"http://www.doctoralia.com.br/medico/carlos+antonio+do+nascimento-11898074","doctor": {"address":{"1":{"address":{"lat":-23.5809294,"lng":-46.59018,"locality":"03127-001","location":"03127-001 São Paulo, São Paulo SP","street":"Rua Chamanta, 1351 (Prq da Mooca)"},"insurances":"","misc":"","name":"Sedit Unidade de Dialise","phone":"(11) 6168-7822","working_hours":""}},"education":{},"experience":"","name":"Carlos Antonio do Nascimento","picture":"http://photos.doctoralia.com/635615241361341328_2.jpg","registration_number":"","salutation":"","services":"","speciality":"Nefrologista","subspecialities":""}},{"url":"http://www.doctoralia.com.br/medico/onesimo+domingos+ferreira+filho-11898076","doctor": {"address":{"1":{"address":{"lat":-23.5809294,"lng":-46.59018,"locality":"03127-001","location":"03127-001 São Paulo, São Paulo SP","street":"Rua Chamanta, 1351 (Prq da Mooca)"},"insurances":"","misc":"","name":"Sedit Unidade de Dialise","phone":"(11) 6168-7822","working_hours":""}},"education":{},"experience":"","name":"Onesimo Domingos Ferreira Filho","picture":"http://photos.doctoralia.com/635615241361341328_2.jpg","registration_number":"","salutation":"","services":"","speciality":"Nefrologista","subspecialities":""}},{"url":"http://www.doctoralia.com.br/medico/mario+felipe+nobrega+soares-11898078","doctor": {"address":{"1":{"address":{"lat":-23.5809294,"lng":-46.59018,"locality":"03127-001","location":"03127-001 São Paulo, São Paulo SP","street":"Rua Chamanta, 1351 (Prq da Mooca)"},"insurances":"","misc":"","name":"Sedit Unidade de Dialise","phone":"(11) 6168-7822","working_hours":""}},"education":{},"experience":"","name":"Mario Felipe Nobrega Soares","picture":"http://photos.doctoralia.com/635615241361341328_2.jpg","registration_number":"","salutation":"","services":"","speciality":"Nefrologista","subspecialities":""}},{"url":"http://www.doctoralia.com.br/medico/alexandre+prutchansky-11898159","doctor": {"address":{"1":{"address":{"lat":-23.4928867,"lng":-46.6182091,"locality":"02039-090","location":"02039-090 São Paulo, São Paulo SP","street":"Rua Carlos de Camargo Aranha, 10 (Jardim Sao Paulo)"},"insurances":"","misc":"","name":"Nefros","phone":"(11) 2283-6320","working_hours":""}},"education":{},"experience":"","name":"Alexandre Prutchansky","picture":"http://photos.doctoralia.com/635615241361341328_2.jpg","registration_number":"","salutation":"","services":"","speciality":"Nefrologista","subspecialities":""}},{"url":"http://www.doctoralia.com.br/medico/eleuzemina+martins+de+abreu+canhete-11898160","doctor": {"address":{"1":{"address":{"lat":-23.4928867,"lng":-46.6182091,"locality":"02039-090","location":"02039-090 São Paulo, São Paulo SP","street":"Rua Carlos de Camargo Aranha, 10 (Jardim Sao Paulo)"},"insurances":"","misc":"","name":"Nefros","phone":"(11) 2283-6320","working_hours":""}},"education":{},"experience":"","name":"Eleuzemina Martins de Abreu Canhete","picture":"http://photos.doctoralia.com/635615241361341328_2.jpg","registration_number":"","salutation":"","services":"","speciality":"Nefrologista","subspecialities":""}},{"url":"http://www.doctoralia.com.br/medico/daniella+guimaraes+batista-11898211","doctor": {"address":{"1":{"address":{"lat":-23.5270935,"lng":-46.7015578,"locality":"05051-020","location":"05051-020 São Paulo, São Paulo SP","street":"R Manoel Jacinto,, 206 (Vl Sonia)"},"insurances":"","misc":"","name":"Medserv Unidade de Dialise","phone":"(11) 3502-4001","working_hours":""}},"education":{},"experience":"","name":"Daniella Guimaraes Batista","picture":"http://photos.doctoralia.com/635615241361341328_2.jpg","registration_number":"","salutation":"","services":"","speciality":"Nefrologista","subspecialities":""}},{"url":"http://www.doctoralia.com.br/medico/regina+helena+lima+caltabiano-11898212","doctor": {"address":{"1":{"address":{"lat":-23.5270935,"lng":-46.7015578,"locality":"05051-020","location":"05051-020 São Paulo, São Paulo SP","street":"R Manoel Jacinto,, 206 (Vl Sonia)"},"insurances":"","misc":"","name":"Medserv Unidade de Dialise","phone":"(11) 3502-4001","working_hours":""},"2":{"address":{"lat":-23.5427318,"lng":-46.6489045,"locality":"01221-020","location":"01221-020 São Paulo, São Paulo SP","street":"R. Dr. Cesario Motta Jr, 112 (Vila Buarque)"},"insurances":"","misc":"","name":"Santa Casa de São Paulo Hospital Central","phone":"(11) 2176-7000","working_hours":""}},"education":{},"experience":"","name":"Regina Helena Lima Caltabiano","picture":"http://photos.doctoralia.com/635615241361341328_2.jpg","registration_number":"","salutation":"","services":"","speciality":"Nefrologista","subspecialities":""}},{"url":"http://www.doctoralia.com.br/medico/renata+cristina+barsante-11871110","doctor": {"address":{"1":{"address":{"lat":-23.5839758,"lng":-46.6480548,"locality":"04012-070","location":"04012-070 São Paulo, São Paulo SP","street":"Rua Catequese - 255 (Butanta)"},"insurances":"","misc":"","name":"Nefrocor","phone":"(11) 5575-3958","working_hours":""}},"education":{},"experience":"","name":"Renata Cristina Barsante","picture":"http://photos.doctoralia.com/635615241361341328_2.jpg","registration_number":"","salutation":"","services":"","speciality":"Nefrologista","subspecialities":""}},{"url":"http://www.doctoralia.com.br/medico/renata+duarte-11898077","doctor": {"address":{"1":{"address":{"lat":-23.5809294,"lng":-46.59018,"locality":"03127-001","location":"03127-001 São Paulo, São Paulo SP","street":"Rua Chamanta, 1351 (Prq da Mooca)"},"insurances":"","misc":"","name":"Sedit Unidade de Dialise","phone":"(11) 6168-7822","working_hours":""}},"education":{},"experience":"","name":"Renata Duarte","picture":"http://photos.doctoralia.com/635615241361341328_2.jpg","registration_number":"","salutation":"","services":"","speciality":"Nefrologista","subspecialities":""}},{"url":"http://www.doctoralia.com.br/medico/vulmario+mendes+silva-11898162","doctor": {"address":{"1":{"address":{"lat":-23.4928867,"lng":-46.6182091,"locality":"02039-090","location":"02039-090 São Paulo, São Paulo SP","street":"Rua Carlos de Camargo Aranha, 10 (Jardim Sao Paulo)"},"insurances":"","misc":"","name":"Nefros","phone":"(11) 2283-6320","working_hours":""}},"education":{},"experience":"","name":"Vulmario Mendes Silva","picture":"http://photos.doctoralia.com/635615241361341328_2.jpg","registration_number":"","salutation":"","services":"","speciality":"Nefrologista","subspecialities":""}}]}