{"webData": [{"url":"http://www.doctoralia.com.br/medico/facchinato+ana+paula-13839757","doctor": {"address":{"1":{"address":{"lat":-23.5497448,"lng":-46.657578,"locality":"01239-040","location":"01239-040 São Paulo, São Paulo SP","street":"Rua Mato Grosso, 306 , Cj. 512 , Higienópolis Medical Center"},"insurances":"","misc":"","name":"Clinica de Quiropraxia Ana Facchinato","phone":"11 2114-6215, 119 6377-6215","working_hours":"3a 7h-13h e 5a 15h-18h"},"2":{"address":{"lat":-23.5500328,"lng":-46.658528999999,"locality":"01239040","location":"01239040 São Paulo, São Paulo SP","street":"Rua Mato Grosso, 306 (cj 512) (Higienópolis)"},"insurances":"","misc":"","name":"Consultório","phone":"","working_hours":""},"3":{"address":{"lat":-23.5500328,"lng":-46.658528999999,"locality":"São","location":"São Paulo, São Paulo SP","street":"Rua Mato Grosso, 306 , Cj 512 , Higienópolis"},"insurances":"","misc":"","name":"Ana Facchinato Clínica de Quiropraxia","phone":"","working_hours":""}},"education":{"1":{"degree":"Bacharel em Quiropraxia","institute":"Universidade Anhembi Morumbi","year":"2004"},"2":{"degree":"Especialista em Residência Clinica Quiroprática","institute":"University of Western States (USA)","year":"2005"},"3":{"degree":"Mestre em Ciências da Saúde","institute":"Universidade Cruzeiro do Sul","year":"2010"}},"experience":"","name":"Ana Paula Facchinato","picture":"http://photos.doctoralia.com/635288376294267839_1.jpg","registration_number":"048","salutation":"Prof","services":"Cervicalgia, Complexo de subluxação vertebral, Dor Nas Costas, Hérnia de disco","speciality":"Quiropraxista","subspecialities":""}},{"url":"http://www.doctoralia.com.br/medico/regina+escossia+zan-13693059","doctor": {"address":{"1":{"address":{"lat":-23.5446559,"lng":-46.5726056,"locality":"São","location":"São Paulo, São Paulo SP","street":"Rua Coelho Lisboa, 61 , Sala 25, Tatuapé"},"insurances":"","misc":"","name":"Regina Zan Quiropraxia","phone":"11 3798-3046","working_hours":""}},"education":{"1":{"degree":"Graduação","institute":"Universidade Anhembi Morumbi - Sp"}},"experience":"","name":"Regina Escossia Zan","picture":"http://photos.doctoralia.com/634982740942335117_2.jpg","registration_number":"400","salutation":"","services":"","speciality":"Quiropraxista","subspecialities":""}},{"url":"http://www.doctoralia.com.br/medico/regiane+wiens-13693064","doctor": {"address":{"1":{"address":{"lat":-23.6158209,"lng":-46.6734432,"locality":"São","location":"São Paulo, São Paulo SP","street":"Av. Vereador José Diniz, 3720 | Conj. 803 (Continuação Da Av. Ibirapuera) | Campo Belo"},"insurances":"","misc":"","name":"Clínica de Quiropraxia Regiane Wiens","phone":"11 4106-8801","working_hours":""}},"education":{"1":{"degree":"Graduação","institute":"Universidade Anhembi Morumbi - Sp"}},"experience":"","name":"Regiane Wiens","picture":"http://photos.doctoralia.com/634982740942335117_2.jpg","registration_number":"222","salutation":"","services":"","speciality":"Quiropraxista","subspecialities":""}},{"url":"http://www.doctoralia.com.br/medico/adriana+hitomi+shiono-13693067","doctor": {"address":{"1":{"address":{"lat":-23.6213899,"lng":-46.6874548,"locality":"São","location":"São Paulo, São Paulo SP","street":"Avenida Portugal, 1644, Brooklin"},"insurances":"","misc":"","name":"Shiono Tao - Quiropraxia","phone":"","working_hours":""}},"education":{"1":{"degree":"Graduação","institute":"Universidade Anhembi Morumbi - Sp"}},"experience":"","name":"Adriana Hitomi Shiono","registration_number":"254","salutation":"","services":"","speciality":"Quiropraxista","subspecialities":""}},{"url":"http://www.doctoralia.com.br/medico/p+labate+fernandes+aline-13281008","doctor": {"address":{"1":{"address":{"lat":-23.5344423,"lng":-46.5644917,"locality":"03069050","location":"03069050 São Paulo, São Paulo SP","street":"Rua: Antonio Morais Barros, 125 (Tatuapé)"},"insurances":"","misc":"","name":"Consultório","phone":"11 2294.0464, 11 2783.3478","working_hours":""}},"education":{"1":{"degree":"Quiropraxia","institute":"Universidade Anhembi Morumbi","year":"2004"},"2":{"degree":"Residência Clínica","institute":"WSCC, EUA - Oregon","year":"2005"},"3":{"degree":"Fisiologista do Exercício","institute":"Universidade da Cidade de São Paulo","year":"2008"}},"experience":"","name":"Labate Fernandes","registration_number":"","salutation":"Aline P","services":"Doenças Da Coluna Vertebral, Enxaqueca, Escoliose, Hérnia de disco","speciality":"Quiropraxista","subspecialities":""}},{"url":"http://www.doctoralia.com.br/medico/cristina+morelli+andressa-12709993","doctor": {"address":{"1":{"address":{"lat":-23.4797098,"lng":-46.6110597,"locality":"02330003","location":"02330003 São Paulo, São Paulo SP","street":"Av Nova Cantareira, 1984 - conj 44 (Tucuruvi)"},"insurances":"","misc":"","name":"Consultório","phone":"28573930","working_hours":"9:00 as 21:00"}},"education":{},"experience":"","name":"Andressa Cristina Morelli","picture":"http://photos.doctoralia.com/635427142180220271_2.jpg","registration_number":"","salutation":"Dra","services":"","speciality":"Acupunturista, Quiropraxista","subspecialities":""}},{"url":"http://www.doctoralia.com.br/medico/sergio+chogi+manabe-13693080","doctor": {"address":{"1":{"address":{"lat":-23.5355638,"lng":-46.7170777,"locality":"São","location":"São Paulo, São Paulo SP","street":"Rua Cerro Corá, 2310 , Alto Da Lapa"},"insurances":"","misc":"","name":"Manabe - Terapias","phone":"11 3023-4252","working_hours":""}},"education":{"1":{"degree":"Graduação","institute":"Universidade Anhembi Morumbi - Sp"}},"experience":"","name":"Sergio Chogi Manabe","picture":"http://photos.doctoralia.com/634982740942335117_2.jpg","registration_number":"218","salutation":"","services":"","speciality":"Quiropraxista","subspecialities":""}},{"url":"http://www.doctoralia.com.br/medico/yotio+sato-13693215","doctor": {"address":{"1":{"address":{"lat":-23.5696476,"lng":-46.6442612,"locality":"São","location":"São Paulo, São Paulo SP","street":"Rua Cincinato Braga, 68, Cj. 31 (Prox.Hosp. Oswaldo Cruz)"},"insurances":"","misc":"","name":"Clinica de Quiropraxia Sato","phone":"5511 3284-6400, 3675-8297","working_hours":""}},"education":{"1":{"degree":"Graduação","institute":"Universidade Anhembi Morumbi - Sp"}},"experience":"","name":"Yotio Sato","picture":"http://photos.doctoralia.com/634982740942335117_2.jpg","registration_number":"688","salutation":"","services":"","speciality":"Quiropraxista","subspecialities":""}},{"url":"http://www.doctoralia.com.br/medico/priscila+nilson+appiano-13693260","doctor": {"address":{"1":{"address":{"lat":-23.5981388,"lng":-46.7200705,"locality":"São","location":"São Paulo, São Paulo SP","street":"Rua Nélson Gama De Oliveira, 311 Cj. 116 , Morumbi"},"insurances":"","misc":"","name":"Quiropraxia Morumbi","phone":"11 4305-0062","working_hours":""}},"education":{"1":{"degree":"Graduação","institute":"Universidade Anhembi Morumbi - Sp"}},"experience":"","name":"Priscila Nilson Appiano","picture":"http://photos.doctoralia.com/634982740942335117_2.jpg","registration_number":"364","salutation":"","services":"","speciality":"Quiropraxista","subspecialities":""}},{"url":"http://www.doctoralia.com.br/medico/rubens+massaki+watanabe-13693383","doctor": {"address":{"1":{"address":{"lat":-23.4989059,"lng":-46.6374731,"locality":"São","location":"São Paulo, São Paulo SP","street":"Alameda Afonso Schmidt, 170 , Santana , Zona Norte"},"insurances":"","misc":"","name":"Objetivo'S Cabelos E Estética (Espaço Em Salão Oferece Atendimento de Quiropraxia)","phone":"11 2950-5196","working_hours":""}},"education":{"1":{"degree":"Graduação","institute":"Universidade Anhembi Morumbi - Sp"}},"experience":"","name":"Rubens Massaki Watanabe","picture":"http://photos.doctoralia.com/634982740942335117_2.jpg","registration_number":"377","salutation":"","services":"","speciality":"Quiropraxista","subspecialities":""}},{"url":"http://www.doctoralia.com.br/medico/roberto+suzano+bleier+filho-13693048","doctor": {"address":{"1":{"address":{"lat":-23.5933809,"lng":-46.6868077,"locality":"São","location":"São Paulo, São Paulo SP","street":"Rua Helena 285, Conjunto 113, Vila Olímpia"},"insurances":"","misc":"","name":"Provital Quiropraxia","phone":"11 2337-8355","working_hours":""},"2":{"address":{"lat":-23.5860576,"lng":-46.8688931,"locality":"Granja","location":"Granja Viana, São Paulo SP","street":"Av. São Camilo, 980, Espaço Granjardim"},"insurances":"","misc":"","name":"Provital Quiropraxia","phone":"11 4702-6652","working_hours":""}},"education":{"1":{"degree":"Graduação","institute":"Universidade Anhembi Morumbi - Sp"}},"experience":"","name":"Roberto Suzano Bleier Filho","picture":"http://photos.doctoralia.com/634982740942335117_2.jpg","registration_number":"405","salutation":"","services":"","speciality":"Quiropraxista","subspecialities":""}},{"url":"http://www.doctoralia.com.br/medico/wagner+hiroki+nishizawa-13693052","doctor": {"address":{"1":{"address":{"lat":-23.5711056,"lng":-46.6469085,"locality":"São","location":"São Paulo, São Paulo SP","street":"Alameda Santos, 211 Conj.907 , (Próximo Do Metrô Brigadeiro)"},"insurances":"","misc":"","name":"Clínica Médica Fator Humano","phone":"11 2822-6019, 119 9565-0054","working_hours":""}},"education":{"1":{"degree":"Graduação","institute":"Universidade Anhembi Morumbi - Sp"}},"experience":"","name":"Wagner Hiroki Nishizawa","picture":"http://photos.doctoralia.com/634982740942335117_2.jpg","registration_number":"444","salutation":"","services":"","speciality":"Quiropraxista","subspecialities":""}},{"url":"http://www.doctoralia.com.br/medico/corsini+motta+fabio-12805890","doctor": {"address":{"1":{"address":{"lat":-23.5529198,"lng":-46.6381661,"locality":"01318-000","location":"01318-000 São Paulo, São Paulo SP","street":"Av. Brigadeiro Luis Antônio, 290 (Bela Vista)"},"insurances":"","misc":"Departamento: quiropraxia Posto: Quiropraxista e Acupunturista","name":"Quiropraxia Clínica – Escolha Quiropraxia e Viva Bem","phone":"011-99466-2260, (11) 99466-2260","working_hours":""},"2":{"address":{"lat":-23.5529198,"lng":-46.6381661,"locality":"01318-000","location":"01318-000 São Paulo, São Paulo SP","street":"Avenida Brigadeiro Luis Antônio, 290, São Paulo, SP."},"insurances":"","misc":"","name":"Consultório","phone":"011-99466-2260","working_hours":""},"3":{"address":{"lat":-23.5356693,"lng":-46.6606366,"locality":"01232-010","location":"01232-010 São Paulo, São Paulo SP","street":"Rua Conselheiro Brotero 1086, cj. 51 (Santa Cecília)"},"insurances":"","misc":"","name":"Dk Equilibrio - Acupuntura e Quiropraxia","phone":"011-99466-2260, 011-3666-4717","working_hours":"08:00 as 19:00"}},"education":{"1":{"degree":"Quiropraxia","institute":"Universidade Anhembi Morumbi","year":"2010"}},"experience":"Cervicoartrosis: osteoartrite da coluna cervical, Cifose, Curvaturas Da Coluna Vertebral, Doenças Da Coluna Vertebral, Dor Nas Costas, Escoliose, Hérnia de disco, Lesões Nas Costas, Mau Alinhamento Ósseo, Radiculopatia, Traumatismos Da Coluna Vertebral","name":"Fabio Corsini Motta","picture":"http://photos.doctoralia.com/634982740942335117_2.jpg","registration_number":"0486","salutation":"Dr","services":"Alongamento muscular, Tratamento Conservador De Lesao Ligamentar Aguda Do Tornozelo, Tratamento Em Reabilitacao Em Adulto","speciality":"Acupunturista, Especialista em Terapias Complementares e Alternativas, Quiropraxista","subspecialities":"Auriculopuntura, Quiropraxia","website":"http://quiropraxiaclinica.wordpress.com/"}},{"url":"http://www.doctoralia.com.br/medico/paiva+mara+celia-14577891","doctor": {"address":{"1":{"address":{"lat":-23.5233538,"lng":-46.735279299999,"locality":"05304-010","location":"05304-010 São Paulo, São Paulo SP","street":"Rua Columbus, 82A-Vila Leopoldina-Lapa (Vila Leopoldina)"},"insurances":"Pacientes privados (sem plano de saúde)","misc":"","name":"Consultório","phone":"11 36417819, 11 993720133","working_hours":"10 as 19 horas"}},"education":{"1":{"degree":"Bacharel em Quiropraxia","institute":"Universidade Anhembi Murumbi","year":"2009"}},"experience":"","name":"Mara Célia Paiva","picture":"http://photos.doctoralia.com/635372559223751584_1.jpg","registration_number":"402","salutation":"Dra","services":"Dor Nas Costas","speciality":"Acupunturista, Quiropraxista","subspecialities":""}},{"url":"http://www.doctoralia.com.br/medico/kratz+hanna-13856226","doctor": {"address":{"1":{"address":{"lat":-23.5505199,"lng":-46.633309399999,"locality":"01239040","location":"01239040 São Paulo, São Paulo SP","street":"Rua Mato Grosso, 306 - Conjunto 512\nHigienópolis Medical Center (Higienópolis)"},"insurances":"","misc":"","name":"Consultório","phone":"11 2114-6215, 11 96377-6215","working_hours":""},"2":{"address":{"lat":-23.6940055,"lng":-46.556965,"locality":"09750-480","location":"09750-480 São Bernardo do Campo, São Paulo SP","street":"Rua Atlântica, 40 (Jardim do Mar)"},"insurances":"","misc":"","name":"Consultório","phone":"11 99504-3626, 11 2114-6215","working_hours":""}},"education":{"1":{"degree":"Bacharel em Quiropraxia","institute":"Universidade Anhembi Morumbi","year":"2012"},"2":{"degree":"Especialista em Aparelho Locomotor (Ortopedia)","institute":"Instituto Israelita de Ensino e Pesquisa Albert Einstein","year":"2013"}},"experience":"","name":"Hanna Kratz","picture":"http://photos.doctoralia.com/635302495360189025_1.jpg","registration_number":"","salutation":"","services":"Cefaléia (dor de cabeça), Complexo de subluxação vertebral, Dor Nas Costas, Hérnia de disco","speciality":"Quiropraxista","subspecialities":""}},{"url":"http://www.doctoralia.com.br/medico/trindade+felipe-14796901","doctor": {"address":{"1":{"address":{"lat":-23.5790643,"lng":-46.6821097,"locality":"01454000","location":"01454000 São Paulo, São Paulo SP","street":"Avenida Cidade Jardim 114 (Jardim Europa)"},"insurances":"Pacientes privados (sem plano de saúde)","misc":"","name":"Consultório","phone":"11-23898970, 11-35344248","working_hours":"segunda a sexta das 7:00-20:00"}},"education":{"1":{"degree":"Quiropraxia","institute":"Universidade Anhembi Morumbi","year":"2011"}},"experience":"","name":"Felipe Trindade","picture":"http://photos.doctoralia.com/634982740942335117_2.jpg","registration_number":"","salutation":"","services":"Cefaléia Do Tipo Tensional, Complexo de subluxação vertebral, Curvaturas Da Coluna Vertebral, Dor","speciality":"Quiropraxista","subspecialities":""}},{"url":"http://www.doctoralia.com.br/medico/luiz+heihati+miyajima+neto-13693240","doctor": {"address":{"1":{"address":{"lat":-23.5426267,"lng":-46.6515225,"locality":"São","location":"São Paulo, São Paulo SP","street":"Rua: Martinico Prado, Número: 26, Conjunto: 24, Higienópolis"},"insurances":"","misc":"","name":"Quirovida","phone":"11 2306-6263","working_hours":""}},"education":{"1":{"degree":"Graduação","institute":"Universidade Anhembi Morumbi - Sp"}},"experience":"","name":"Luiz Heihati Miyajima Neto","picture":"http://photos.doctoralia.com/634982740942335117_2.jpg","registration_number":"402","salutation":"","services":"","speciality":"Quiropraxista","subspecialities":""}},{"url":"http://www.doctoralia.com.br/medico/daniel+dos+santos-13693267","doctor": {"address":{"1":{"address":{"lat":-23.5505199,"lng":-46.633309399999,"locality":"São","location":"São Paulo, São Paulo SP","street":"Rua. Capitão Alberto Mendes Junior, 400 , Jardim França. Zona Norte"},"insurances":"","misc":"","name":"Quiropraxia Daniel Santos","phone":"11 3805-1791, 3805-1796","working_hours":""}},"education":{"1":{"degree":"Graduação","institute":"Universidade Anhembi Morumbi - Sp"}},"experience":"","name":"Daniel Dos Santos","picture":"http://photos.doctoralia.com/634982740942335117_2.jpg","registration_number":"436","salutation":"","services":"","speciality":"Quiropraxista","subspecialities":""}},{"url":"http://www.doctoralia.com.br/medico/alcina+da+silva+pinto-13693061","doctor": {"address":{"1":{"address":{"lat":-23.5334593,"lng":-46.6594152,"locality":"São","location":"São Paulo, São Paulo SP","street":"Rua Conselheiro Brotero, Conj.01 Higienópolis (Próximo Ao Metrô Marechal Deodoro)"},"insurances":"","misc":"","name":"Quirus - Consultório de Quiropraxia","phone":"11 3825-7749","working_hours":""}},"education":{"1":{"degree":"Graduação","institute":"Universidade Anhembi Morumbi - Sp"}},"experience":"","name":"Alcina Da Silva Pinto","picture":"http://photos.doctoralia.com/634982740942335117_2.jpg","registration_number":"532","salutation":"","services":"","speciality":"Quiropraxista","subspecialities":""}},{"url":"http://www.doctoralia.com.br/medico/joubert+campelo+da+silva-13693251","doctor": {"address":{"1":{"address":{"lat":-23.5933809,"lng":-46.6868077,"locality":"São","location":"São Paulo, São Paulo SP","street":"Rua Helena 285 Conj. 113 , Vila Olimpia"},"insurances":"","misc":"","name":"Provital","phone":"11 2337-8355, 8388-3683","working_hours":""}},"education":{"1":{"degree":"Graduação","institute":"Universidade Anhembi Morumbi - Sp"}},"experience":"","name":"Joubert Campelo Da Silva","picture":"http://photos.doctoralia.com/634982740942335117_2.jpg","registration_number":"43","salutation":"","services":"","speciality":"Quiropraxista","subspecialities":""}},{"url":"http://www.doctoralia.com.br/medico/thomas+hiroyuki+miyasawa+oku-13693070","doctor": {"address":{"1":{"address":{"lat":-23.5406338,"lng":-46.6320967,"locality":"São","location":"São Paulo, São Paulo SP","street":"Praça Carlos Gomes, 67 ,13º Andar Cj. Jlm , Centro (100M Do Metro Liberdade)"},"insurances":"","misc":"","name":"Consultório de Quiropraxia","phone":"3105-4506","working_hours":""}},"education":{"1":{"degree":"Graduação","institute":"Universidade Anhembi Morumbi - Sp"}},"experience":"","name":"Thomas Hiroyuki Miyasawa Oku","picture":"http://photos.doctoralia.com/634982740942335117_2.jpg","registration_number":"571","salutation":"","services":"","speciality":"Quiropraxista","subspecialities":""}},{"url":"http://www.doctoralia.com.br/medico/joao+francisco+seixas-13693077","doctor": {"address":{"1":{"address":{"lat":-23.5458016,"lng":-46.666305,"locality":"São","location":"São Paulo, São Paulo SP","street":"R. Des. Paulo Passalaqua, 72 , Pacaembú"},"insurances":"","misc":"","name":"Clínica Malinosk Vicaria - Ajustesuacoluna","phone":"11 2283-3907","working_hours":""},"2":{"address":{"lat":-29.6993859,"lng":-51.1290193,"locality":"Novo","location":"Novo Hamburgo, Rio Grande do Sul RS","street":"R. Itararé N. 26, B. Pátria Nova"},"insurances":"","misc":"","name":"Clínica - Ajustesuacoluna - Quiropraxia","phone":"51 3582-4958","working_hours":""}},"education":{"1":{"degree":"Graduação","institute":"Universidade Feevale - Rs"}},"experience":"","name":"João Francisco Seixas","picture":"http://photos.doctoralia.com/634982740942335117_2.jpg","registration_number":"406","salutation":"","services":"","speciality":"Quiropraxista","subspecialities":""}},{"url":"http://www.doctoralia.com.br/medico/aline+souza-13693083","doctor": {"address":{"1":{"address":{"lat":-23.652887,"lng":-46.5363256,"locality":"Santo","location":"Santo André, São Paulo SP","street":"R. Pe. Manoel De Paiva, 181 , Bairro Jardim"},"insurances":"","misc":"","name":"Consultório","phone":"11 4436-2802, 11 4436-9844","working_hours":""},"2":{"address":{"lat":-23.6509897,"lng":-46.6974409,"locality":"São","location":"São Paulo, São Paulo SP","street":"R. Conde De Itu, 964 , Alto Da Boa Vista   Santo Amaro"},"insurances":"","misc":"","name":"Espaço Kaizen","phone":"11 5523-0640, 11 5521-7593","working_hours":""}},"education":{"1":{"degree":"Graduação","institute":"Universidade Anhembi Morumbi - Sp"}},"experience":"","name":"Aline Souza","picture":"http://photos.doctoralia.com/634982740942335117_2.jpg","registration_number":"95","salutation":"","services":"","speciality":"Quiropraxista","subspecialities":""}},{"url":"http://www.doctoralia.com.br/medico/guilherme+petri+leoni-13693259","doctor": {"address":{"1":{"address":{"lat":-23.5682629,"lng":-46.6482283,"locality":"São","location":"São Paulo, São Paulo SP","street":"Alameda Santos, 211 Sala 1401 , A 100 Metros Do Metro Brigadeiro"},"insurances":"","misc":"","name":"Drquiro Quiropraxia","phone":"11 4112-0302","working_hours":""}},"education":{"1":{"degree":"Graduação","institute":"Universidade Anhembi Morumbi - Sp"}},"experience":"","name":"Guilherme Petri Leoni","picture":"http://photos.doctoralia.com/634982740942335117_2.jpg","registration_number":"129","salutation":"","services":"","speciality":"Quiropraxista","subspecialities":""}},{"url":"http://www.doctoralia.com.br/medico/nagaya+mitsuyoshi-13693262","doctor": {"address":{"1":{"address":{"lat":-23.6082668,"lng":-46.6558655,"locality":"São","location":"São Paulo, São Paulo SP","street":"Av. Divino Salvador,706 Moema"},"insurances":"","misc":"","name":"São Paulo Chiropractic Center","phone":"11 5051-7734","working_hours":""}},"education":{"1":{"degree":"Graduação","institute":"Shiokawa School Of Chiropractic – Japão"}},"experience":"","name":"Nagaya, Mitsuyoshi","picture":"http://photos.doctoralia.com/634982740942335117_2.jpg","registration_number":"544","salutation":"","services":"","speciality":"Quiropraxista","subspecialities":""}},{"url":"http://www.doctoralia.com.br/medico/christopher+ananiadis-13693290","doctor": {"address":{"1":{"address":{"lat":-23.5946709,"lng":-46.685002999999,"locality":"São","location":"São Paulo, São Paulo SP","street":"Rua Fidêncio Ramos 195, Cj 66 Vila Olimpia"},"insurances":"","misc":"","name":"Quirocenter","phone":"3045-7514, 7750-7745","working_hours":""}},"education":{"1":{"degree":"Graduação","institute":"Technikon Natal – Africa Do Sul"}},"experience":"","name":"Christopher Ananiadis","picture":"http://photos.doctoralia.com/634982740942335117_2.jpg","registration_number":"8","salutation":"","services":"","speciality":"Quiropraxista","subspecialities":""}},{"url":"http://www.doctoralia.com.br/medico/evora+de+souza-13693388","doctor": {"address":{"1":{"address":{"lat":-23.6006647,"lng":-46.6364714,"locality":"São","location":"São Paulo, São Paulo SP","street":"Rua Domingos De Morais,2777 , Cj 24 , (150M Do Metro Santa Cruz) , Vila Mariana"},"insurances":"","misc":"","name":"São Paulo","phone":"5585-9053","working_hours":""}},"education":{"1":{"degree":"Graduação","institute":"Universidade Anhembi Morumbi - Sp"}},"experience":"","name":"Évora De Souza","picture":"http://photos.doctoralia.com/634982740942335117_2.jpg","registration_number":"532","salutation":"","services":"","speciality":"Quiropraxista","subspecialities":""}},{"url":"http://www.doctoralia.com.br/medico/freitas+iuri-12762505","doctor": {"address":{"1":{"address":{"lat":-23.4978267,"lng":-46.8488804,"locality":"06454000","location":"06454000 Barueri, São Paulo SP","street":"Alameda Rio Negro 911, Sala 203 (Alphaville)"},"insurances":"","misc":"","name":"Consultório","phone":"41912211, 41957717","working_hours":""},"2":{"address":{"lat":-23.5858304,"lng":-46.6752017,"locality":"04532012","location":"04532012 São Paulo, São Paulo SP","street":"Rua Bandeira Paulista 727, Cj. 16/17 (Itaim Bibi)"},"insurances":"","misc":"","name":"Consultório","phone":"30713041, 41912211","working_hours":""}},"education":{},"experience":"","name":"Iuri Freitas","picture":"http://photos.doctoralia.com/634982740942335117_2.jpg","registration_number":"28836","salutation":"Dr","services":"","speciality":"Quiropraxista","subspecialities":""}},{"url":"http://www.doctoralia.com.br/medico/emilio+alves+ferreira-13693012","doctor": {"address":{"1":{"address":{"lat":-23.513202,"lng":-46.5364813,"locality":"São","location":"São Paulo, São Paulo SP","street":"Rua Coronel Meireles, 1148, Penha"},"insurances":"","misc":"","name":"Clinica Zahav","phone":"2642-1180","working_hours":""}},"education":{"1":{"degree":"Graduação","institute":"Universidade Anhembi Morumbi - Sp"}},"experience":"","name":"Emilio Alves Ferreira","picture":"http://photos.doctoralia.com/634982740942335117_2.jpg","registration_number":"516","salutation":"","services":"","speciality":"Quiropraxista","subspecialities":""}},{"url":"http://www.doctoralia.com.br/medico/pamela+ayala+guimaraes-13693013","doctor": {"address":{"1":{"address":{"lat":-23.5406338,"lng":-46.6320967,"locality":"São","location":"São Paulo, São Paulo SP","street":"Praça Carlos Gomes, 67 ,13º Andar Cj. Jlm , Centro (100M Do Metro Liberdade)"},"insurances":"","misc":"","name":"Consultório de Quiropraxia","phone":"3105-4506","working_hours":""}},"education":{"1":{"degree":"Graduação","institute":"Universidade Anhembi Morumbi - Sp"}},"experience":"","name":"Pamela Ayala Guimarães","picture":"http://photos.doctoralia.com/634982740942335117_2.jpg","registration_number":"492","salutation":"","services":"","speciality":"Quiropraxista","subspecialities":""}},{"url":"http://www.doctoralia.com.br/medico/fernanda+matioli-13693015","doctor": {"address":{"1":{"address":{"lat":-23.558803,"lng":-46.6595461,"locality":"São","location":"São Paulo, São Paulo SP","street":"Av. Paulista, 2073 Horsa I 6Andar Sl 622"},"insurances":"","misc":"","name":"Quiropraxia Jason Gilbert","phone":"3266-7103","working_hours":""},"2":{"address":{"lat":-23.6324718,"lng":-46.7100475,"locality":"São","location":"São Paulo, São Paulo SP","street":"Rua Paul Válery, 134 , Chácara Sto Antônio"},"insurances":"","misc":"","name":"Matioli Quiropraxia - Zona Sul de São Paulo","phone":"5181-5306","working_hours":""}},"education":{"1":{"degree":"Graduação","institute":"Universidade Anhembi Morumbi - Sp"}},"experience":"","name":"Fernanda Matioli","picture":"http://photos.doctoralia.com/634982740942335117_2.jpg","registration_number":"414","salutation":"","services":"","speciality":"Quiropraxista","subspecialities":""}},{"url":"http://www.doctoralia.com.br/medico/eliana+soares+pereira-13693019","doctor": {"address":{"1":{"address":{"lat":-23.5505199,"lng":-46.633309399999,"locality":"São","location":"São Paulo, São Paulo SP","street":""},"insurances":"","misc":"","name":"Particular","phone":"8146-4879","working_hours":""}},"education":{"1":{"degree":"Graduação","institute":"Universidade Anhembi Morumbi - Sp"}},"experience":"","name":"Eliana Soares Pereira","picture":"http://photos.doctoralia.com/634982740942335117_2.jpg","registration_number":"136","salutation":"","services":"","speciality":"Quiropraxista","subspecialities":""}},{"url":"http://www.doctoralia.com.br/medico/camila+de+carvalho+benedicto-13693035","doctor": {"address":{"1":{"address":{"lat":-23.5458016,"lng":-46.666305,"locality":"São","location":"São Paulo, São Paulo SP","street":"R. Des. Paulo Passalaqua, 72 , Pacaembú"},"insurances":"","misc":"","name":"Clínica Malinosk Vicária","phone":"11 2283-3907","working_hours":""}},"education":{"1":{"degree":"Graduação","institute":"Universidade Anhembi Morumbi - Sp"}},"experience":"","name":"Camila De Carvalho Benedicto","picture":"http://photos.doctoralia.com/634982740942335117_2.jpg","registration_number":"569","salutation":"","services":"","speciality":"Quiropraxista","subspecialities":""}},{"url":"http://www.doctoralia.com.br/medico/pablo+blass+valverde-13693036","doctor": {"address":{"1":{"address":{"lat":-23.5669764,"lng":-46.5947728,"locality":"São","location":"São Paulo, São Paulo SP","street":"Rua Guaimbé, 713 , Bairro: Mooca"},"insurances":"","misc":"","name":"Centro Médico Biosapere","phone":"11 2604-2445","working_hours":""}},"education":{"1":{"degree":"Graduação","institute":"Universidade Anhembi Morumbi - Sp"}},"experience":"","name":"Pablo Blass Valverde","picture":"http://photos.doctoralia.com/634982740942335117_2.jpg","registration_number":"687","salutation":"","services":"","speciality":"Quiropraxista","subspecialities":""}},{"url":"http://www.doctoralia.com.br/medico/gabrielle+vieira+thiesen-13693039","doctor": {"address":{"1":{"address":{"lat":-23.6324718,"lng":-46.7100475,"locality":"São","location":"São Paulo, São Paulo SP","street":"Paul Válery ,134 Bairro: Chácara Santo Antônio"},"insurances":"","misc":"","name":"Quiropraxia Jason Gilbert By Fernanda Matioli","phone":"11 5181-5306","working_hours":""}},"education":{"1":{"degree":"Graduação","institute":"Universidade Feevale - Rs"}},"experience":"","name":"Gabrielle Vieira Thiesen","picture":"http://photos.doctoralia.com/634982740942335117_2.jpg","registration_number":"81","salutation":"","services":"","speciality":"Quiropraxista","subspecialities":""}},{"url":"http://www.doctoralia.com.br/medico/ketlin+mattiello-13693043","doctor": {"address":{"1":{"address":{"lat":-23.5477932,"lng":-46.5738146,"locality":"São","location":"São Paulo, São Paulo SP","street":"Rua Tuiuti, 2530 , 7O Andar , Sala 74, Bairro Tatuapé"},"insurances":"","misc":"","name":"Quiropraxia Jason Gilbert - Unidade Tatuapé","phone":"11 2092-8668","working_hours":""},"2":{"address":{"lat":-23.5897469,"lng":-46.6732594,"locality":"São","location":"São Paulo, São Paulo SP","street":"Rua João Clímaco Pereira, 60, Vila Olímpia"},"insurances":"","misc":"","name":"Quiropraxia Jason Gilbert - Unidade Vila Olímpia","phone":"11 3845-4115","working_hours":""}},"education":{"1":{"degree":"Graduação","institute":"Universidade Feevale - Rs"}},"experience":"","name":"Ketlin Mattiello","picture":"http://photos.doctoralia.com/634982740942335117_2.jpg","registration_number":"72","salutation":"","services":"","speciality":"Quiropraxista","subspecialities":""}},{"url":"http://www.doctoralia.com.br/medico/juliana+seben-13693044","doctor": {"address":{"1":{"address":{"lat":-23.5734552,"lng":-46.5888008,"locality":"São","location":"São Paulo, São Paulo SP","street":"Clube Atlético Juventus. Rua Comendador Roberto Ugolini, 20 , Mooca"},"insurances":"","misc":"","name":"Clínica de Quiropraxia Coluna E Bem-Estar","phone":"11 2271-2000","working_hours":""}},"education":{"1":{"degree":"Graduação","institute":"Universidade Feevale - Rs"}},"experience":"","name":"Juliana Seben","picture":"http://photos.doctoralia.com/634982740942335117_2.jpg","registration_number":"359","salutation":"","services":"","speciality":"Quiropraxista","subspecialities":""}},{"url":"http://www.doctoralia.com.br/medico/bianca+de+souza+leme-13693045","doctor": {"address":{"1":{"address":{"lat":-23.4992306,"lng":-46.6130135,"locality":"São","location":"São Paulo, São Paulo SP","street":"Rua Azir Antônio Salton, 74 Jardim São Paulo , Zona Norte"},"insurances":"","misc":"","name":"Quiropraxia Leben","phone":"11 2283-1435, 119 8251-8102","working_hours":""}},"education":{"1":{"degree":"Graduação","institute":"Universidade Anhembi Morumbi - Sp"}},"experience":"","name":"Bianca De Souza Leme","picture":"http://photos.doctoralia.com/634982740942335117_2.jpg","registration_number":"138","salutation":"","services":"","speciality":"Quiropraxista","subspecialities":""}},{"url":"http://www.doctoralia.com.br/medico/julia+birello+miyajima-13693046","doctor": {"address":{"1":{"address":{"lat":-23.5344423,"lng":-46.5644917,"locality":"São","location":"São Paulo, São Paulo SP","street":"Rua Antonio Morais Barros, 125 , Tatuapé"},"insurances":"","misc":"","name":"Práxis Clínica","phone":"11 2294-0464","working_hours":""},"2":{"address":{"lat":-23.5426267,"lng":-46.6515225,"locality":"São","location":"São Paulo, São Paulo SP","street":"Rua Dr. Martinico Prado, N. 26 , Conj. 24 , Higienópolis"},"insurances":"","misc":"","name":"Quirovida - Centro de Quiropraxia","phone":"11 2306-6263, 11 2306-6264","working_hours":""}},"education":{"1":{"degree":"Graduação","institute":"Universidade Anhembi Morumbi - Sp"}},"experience":"","name":"Julia Birello Miyajima","picture":"http://photos.doctoralia.com/634982740942335117_2.jpg","registration_number":"701","salutation":"","services":"","speciality":"Quiropraxista","subspecialities":""}},{"url":"http://www.doctoralia.com.br/medico/nayara+durante+de+oliveira-13693051","doctor": {"address":{"1":{"address":{"lat":-23.5554745,"lng":-46.6014906,"locality":"São","location":"São Paulo, São Paulo SP","street":"Rua Da Mooca, 2434, Apto:03"},"insurances":"","misc":"","name":"Clínica de Quiropraxia","phone":"11 2476-1481","working_hours":""},"2":{"address":{"lat":-21.3731762,"lng":-46.5255454,"locality":"Muzambinho,","location":"Muzambinho, Minas Gerais MG","street":"Rua Sete De Setembro, 1383, Centro"},"insurances":"","misc":"","name":"Terapia Do Movimento","phone":"35 3571-5048","working_hours":""}},"education":{"1":{"degree":"Graduação","institute":"Universidade Anhembi Morumbi - Sp"}},"experience":"","name":"Nayara Durante De Oliveira","picture":"http://photos.doctoralia.com/634982740942335117_2.jpg","registration_number":"666","salutation":"","services":"","speciality":"Quiropraxista","subspecialities":""}},{"url":"http://www.doctoralia.com.br/medico/carlos+henrique+da+silva+diaz-13693055","doctor": {"address":{"1":{"address":{"lat":-23.558803,"lng":-46.6595461,"locality":"São","location":"São Paulo, São Paulo SP","street":"Av. Paulista, 2073 Horsa I 6Andar Sl 622"},"insurances":"","misc":"","name":"Quiropraxia Jason Gilbert","phone":"3266-7103","working_hours":""}},"education":{"1":{"degree":"Graduação","institute":"Universidade Anhembi Morumbi - Sp"}},"experience":"","name":"Carlos Henrique Da Silva Diaz","picture":"http://photos.doctoralia.com/634982740942335117_2.jpg","registration_number":"508","salutation":"","services":"","speciality":"Quiropraxista","subspecialities":""}},{"url":"http://www.doctoralia.com.br/medico/wanda+luiza+thomaz+barbosa-13693057","doctor": {"address":{"1":{"address":{"lat":-23.586381,"lng":-46.7372062,"locality":"São","location":"São Paulo, São Paulo SP","street":"Av. Min. Laudo Ferreira De Camargo N. 388 , Sala 7 , Jd. Peri Peri , Butantã"},"insurances":"","misc":"","name":"Quirocare","phone":"11 3481-0237","working_hours":""}},"education":{"1":{"degree":"Graduação","institute":"Universidade Anhembi Morumbi - Sp"}},"experience":"","name":"Wanda Luiza Thomaz Barbosa","picture":"http://photos.doctoralia.com/634982740942335117_2.jpg","registration_number":"618","salutation":"","services":"","speciality":"Quiropraxista","subspecialities":""}},{"url":"http://www.doctoralia.com.br/medico/osmar+akira+sato-13693058","doctor": {"address":{"1":{"address":{"lat":-23.5397853,"lng":-46.7702036,"locality":"Osasco,","location":"Osasco, São Paulo SP","street":"Av. Dos Autonomistas, 1768 Loja N01 02"},"insurances":"","misc":"","name":"Shiozawa - Super Shopping Osasco","phone":"11 3699-9577","working_hours":""},"2":{"address":{"lat":-23.5689369,"lng":-46.658787,"locality":"São","location":"São Paulo, São Paulo SP","street":"Rua Batataes, 602 Conj. 62"},"insurances":"","misc":"","name":"Shiozawa","phone":"11 3887-6279","working_hours":""}},"education":{"1":{"degree":"Graduação","institute":"Universidade Anhembi Morumbi - Sp"}},"experience":"","name":"Osmar Akira Sato","picture":"http://photos.doctoralia.com/634982740942335117_2.jpg","registration_number":"139","salutation":"","services":"","speciality":"Quiropraxista","subspecialities":""}},{"url":"http://www.doctoralia.com.br/medico/eduardo+sawaya+botelho+bracher-13693060","doctor": {"address":{"1":{"address":{"lat":-23.5558452,"lng":-46.7043402,"locality":"São","location":"São Paulo, São Paulo SP","street":"Avenida Pedroso De Moraes, 2330. Alto De Pinheiros"},"insurances":"","misc":"","name":"Axis Clínica de Coluna","phone":"11 3813-9686","working_hours":""}},"education":{"1":{"degree":"Graduação","institute":"Palmer College Of Chiropractic (West) - Eua"}},"experience":"","name":"Eduardo Sawaya Botelho Bracher","picture":"http://photos.doctoralia.com/634982740942335117_2.jpg","registration_number":"429","salutation":"","services":"","speciality":"Quiropraxista","subspecialities":""}},{"url":"http://www.doctoralia.com.br/medico/nathalia+aukstinaitis+foresi-13693062","doctor": {"address":{"1":{"address":{"lat":-23.5406338,"lng":-46.6320967,"locality":"São","location":"São Paulo, São Paulo SP","street":"Praça Carlos Gomes, 67 ,13º Andar Cj. Jlm , Centro (100M Do Metro Liberdade)"},"insurances":"","misc":"","name":"Consultório de Quiropraxia","phone":"3105-4506","working_hours":""}},"education":{"1":{"degree":"Graduação","institute":"Universidade Anhembi Morumbi - Sp"}},"experience":"","name":"Nathalia Aukstinaitis Foresi","picture":"http://photos.doctoralia.com/634982740942335117_2.jpg","registration_number":"605","salutation":"","services":"","speciality":"Quiropraxista","subspecialities":""}},{"url":"http://www.doctoralia.com.br/medico/paulo+henrique+sugimoto-13693239","doctor": {"address":{"1":{"address":{"lat":-23.6115432,"lng":-46.662004,"locality":"São","location":"São Paulo, São Paulo SP","street":"Alameda Dos Anapurus, 1483 , Moema"},"insurances":"","misc":"","name":"Atlas Quiropraxia","phone":"11 2157-1906","working_hours":""}},"education":{"1":{"degree":"Graduação","institute":"Universidade Anhembi Morumbi - Sp"}},"experience":"","name":"Paulo Henrique Sugimoto","picture":"http://photos.doctoralia.com/634982740942335117_2.jpg","registration_number":"446","salutation":"","services":"","speciality":"Quiropraxista","subspecialities":""}},{"url":"http://www.doctoralia.com.br/medico/fernando+azevedo+dc-13693241","doctor": {"address":{"1":{"address":{"lat":-23.5628311,"lng":-46.6462595,"locality":"São","location":"São Paulo, São Paulo SP","street":"Av. Paulista, 2073 , 6º Andar , Cj.622 , Conj.Nacional Horsa I , Bela Vista"},"insurances":"","misc":"","name":"Fernando Azevedo Dc","phone":"11 3266-7103","working_hours":""}},"education":{"1":{"degree":"Graduação","institute":"Life Chiropractic College West - Eua"}},"experience":"","name":"Fernando Azevedo Dc","picture":"http://photos.doctoralia.com/634982740942335117_2.jpg","registration_number":"588","salutation":"","services":"","speciality":"Quiropraxista","subspecialities":""}},{"url":"http://www.doctoralia.com.br/medico/lilian+lorenti+saldanha-13693242","doctor": {"address":{"1":{"address":{"lat":-23.558803,"lng":-46.6595461,"locality":"São","location":"São Paulo, São Paulo SP","street":"Av. Paulista, 2073 Horsa I 6Andar Sl 622"},"insurances":"","misc":"","name":"Quiropraxia Jason Gilbert","phone":"3266-7103","working_hours":""}},"education":{"1":{"degree":"Graduação","institute":"Universidade Anhembi Morumbi - Sp"}},"experience":"","name":"Lilian Lorenti Saldanha","picture":"http://photos.doctoralia.com/634982740942335117_2.jpg","registration_number":"293","salutation":"","services":"","speciality":"Quiropraxista","subspecialities":""}},{"url":"http://www.doctoralia.com.br/medico/joyce+kimie+yanacaki-13693063","doctor": {"address":{"1":{"address":{"lat":-23.5762475,"lng":-46.6558959,"locality":"São","location":"São Paulo, São Paulo SP","street":"Rua Manoel Da Nóbrega, 1.190 , Ibirapuera (Zona Sul)"},"insurances":"","misc":"","name":"Clínica Reabil- Consultório de Quiropraxia","phone":"11 3885-4524, 119 9845-0722","working_hours":""}},"education":{"1":{"degree":"Graduação","institute":"Universidade Anhembi Morumbi - Sp"}},"experience":"","name":"Joyce Kimie Yanaçaki","picture":"http://photos.doctoralia.com/634982740942335117_2.jpg","registration_number":"586","salutation":"","services":"","speciality":"Quiropraxista","subspecialities":""}},{"url":"http://www.doctoralia.com.br/medico/thais+bonfim+clemente-13693066","doctor": {"address":{"1":{"address":{"lat":-23.5981388,"lng":-46.7200705,"locality":"São","location":"São Paulo, São Paulo SP","street":"Rua Nélson Gama De Oliveira, 311 Cj. 116 , Morumbi"},"insurances":"","misc":"","name":"Quiropraxia Morumbi","phone":"11 4305-0062","working_hours":""}},"education":{"1":{"degree":"Graduação","institute":"Universidade Anhembi Morumbi - Sp"}},"experience":"","name":"Thaís Bonfim Clemente","picture":"http://photos.doctoralia.com/634982740942335117_2.jpg","registration_number":"288","salutation":"","services":"","speciality":"Quiropraxista","subspecialities":""}},{"url":"http://www.doctoralia.com.br/medico/amanda+diniz+tao-13693068","doctor": {"address":{"1":{"address":{"lat":-23.6213899,"lng":-46.6874548,"locality":"São","location":"São Paulo, São Paulo SP","street":"Av. Portugal 1644 Brooklin"},"insurances":"","misc":"","name":"Shionotao Quiropraxia","phone":"11 5561-5241, 1 1553-1072","working_hours":""}},"education":{"1":{"degree":"Graduação","institute":"Universidade Anhembi Morumbi - Sp"}},"experience":"","name":"Amanda Diniz Tao","picture":"http://photos.doctoralia.com/634982740942335117_2.jpg","registration_number":"93","salutation":"","services":"","speciality":"Quiropraxista","subspecialities":""}},{"url":"http://www.doctoralia.com.br/medico/jidiene+depintor-13693069","doctor": {"address":{"1":{"address":{"lat":-23.568341,"lng":-46.649488,"locality":"São","location":"São Paulo, São Paulo SP","street":"Rua Batataes, 308 , Jd. Paulista , Próximo A Avenida Paulista"},"insurances":"","misc":"","name":"Unidade Jd. Paulista - Inata Saúde E Bem Estar","phone":"11 7265-3920","working_hours":""},"2":{"address":{"lat":-23.6026684,"lng":-46.9194693,"locality":"Cotia,","location":"Cotia, São Paulo SP","street":"Estrada Da Aldeia, 585 , Granja Viana , Próximo Ao Alphaville"},"insurances":"","misc":"","name":"Unidade Granja Viana - Inata Saúde E Bem Estar","phone":"11 7265-3920","working_hours":""}},"education":{"1":{"degree":"Graduação","institute":"Universidade Anhembi Morumbi - Sp"}},"experience":"","name":"Jidiene Depintor","picture":"http://photos.doctoralia.com/634982740942335117_2.jpg","registration_number":"640","salutation":"","services":"","speciality":"Quiropraxista","subspecialities":""}},{"url":"http://www.doctoralia.com.br/medico/graziela+agostini+turmina-13693071","doctor": {"address":{"1":{"address":{"lat":-23.5505199,"lng":-46.633309399999,"locality":"São","location":"São Paulo, São Paulo SP","street":"Rua Solano Trindade, 164 , Sala 03 Embu Das Artes"},"insurances":"","misc":"","name":"Dra. Graziela Agostini Turmina","phone":"11 8463-4263","working_hours":""}},"education":{"1":{"degree":"Graduação","institute":"Universidade Feevale - Rs"}},"experience":"","name":"Graziela Agostini Turmina","picture":"http://photos.doctoralia.com/634982740942335117_2.jpg","registration_number":"51","salutation":"","services":"","speciality":"Quiropraxista","subspecialities":""}},{"url":"http://www.doctoralia.com.br/medico/arthur+furnkranz+araujo-13693072","doctor": {"address":{"1":{"address":{"lat":-23.5505199,"lng":-46.633309399999,"locality":"São","location":"São Paulo, São Paulo SP","street":""},"insurances":"","misc":"","name":"Sensus","phone":"119 7377-7700","working_hours":""}},"education":{"1":{"degree":"Graduação","institute":"Universidade Anhembi Morumbi - Sp"}},"experience":"","name":"Arthur Furnkranz Araujo","picture":"http://photos.doctoralia.com/634982740942335117_2.jpg","registration_number":"325","salutation":"","services":"","speciality":"Quiropraxista","subspecialities":""}},{"url":"http://www.doctoralia.com.br/medico/camila+maliszewski+de+freitas-13693074","doctor": {"address":{"1":{"address":{"lat":-23.5565795,"lng":-46.6398898,"locality":"São","location":"São Paulo, São Paulo SP","street":"Av. Brigadeiro Luís Antônio, 733 Conj. 24 Bela Vista"},"insurances":"","misc":"","name":"Vital Work","phone":"119 7960-9957","working_hours":""},"2":{"address":{"lat":-23.5489128,"lng":-46.688612199999,"locality":"São","location":"São Paulo, São Paulo SP","street":"Rua Paulistânia, 661 , Vila Madalena"},"insurances":"","misc":"","name":"Consultório","phone":"119 7960-9957","working_hours":""}},"education":{"1":{"degree":"Graduação","institute":"Universidade Feevale - Rs"}},"experience":"","name":"Camila Maliszewski De Freitas","picture":"http://photos.doctoralia.com/634982740942335117_2.jpg","registration_number":"258","salutation":"","services":"","speciality":"Quiropraxista","subspecialities":""}},{"url":"http://www.doctoralia.com.br/medico/victor+botta+colangelo+luz-13693076","doctor": {"address":{"1":{"address":{"lat":-23.5489128,"lng":-46.688612199999,"locality":"São","location":"São Paulo, São Paulo SP","street":"Rua Paulistânia, 661 , Vila Madalena"},"insurances":"","misc":"","name":"Consultório","phone":"119 7960-9957","working_hours":""}},"education":{"1":{"degree":"Graduação","institute":"Universidade Anhembi Morumbi - Sp"}},"experience":"","name":"Victor Botta Colangelo Luz","picture":"http://photos.doctoralia.com/634982740942335117_2.jpg","registration_number":"664","salutation":"","services":"","speciality":"Quiropraxista","subspecialities":""}},{"url":"http://www.doctoralia.com.br/medico/jose+gilberto+morais+de+barros-13693078","doctor": {"address":{"1":{"address":{"lat":-23.5790643,"lng":-46.6821097,"locality":"São","location":"São Paulo, São Paulo SP","street":"Av Cidade Jardim, 114, Jd Europa"},"insurances":"","misc":"","name":"Instituto Viva Quiropraxia","phone":"11 3016-8970","working_hours":""},"2":{"address":{"lat":-23.5558452,"lng":-46.7043402,"locality":"São","location":"São Paulo, São Paulo SP","street":"Rua Pedroso De Moraes, 2330, Alto De Pinheiros"},"insurances":"","misc":"","name":"Axis - Clínica de Coluna","phone":"3813-9686, 3819-7962","working_hours":""}},"education":{"1":{"degree":"Graduação","institute":"Universidade Anhembi Morumbi - Sp"}},"experience":"","name":"José Gilberto Morais De Barros","picture":"http://photos.doctoralia.com/634982740942335117_2.jpg","registration_number":"599","salutation":"","services":"","speciality":"Quiropraxista","subspecialities":""}},{"url":"http://www.doctoralia.com.br/medico/felipe+trindade-13693079","doctor": {"address":{"1":{"address":{"lat":-23.5790643,"lng":-46.6821097,"locality":"São","location":"São Paulo, São Paulo SP","street":"Av Cidade Jardim, 114, Jd Europa"},"insurances":"","misc":"","name":"Instituto Viva Quiropraxia","phone":"11 3016-8970","working_hours":""}},"education":{"1":{"degree":"Graduação","institute":"Universidade Anhembi Morumbi - Sp"}},"experience":"","name":"Felipe Trindade","picture":"http://photos.doctoralia.com/634982740942335117_2.jpg","registration_number":"52","salutation":"","services":"","speciality":"Quiropraxista","subspecialities":""}},{"url":"http://www.doctoralia.com.br/medico/ana+paula+g+s+affonso-13693085","doctor": {"address":{"1":{"address":{"lat":-23.5505199,"lng":-46.633309399999,"locality":"São","location":"São Paulo, São Paulo SP","street":""},"insurances":"","misc":"","name":"Atendimento Domiciliar E Empresarial.","phone":"11 9556-0851","working_hours":""}},"education":{"1":{"degree":"Graduação","institute":"Universidade Anhembi Morumbi - Sp"}},"experience":"","name":"S","picture":"http://photos.doctoralia.com/634982740942335117_2.jpg","registration_number":"558","salutation":"Ana Paula G","services":"","speciality":"Quiropraxista","subspecialities":""}},{"url":"http://www.doctoralia.com.br/medico/batista+alexander-14822335","doctor": {"address":{"1":{"address":{"lat":-23.5639714,"lng":-46.6335069,"locality":"01525-010","location":"01525-010 São Paulo, São Paulo SP","street":"Rua Rocha Pombo, 117 (Aclimação)"},"insurances":"Pacientes privados (sem plano de saúde)","misc":"","name":"Clinica Resilience","phone":"(11) 3341-5907","working_hours":""}},"education":{},"experience":"","name":"Alexander Batista","picture":"http://photos.doctoralia.com/634982740942335117_2.jpg","registration_number":"","salutation":"","services":"","speciality":"Quiropraxista","subspecialities":""}},{"url":"http://www.doctoralia.com.br/medico/matheus+mortari+do+lago+gomes-13693243","doctor": {"address":{"1":{"address":{"lat":-23.5505199,"lng":-46.633309399999,"locality":"São","location":"São Paulo, São Paulo SP","street":""},"insurances":"","misc":"","name":"Matheus Mortari","phone":"405-4001, 119 5555-1006","working_hours":""}},"education":{"1":{"degree":"Graduação","institute":"Universidade Anhembi Morumbi - Sp"}},"experience":"","name":"Matheus Mortari Do Lago Gomes","picture":"http://photos.doctoralia.com/634982740942335117_2.jpg","registration_number":"65","salutation":"","services":"","speciality":"Quiropraxista","subspecialities":""}},{"url":"http://www.doctoralia.com.br/medico/bia+ferreira+pimentel-13693253","doctor": {"address":{"1":{"address":{"lat":-23.5426267,"lng":-46.6515225,"locality":"São","location":"São Paulo, São Paulo SP","street":"Rua: Martinico Prado, Número: 26, Conjunto: 24, Higienópolis"},"insurances":"","misc":"","name":"Quirovida","phone":"11 2306-6263","working_hours":""}},"education":{"1":{"degree":"Graduação","institute":"Universidade Anhembi Morumbi - Sp"}},"experience":"","name":"Bia Ferreira Pimentel","picture":"http://photos.doctoralia.com/634982740942335117_2.jpg","registration_number":"648","salutation":"","services":"","speciality":"Quiropraxista","subspecialities":""}},{"url":"http://www.doctoralia.com.br/medico/lucas+pimentel-13693254","doctor": {"address":{"1":{"address":{"lat":-23.5396696,"lng":-46.6717982,"locality":"São","location":"São Paulo, São Paulo SP","street":"Rua Monte Alegre, 1144, Perdizes"},"insurances":"","misc":"","name":"Aum - Universo Em Movimento","phone":"11 2935-1202, 119 8659-1184","working_hours":""}},"education":{"1":{"degree":"Graduação","institute":"Universidade Anhembi Morumbi - Sp"}},"experience":"","name":"Lucas Pimentel","picture":"http://photos.doctoralia.com/634982740942335117_2.jpg","registration_number":"493","salutation":"","services":"","speciality":"Quiropraxista","subspecialities":""}},{"url":"http://www.doctoralia.com.br/medico/ana+claudia+de+oliveira+araujo-13693255","doctor": {"address":{"1":{"address":{"lat":-23.5569344,"lng":-46.755614,"locality":"São","location":"São Paulo, São Paulo SP","street":"Rua Prof. Herbert Baldus, 170 Vila São Francisco"},"insurances":"","misc":"","name":"Spot Saúde E Bem Estar","phone":"11 3232-1777","working_hours":""},"2":{"address":{"lat":-23.5357673,"lng":-46.7719846,"locality":"Osasco,","location":"Osasco, São Paulo SP","street":"Super Shopping Osasco , Av. Dos Autonomistas, 1828 Lj 01 02"},"insurances":"","misc":"","name":"Shiozawa Shiatsu","phone":"11 3699-9577","working_hours":""}},"education":{"1":{"degree":"Graduação","institute":"Universidade Anhembi Morumbi - Sp"}},"experience":"","name":"Ana Cláudia De Oliveira Araujo","picture":"http://photos.doctoralia.com/634982740942335117_2.jpg","registration_number":"229","salutation":"","services":"","speciality":"Quiropraxista","subspecialities":""}},{"url":"http://www.doctoralia.com.br/medico/felipe+yoshio+de+oliveira-13693257","doctor": {"address":{"1":{"address":{"lat":-23.5897469,"lng":-46.6732594,"locality":"São","location":"São Paulo, São Paulo SP","street":"Rua Dr Joao Climaco Pereira 60, Itaim Bibi"},"insurances":"","misc":"","name":"Quiropraxia Jason Gilbert (Unidade Vila Olimpia)","phone":"11 3845-4115","working_hours":""},"2":{"address":{"lat":-23.5113691,"lng":-46.872941999999,"locality":"Barueri,","location":"Barueri, São Paulo SP","street":"Alameda Madeira 258, Conj 307 Ed Guinzza Alphaville"},"insurances":"","misc":"","name":"Quiropraxia Jason Gilbert (Unidade Alphaville )","phone":"11 4191-0188, 11 4191-0634","working_hours":""}},"education":{"1":{"degree":"Graduação","institute":"Universidade Anhembi Morumbi - Sp"}},"experience":"","name":"Felipe Yoshio De Oliveira","picture":"http://photos.doctoralia.com/634982740942335117_2.jpg","registration_number":"660","salutation":"","services":"","speciality":"Quiropraxista","subspecialities":""}},{"url":"http://www.doctoralia.com.br/medico/murilo+marinho+franco-13693263","doctor": {"address":{"1":{"address":{"lat":-23.5565795,"lng":-46.6398898,"locality":"São","location":"São Paulo, São Paulo SP","street":"Av. Brigadeiro Luis Antônio, 733. Conjunto 24 , Bela Vista"},"insurances":"","misc":"","name":"Clínica de Quiropraxia - Mais Coluna","phone":"11 3101-1703","working_hours":""}},"education":{"1":{"degree":"Graduação","institute":"Universidade Anhembi Morumbi - Sp"}},"experience":"","name":"Murilo Marinho Franco","picture":"http://photos.doctoralia.com/634982740942335117_2.jpg","registration_number":"417","salutation":"","services":"","speciality":"Quiropraxista","subspecialities":""}},{"url":"http://www.doctoralia.com.br/medico/david+de+mario+porto-13693264","doctor": {"address":{"1":{"address":{"lat":-23.5565795,"lng":-46.6398898,"locality":"São","location":"São Paulo, São Paulo SP","street":"Av. Brigadeiro Luis Antônio, 733. Conjunto 24 , Bela Vista"},"insurances":"","misc":"","name":"Clínica de Quiropraxia David Porto","phone":"11 3106-2735","working_hours":""}},"education":{"1":{"degree":"Graduação","institute":"Universidade Anhembi Morumbi - Sp"}},"experience":"","name":"David De Mário Porto","picture":"http://photos.doctoralia.com/634982740942335117_2.jpg","registration_number":"266","salutation":"","services":"","speciality":"Quiropraxista","subspecialities":""}},{"url":"http://www.doctoralia.com.br/medico/choo+h+kim-13693266","doctor": {"address":{"1":{"address":{"lat":-23.5554202,"lng":-46.5970252,"locality":"São","location":"São Paulo, São Paulo SP","street":"R. Juvenal Parada, 180 , Mooca"},"insurances":"","misc":"","name":"Koryocenter","phone":"11 2605-9898","working_hours":""}},"education":{"1":{"degree":"Graduação","institute":"Universidade Anhembi Morumbi - Sp"}},"experience":"","name":"Kim","picture":"http://photos.doctoralia.com/634982740942335117_2.jpg","registration_number":"529","salutation":"Choo H","services":"","speciality":"Quiropraxista","subspecialities":""}},{"url":"http://www.doctoralia.com.br/medico/moriane+sernaglia-13693271","doctor": {"address":{"1":{"address":{"lat":-23.5249577,"lng":-46.7016375,"locality":"São","location":"São Paulo, São Paulo SP","street":"Rua Clélia, 1965 , Conj 23"},"insurances":"","misc":"","name":"Consultório Lapa","phone":"119 7500-5123","working_hours":""}},"education":{"1":{"degree":"Graduação","institute":"Universidade Anhembi Morumbi - Sp"}},"experience":"","name":"Moriane Sernaglia","picture":"http://photos.doctoralia.com/634982740942335117_2.jpg","registration_number":"474","salutation":"","services":"","speciality":"Quiropraxista","subspecialities":""}},{"url":"http://www.doctoralia.com.br/medico/cristiano+barbosa+da+silva-13693272","doctor": {"address":{"1":{"address":{"lat":-23.5781796,"lng":-46.7094301,"locality":"São","location":"São Paulo, São Paulo SP","street":"Rua Alvarenga 399, Butantã, (A Minutos Do Metrô Butantã E Do Shopping Eldorado)"},"insurances":"","misc":"","name":"Clinica de Quiropraxia","phone":"119 9513-1167","working_hours":""}},"education":{"1":{"degree":"Graduação","institute":"Universidade Anhembi Morumbi - Sp"}},"experience":"","name":"Cristiano Barbosa Da Silva","picture":"http://photos.doctoralia.com/634982740942335117_2.jpg","registration_number":"2","salutation":"","services":"","speciality":"Quiropraxista","subspecialities":""}},{"url":"http://www.doctoralia.com.br/medico/mayce+pires+barboza-13693282","doctor": {"address":{"1":{"address":{"lat":-23.5661127,"lng":-46.5930124,"locality":"São","location":"São Paulo, São Paulo SP","street":"Rua Tamarataca, 378 , Móoca"},"insurances":"","misc":"","name":"Clínica Tamarataca","phone":"2605-2498","working_hours":""}},"education":{"1":{"degree":"Graduação","institute":"Universidade Anhembi Morumbi - Sp"}},"experience":"","name":"Mayce Pires Barboza","picture":"http://photos.doctoralia.com/634982740942335117_2.jpg","registration_number":"284","salutation":"","services":"","speciality":"Quiropraxista","subspecialities":""}},{"url":"http://www.doctoralia.com.br/medico/fumi+eloisa+usui-13693283","doctor": {"address":{"1":{"address":{"lat":-23.5661127,"lng":-46.5930124,"locality":"São","location":"São Paulo, São Paulo SP","street":"Rua Tamarataca, 378 , Móoca"},"insurances":"","misc":"","name":"Clínica Tamarataca","phone":"2605-2498","working_hours":""}},"education":{"1":{"degree":"Graduação","institute":"Universidade Anhembi Morumbi - Sp"}},"experience":"","name":"Fumi Eloisa Usui","picture":"http://photos.doctoralia.com/634982740942335117_2.jpg","registration_number":"60","salutation":"","services":"","speciality":"Quiropraxista","subspecialities":""}},{"url":"http://www.doctoralia.com.br/medico/julia+massako+f+tsuchida-13693284","doctor": {"address":{"1":{"address":{"lat":-23.5971762,"lng":-46.6419764,"locality":"São","location":"São Paulo, São Paulo SP","street":"Rua Borges Lagoa, 564 Cj 104, Vila Clementino"},"insurances":"","misc":"","name":"Kenzen - Clínica de Quiropraxia","phone":"2738-2548","working_hours":""}},"education":{"1":{"degree":"Graduação","institute":"Universidade Anhembi Morumbi - Sp"}},"experience":"","name":"Tsuchida","picture":"http://photos.doctoralia.com/634982740942335117_2.jpg","registration_number":"555","salutation":"Julia Massako F","services":"","speciality":"Quiropraxista","subspecialities":""}},{"url":"http://www.doctoralia.com.br/medico/juliana+harue+tsuchida-13693285","doctor": {"address":{"1":{"address":{"lat":-23.5971762,"lng":-46.6419764,"locality":"São","location":"São Paulo, São Paulo SP","street":"Rua Borges Lagoa, 564 Cj 104, Vila Clementino"},"insurances":"","misc":"","name":"Kenzen - Clínica de Quiropraxia","phone":"2738-2548","working_hours":""}},"education":{"1":{"degree":"Graduação","institute":"Universidade Anhembi Morumbi - Sp"}},"experience":"","name":"Juliana Harue Tsuchida","picture":"http://photos.doctoralia.com/634982740942335117_2.jpg","registration_number":"145","salutation":"","services":"","speciality":"Quiropraxista","subspecialities":""}},{"url":"http://www.doctoralia.com.br/medico/alexandre+zuppo+batista-13693295","doctor": {"address":{"1":{"address":{"lat":-23.6104846,"lng":-46.7451608,"locality":"São","location":"São Paulo, São Paulo SP","street":"Rua Dr. Luiz Migliano, 597 , Portal Do Morumbi ( Próximo Ao Cemitério Da Paz)."},"insurances":"","misc":"","name":"Alexandre Zuppo","phone":"3441-5376","working_hours":""}},"education":{"1":{"degree":"Graduação","institute":"Universidade Anhembi Morumbi - Sp"}},"experience":"","name":"Alexandre Zuppo Batista","picture":"http://photos.doctoralia.com/634982740942335117_2.jpg","registration_number":"376","salutation":"","services":"","speciality":"Quiropraxista","subspecialities":""}},{"url":"http://www.doctoralia.com.br/medico/carla+cristhyna+carlos-13693313","doctor": {"address":{"1":{"address":{"lat":-23.5781796,"lng":-46.7094301,"locality":"São","location":"São Paulo, São Paulo SP","street":"Rua Alvarenga 399, Butantã, (A Minutos Do Metrô Butantã E Do Shopping Eldorado)"},"insurances":"","misc":"","name":"Clinica de Quiropraxia","phone":"119 9513-1167","working_hours":""},"2":{"address":{"lat":-23.6269642,"lng":-46.5575779,"locality":"São","location":"São Caetano do Sul, São Paulo SP","street":"Rua Benito Campói, 298 , 3º Andar  Sala 35 , Bairro Olímpico"},"insurances":"","misc":"","name":"Clinica de Quiropraxia","phone":"5012-3508, 4221-7553","working_hours":""}},"education":{"1":{"degree":"Graduação","institute":"Universidade Anhembi Morumbi - Sp"}},"experience":"","name":"Carla Cristhyna Carlos","picture":"http://photos.doctoralia.com/634982740942335117_2.jpg","registration_number":"480","salutation":"","services":"","speciality":"Quiropraxista","subspecialities":""}},{"url":"http://www.doctoralia.com.br/medico/junior+souza-13693314","doctor": {"address":{"1":{"address":{"lat":-23.537445,"lng":-46.6859474,"locality":"São","location":"São Paulo, São Paulo SP","street":"R. Caraíbas 1179, Casa 09"},"insurances":"","misc":"","name":"Sollua","phone":"3672-4421, 3675-8948","working_hours":""}},"education":{"1":{"degree":"Graduação","institute":"Universidade Anhembi Morumbi - Sp"}},"experience":"","name":"Junior Souza","picture":"http://photos.doctoralia.com/634982740942335117_2.jpg","registration_number":"488","salutation":"","services":"","speciality":"Quiropraxista","subspecialities":""}},{"url":"http://www.doctoralia.com.br/medico/serena+eluf-13693384","doctor": {"address":{"1":{"address":{"lat":-23.5505199,"lng":-46.633309399999,"locality":"São","location":"São Paulo, São Paulo SP","street":"Rua Jericó 275, Vila Madalena , Zona Oeste"},"insurances":"","misc":"","name":"Aicó Clínica","phone":"11 2305-8113","working_hours":""}},"education":{"1":{"degree":"Graduação","institute":"Universidade Anhembi Morumbi - Sp"}},"experience":"","name":"Serena Eluf","picture":"http://photos.doctoralia.com/634982740942335117_2.jpg","registration_number":"508","salutation":"","services":"","speciality":"Quiropraxista","subspecialities":""}},{"url":"http://www.doctoralia.com.br/medico/jason+michael+gilbert-13693385","doctor": {"address":{"1":{"address":{"lat":-23.558803,"lng":-46.6595461,"locality":"São","location":"São Paulo, São Paulo SP","street":"Avenida Paulista, 2073  Horsa I 6Andar Sala 622"},"insurances":"","misc":"","name":"Unidade Paulista - Quiropraxia Jason Gilbert","phone":"11 3266-7103","working_hours":""},"2":{"address":{"lat":-23.5897469,"lng":-46.6732594,"locality":"São","location":"São Paulo, São Paulo SP","street":"Rua Doutor João Clímaco Pereira,60"},"insurances":"","misc":"","name":"Unidade Vila Olímpia - Quiropraxia Jason Gilbert","phone":"11 3842-6335","working_hours":""}},"education":{"1":{"degree":"Graduação","institute":"The University Of Sydney - Austrália"}},"experience":"","name":"Jason Michael Gilbert","picture":"http://photos.doctoralia.com/634982740942335117_2.jpg","registration_number":"621","salutation":"","services":"","speciality":"Quiropraxista","subspecialities":""}}]}