{"webData": [{"url":"http://www.doctoralia.com.br/medico/homem+yamazaki+viviani-12093135","doctor": {"address":{"1":{"address":{"lat":-23.6158041,"lng":-46.6760314,"locality":"04615000","location":"04615000 São Paulo, São Paulo SP","street":"rua Doutor Jesuíno Maciel, 331 (Campo Belo)"},"insurances":"Pacientes privados (sem plano de saúde)","misc":"","name":"Consultório","phone":"5042 0946, 50492344","working_hours":""},"2":{"address":{"lat":-23.5537663,"lng":-46.676504,"locality":"05409011","location":"05409011 São Paulo, São Paulo SP","street":"Rua Oscar Freire, 2174 (Pinheiros)"},"insurances":"","misc":"","name":"Consultório","phone":"11-30647788","working_hours":""}},"education":{},"experience":"","name":"Viviani Homem Yamazaki","picture":"http://photos.doctoralia.com/635168454081352374_1.jpg","registration_number":"104945","salutation":"Dra","services":"","speciality":"Acupunturista, Médico de família ","subspecialities":""}},{"url":"http://www.doctoralia.com.br/medico/wu+chi+haur-10581194","doctor": {"address":{"1":{"address":{"lat":-23.5689969,"lng":-46.6390489,"locality":"01533-070","location":"01533-070 São Paulo, São Paulo SP","street":"Praça Santo Agostinho, 70 - Conjunto 11 (Vergueiro)"},"insurances":"Pacientes privados (sem plano de saúde), Geap","misc":"","name":"Consultório","phone":"(11) 3209-0112","working_hours":""}},"education":{},"experience":"","name":"Wu Chi Haur","picture":"http://photos.doctoralia.com/635584093097896984_2.jpg","registration_number":"","salutation":"Dr","services":"","speciality":"Médico de família , Especialista em Medicina Preventiva","subspecialities":""}},{"url":"http://www.doctoralia.com.br/medico/henrique+fernando+de+petta+lobello-11986964","doctor": {"address":{"1":{"address":{"lat":-23.5427318,"lng":-46.6489045,"locality":"01221-020","location":"01221-020 São Paulo, São Paulo SP","street":"R. Dr. Cesario Motta Jr, 112 (Vila Buarque)"},"insurances":"","misc":"","name":"Santa Casa de São Paulo Hospital Central","phone":"(11) 2176-7000","working_hours":""}},"education":{},"experience":"","name":"Henrique Fernando de Petta Lobello","picture":"http://photos.doctoralia.com/635584093097896984_2.jpg","registration_number":"","salutation":"","services":"","speciality":"Médico de família ","subspecialities":""}},{"url":"http://www.doctoralia.com.br/medico/liha+macri+bogaz-11986965","doctor": {"address":{"1":{"address":{"lat":-23.5427318,"lng":-46.6489045,"locality":"01221-020","location":"01221-020 São Paulo, São Paulo SP","street":"R. Dr. Cesario Motta Jr, 112 (Vila Buarque)"},"insurances":"","misc":"","name":"Santa Casa de São Paulo Hospital Central","phone":"(11) 2176-7000","working_hours":""}},"education":{},"experience":"","name":"Liha Macri Bogaz","picture":"http://photos.doctoralia.com/635584093097896984_2.jpg","registration_number":"","salutation":"","services":"","speciality":"Médico de família ","subspecialities":""}},{"url":"http://www.doctoralia.com.br/medico/rafael+andrade+moscatiello-10587706","doctor": {"address":{"1":{"address":{"lat":-23.6157574,"lng":-46.6668906,"locality":"04071-000","location":"04071-000 São Paulo, São Paulo SP","street":"Av. dos Bandeirantes 3426 - Campo Belo"},"insurances":"","misc":"","name":"Consultório","phone":"(11) 5532-1342","working_hours":""}},"education":{},"experience":"","name":"Rafael Andrade Moscatiello","picture":"http://photos.doctoralia.com/635584093097896984_2.jpg","registration_number":"","salutation":"","services":"","speciality":"Médico de família ","subspecialities":""}},{"url":"http://www.doctoralia.com.br/medico/raimundo+saraiva-11946448","doctor": {"address":{"1":{"address":{"lat":-23.556738,"lng":-46.670129,"locality":"05403-000","location":"05403-000 São Paulo, São Paulo SP","street":"Av. Dr. Eneas de Carvalho Aguiar, 255"},"insurances":"","misc":"","name":"Unidade de Posto de Saúde Da Familia Cidade Nova","phone":"123","working_hours":""}},"education":{},"experience":"","name":"Raimundo Saraiva","picture":"http://photos.doctoralia.com/635584093097896984_2.jpg","registration_number":"","salutation":"","services":"","speciality":"Médico de família ","subspecialities":""}},{"url":"http://www.doctoralia.com.br/medico/rui+manoel+castro+barjona+de+vasconcelos+rodrigues-11946449","doctor": {"address":{"1":{"address":{"lat":-23.556738,"lng":-46.670129,"locality":"05403-000","location":"05403-000 São Paulo, São Paulo SP","street":"Av. Dr. Eneas de Carvalho Aguiar, 255"},"insurances":"","misc":"","name":"Unidade de Posto de Saúde Da Familia Cidade Nova","phone":"123","working_hours":""}},"education":{},"experience":"","name":"Rui Manoel Castro Barjona de Vasconcelos Rodrigues","picture":"http://photos.doctoralia.com/635584093097896984_2.jpg","registration_number":"","salutation":"","services":"","speciality":"Médico de família ","subspecialities":""}},{"url":"http://www.doctoralia.com.br/medico/tereza+cristina+fenerich+de+moraes-11948626","doctor": {"address":{"1":{"address":{"lat":-23.5059266,"lng":-46.693604099999,"locality":"02732-040","location":"02732-040 São Paulo, São Paulo SP","street":"Avenida Santa Marina, 2187 / A (Freguesia do O)"},"insurances":"","misc":"","name":"Supervisao de Area Freguesia Do O Brasilandia","phone":"(11) 3936-5505","working_hours":""}},"education":{},"experience":"","name":"Tereza Cristina Fenerich de Moraes","picture":"http://photos.doctoralia.com/635584093097896984_2.jpg","registration_number":"","salutation":"","services":"","speciality":"Médico de família ","subspecialities":""}},{"url":"http://www.doctoralia.com.br/medico/fernanda+de+carvalho+affonso-11986966","doctor": {"address":{"1":{"address":{"lat":-23.5427318,"lng":-46.6489045,"locality":"01221-020","location":"01221-020 São Paulo, São Paulo SP","street":"R. Dr. Cesario Motta Jr, 112 (Vila Buarque)"},"insurances":"","misc":"","name":"Santa Casa de São Paulo Hospital Central","phone":"(11) 2176-7000","working_hours":""}},"education":{},"experience":"","name":"Fernanda de Carvalho Affonso","picture":"http://photos.doctoralia.com/635584093097896984_2.jpg","registration_number":"","salutation":"","services":"","speciality":"Médico de família ","subspecialities":""}},{"url":"http://www.doctoralia.com.br/medico/sabrina+floriani-11986967","doctor": {"address":{"1":{"address":{"lat":-23.5427318,"lng":-46.6489045,"locality":"01221-020","location":"01221-020 São Paulo, São Paulo SP","street":"R. Dr. Cesario Motta Jr, 112 (Vila Buarque)"},"insurances":"","misc":"","name":"Santa Casa de São Paulo Hospital Central","phone":"(11) 2176-7000","working_hours":""}},"education":{},"experience":"","name":"Sabrina Floriani","picture":"http://photos.doctoralia.com/635584093097896984_2.jpg","registration_number":"","salutation":"","services":"","speciality":"Médico de família ","subspecialities":""}}]}