{"webData": [{"url":"http://www.doctoralia.com.br/medico/wu+chi+haur-10581194","doctor": {"address":{"1":{"address":{"lat":-23.5689969,"lng":-46.6390489,"locality":"01533-070","location":"01533-070 São Paulo, São Paulo SP","street":"Praça Santo Agostinho, 70 - Conjunto 11 (Vergueiro)"},"insurances":"Pacientes privados (sem plano de saúde), Geap","misc":"","name":"Consultório","phone":"","working_hours":""}},"education":{},"experience":"","name":"Wu Chi Haur","picture":"http://photos.doctoralia.com/635584093097896984_2.jpg","registration_number":"","salutation":"Dr","services":"","speciality":"Médico de família , Especialista em Medicina Preventiva","subspecialities":""}},{"url":"http://www.doctoralia.com.br/medico/fabiola+guimaraes+porto-10605762","doctor": {"address":{"1":{"address":{"lat":-23.2016845,"lng":-45.8989251,"locality":"00012-243","location":"00012-243 São José dos Campos, São Paulo SP","street":"Rua Itatiba, 261 (Jd Apolo)"},"insurances":"Pacientes privados (sem plano de saúde), Amil, Unimed","misc":"","name":"Consultório","phone":"(12) 3021-5491","working_hours":""}},"education":{},"experience":"","name":"Fabiola Guimaraes Porto","picture":"http://photos.doctoralia.com/V2635431433974915351_2.jpg","registration_number":"","salutation":"Dra","services":"","speciality":"Geriatra, Especialista em Medicina Preventiva","subspecialities":""}},{"url":"http://www.doctoralia.com.br/medico/cleber+sartorio-10609242","doctor": {"address":{"1":{"address":{"lat":-23.5838091,"lng":-46.5003091,"locality":"03932-050","location":"03932-050 São Paulo, São Paulo SP","street":"Rua Joquim Felicio, 146 - 13 B (Sao Mateus)"},"insurances":"Pacientes privados (sem plano de saúde), Amil","misc":"","name":"Consultório","phone":"(11) 8358-6556","working_hours":""}},"education":{},"experience":"","name":"Cleber Sartorio","picture":"http://photos.doctoralia.com/635592599178780047_2.jpg","registration_number":"","salutation":"Dr","services":"","speciality":"Médico Perito, Especialista em Medicina Preventiva","subspecialities":""}},{"url":"http://www.doctoralia.com.br/medico/andre+soares+marcondes-12013740","doctor": {"address":{"1":{"address":{"lat":-23.1827469,"lng":-46.8901799,"locality":"13201-625","location":"13201-625 Jundiaí, São Paulo SP","street":"Rua Sao Vicente de Paulo, 223 (Centro)"},"insurances":"","misc":"","name":"Hospital Sao Vicente","phone":"(11) 4583-8155","working_hours":""}},"education":{},"experience":"","name":"Andre Soares Marcondes","picture":"http://photos.doctoralia.com/V2634341569514654607_2.jpg","registration_number":"","salutation":"","services":"","speciality":"Especialista em Medicina Preventiva","subspecialities":""}}]}