{"webData": [{"url":"http://www.doctoralia.com.br/medico/reynaldo+augusto+machado-10586794","doctor": {"address":{"1":{"address":{"lat":-23.5666043,"lng":-46.6429404,"locality":"01321-001","location":"01321-001 São Paulo, São Paulo SP","street":"R Martiniano de Carvalho, 883 (Bela Vista)"},"insurances":"Pacientes privados (sem plano de saúde), Geap","misc":"","name":"Consultório","phone":"","working_hours":""}},"education":{},"experience":"","name":"Reynaldo Augusto Machado","picture":"http://photos.doctoralia.com/635217547365143604_1.jpg","registration_number":"","salutation":"Dr","services":"","speciality":"Anátomopatologista, Patologista clínico","subspecialities":"Citopatologia"}},{"url":"http://www.doctoralia.com.br/medico/ivan+fernandes+da+silva-10601477","doctor": {"address":{"1":{"address":{"lat":-23.5681272,"lng":-46.6484941,"locality":"1311-000","location":"1311-000 São Paulo, São Paulo SP","street":"Paulista, 509 - Cj. 1107 (Bela Vista)"},"insurances":"Pacientes privados (sem plano de saúde), Unimed","misc":"","name":"Consultório","phone":"(11) 3283-5233","working_hours":""}},"education":{},"experience":"","name":"Ivan Fernandes da Silva","picture":"http://photos.doctoralia.com/V2635322461198592127_2.jpg","registration_number":"","salutation":"Dr","services":"","speciality":"Anátomopatologista, Ginecologista","subspecialities":""}},{"url":"http://www.doctoralia.com.br/medico/nilceo+schwery+michalany-11878559","doctor": {"address":{"1":{"address":{"lat":-23.5803822,"lng":-46.663434,"locality":"01401-002","location":"01401-002 São Paulo, São Paulo SP","street":"Avenida Brigadeiro Luis Antonio - 4315 (Jardim Paulista)"},"insurances":"","misc":"","name":"Laboratorio Paulista de Dermatopatologia Clinica","phone":"(11) 3887-3594, (11) 3887-6690, (11) 3887-6690","working_hours":""}},"education":{},"experience":"","name":"Nilceo Schwery Michalany","picture":"http://photos.doctoralia.com/635217547365143604_1.jpg","registration_number":"","salutation":"","services":"","speciality":"Anátomopatologista","subspecialities":""}},{"url":"http://www.doctoralia.com.br/medico/roberto+antonio+pinto+paes-11987545","doctor": {"address":{"1":{"address":{"lat":-23.5427318,"lng":-46.6489045,"locality":"01221-020","location":"01221-020 São Paulo, São Paulo SP","street":"R. Dr. Cesario Motta Jr, 112 (Vila Buarque)"},"insurances":"","misc":"","name":"Santa Casa de São Paulo Hospital Central","phone":"(11) 2176-7000","working_hours":""}},"education":{},"experience":"","name":"Roberto Antonio Pinto Paes","registration_number":"","salutation":"","services":"","speciality":"Anátomopatologista","subspecialities":""}},{"url":"http://www.doctoralia.com.br/medico/cintia+camillo+nunes-11987561","doctor": {"address":{"1":{"address":{"lat":-23.5427318,"lng":-46.6489045,"locality":"01221-020","location":"01221-020 São Paulo, São Paulo SP","street":"R. Dr. Cesario Motta Jr, 112 (Vila Buarque)"},"insurances":"","misc":"","name":"Santa Casa de São Paulo Hospital Central","phone":"(11) 2176-7000","working_hours":""}},"education":{},"experience":"","name":"Cintia Camillo Nunes","picture":"http://photos.doctoralia.com/635217547365143604_1.jpg","registration_number":"","salutation":"","services":"","speciality":"Anátomopatologista","subspecialities":""}},{"url":"http://www.doctoralia.com.br/medico/joao+felicio+miziara+filho-11868694","doctor": {"address":{"1":{"address":{"lat":-23.5505199,"lng":-46.633309399999,"locality":"05001-000","location":"05001-000 São Paulo, São Paulo SP","street":"Avenida Francisco Matarazzo, 74 / Terreo (Perdizes)"},"insurances":"","misc":"","name":"Seconci","phone":"(11) 3664--5050","working_hours":""}},"education":{},"experience":"","name":"Joao Felicio Miziara Filho","picture":"http://photos.doctoralia.com/635217547365143604_1.jpg","registration_number":"","salutation":"","services":"","speciality":"Anátomopatologista","subspecialities":""}},{"url":"http://www.doctoralia.com.br/medico/carmem+lucia+p+lancellotti-11987562","doctor": {"address":{"1":{"address":{"lat":-23.5427318,"lng":-46.6489045,"locality":"01221-020","location":"01221-020 São Paulo, São Paulo SP","street":"R. Dr. Cesario Motta Jr, 112 (Vila Buarque)"},"insurances":"","misc":"","name":"Santa Casa de São Paulo Hospital Central","phone":"(11) 2176-7000","working_hours":""}},"education":{},"experience":"","name":"Carmem Lucia P Lancellotti","picture":"http://photos.doctoralia.com/635217547365143604_1.jpg","registration_number":"","salutation":"","services":"","speciality":"Anátomopatologista","subspecialities":""}},{"url":"http://www.doctoralia.com.br/medico/lenira+mecelis+rangel-11987547","doctor": {"address":{"1":{"address":{"lat":-23.5427318,"lng":-46.6489045,"locality":"01221-020","location":"01221-020 São Paulo, São Paulo SP","street":"R. Dr. Cesario Motta Jr, 112 (Vila Buarque)"},"insurances":"","misc":"","name":"Santa Casa de São Paulo Hospital Central","phone":"(11) 2176-7000","working_hours":""}},"education":{},"experience":"","name":"Lenira Mecelis Rangel","picture":"http://photos.doctoralia.com/635217547365143604_1.jpg","registration_number":"","salutation":"","services":"","speciality":"Anátomopatologista","subspecialities":""}},{"url":"http://www.doctoralia.com.br/medico/eliza+nobuco+toda-11987548","doctor": {"address":{"1":{"address":{"lat":-23.5427318,"lng":-46.6489045,"locality":"01221-020","location":"01221-020 São Paulo, São Paulo SP","street":"R. Dr. Cesario Motta Jr, 112 (Vila Buarque)"},"insurances":"","misc":"","name":"Santa Casa de São Paulo Hospital Central","phone":"(11) 2176-7000","working_hours":""}},"education":{},"experience":"","name":"Eliza Nobuco Toda","picture":"http://photos.doctoralia.com/635217547365143604_1.jpg","registration_number":"","salutation":"","services":"","speciality":"Anátomopatologista","subspecialities":""}},{"url":"http://www.doctoralia.com.br/medico/zulmira+almeida+lopes-11899630","doctor": {"address":{"1":{"address":{"lat":-23.5624616,"lng":-46.6778184,"locality":"05413-000","location":"05413-000 São Paulo, São Paulo SP","street":"Rua Lisboa, 173 (Jardim Paulista)"},"insurances":"","misc":"","name":"Laboratorio Darcy Monteiro","phone":"(11) 3085-0008","working_hours":""}},"education":{},"experience":"","name":"Zulmira Almeida Lopes","picture":"http://photos.doctoralia.com/635217547365143604_1.jpg","registration_number":"","salutation":"","services":"","speciality":"Anátomopatologista","subspecialities":""}},{"url":"http://www.doctoralia.com.br/medico/edson+eidi+kumagai-11899631","doctor": {"address":{"1":{"address":{"lat":-23.5624616,"lng":-46.6778184,"locality":"05413-000","location":"05413-000 São Paulo, São Paulo SP","street":"Rua Lisboa, 173 (Jardim Paulista)"},"insurances":"","misc":"","name":"Laboratorio Darcy Monteiro","phone":"(11) 3085-0008","working_hours":""}},"education":{},"experience":"","name":"Edson Eidi Kumagai","picture":"http://photos.doctoralia.com/635217547365143604_1.jpg","registration_number":"","salutation":"","services":"","speciality":"Anátomopatologista","subspecialities":""}},{"url":"http://www.doctoralia.com.br/medico/francisco+de+assis+torres+de+miranda+filho-11899632","doctor": {"address":{"1":{"address":{"lat":-23.5624616,"lng":-46.6778184,"locality":"05413-000","location":"05413-000 São Paulo, São Paulo SP","street":"Rua Lisboa, 173 (Jardim Paulista)"},"insurances":"","misc":"","name":"Laboratorio Darcy Monteiro","phone":"(11) 3085-0008","working_hours":""}},"education":{},"experience":"","name":"Francisco de Assis Torres de Miranda Filho","registration_number":"","salutation":"","services":"","speciality":"Anátomopatologista","subspecialities":""}},{"url":"http://www.doctoralia.com.br/medico/darcy+carmen+mmonteiro-11899633","doctor": {"address":{"1":{"address":{"lat":-23.5624616,"lng":-46.6778184,"locality":"05413-000","location":"05413-000 São Paulo, São Paulo SP","street":"Rua Lisboa, 173 (Jardim Paulista)"},"insurances":"","misc":"","name":"Laboratorio Darcy Monteiro","phone":"(11) 3085-0008","working_hours":""}},"education":{},"experience":"","name":"Darcy Carmen Mmonteiro","picture":"http://photos.doctoralia.com/635217547365143604_1.jpg","registration_number":"","salutation":"","services":"","speciality":"Anátomopatologista","subspecialities":""}},{"url":"http://www.doctoralia.com.br/medico/ana+paula+torres+schor-11924069","doctor": {"address":{"1":{"address":{"lat":-23.5655034,"lng":-46.6501717,"locality":"01403-001","location":"01403-001 São Paulo, São Paulo SP","street":"Al. Joaquim Eugenio de Lima, 383 (Jardim Paulista)"},"insurances":"","misc":"","name":"Pro Matre Paulista","phone":"(11) 3269-2233","working_hours":""}},"education":{},"experience":"","name":"Ana Paula Torres Schor","picture":"http://photos.doctoralia.com/635217547365143604_1.jpg","registration_number":"","salutation":"","services":"","speciality":"Anátomopatologista","subspecialities":""}},{"url":"http://www.doctoralia.com.br/medico/katia+maciel+pincerato-11962920","doctor": {"address":{"1":{"address":{"lat":-23.5837935,"lng":-46.6110737,"locality":"04262-000","location":"04262-000 São Paulo, São Paulo SP","street":"Av. Nazaré, 28, (Ipiranga)"},"insurances":"","misc":"","name":"Hospital Ipiranga","phone":"(11) 2067-7799","working_hours":""}},"education":{},"experience":"","name":"Katia Maciel Pincerato","picture":"http://photos.doctoralia.com/635217547365143604_1.jpg","registration_number":"","salutation":"","services":"","speciality":"Anátomopatologista","subspecialities":""}},{"url":"http://www.doctoralia.com.br/medico/monique+camila+basso-11962921","doctor": {"address":{"1":{"address":{"lat":-23.5837935,"lng":-46.6110737,"locality":"04262-000","location":"04262-000 São Paulo, São Paulo SP","street":"Av. Nazaré, 28, (Ipiranga)"},"insurances":"","misc":"","name":"Hospital Ipiranga","phone":"(11) 2067-7799","working_hours":""}},"education":{},"experience":"","name":"Monique Camila Basso","picture":"http://photos.doctoralia.com/635217547365143604_1.jpg","registration_number":"","salutation":"","services":"","speciality":"Anátomopatologista","subspecialities":""}},{"url":"http://www.doctoralia.com.br/medico/jose+donato+de+prospero-11987543","doctor": {"address":{"1":{"address":{"lat":-23.5427318,"lng":-46.6489045,"locality":"01221-020","location":"01221-020 São Paulo, São Paulo SP","street":"R. Dr. Cesario Motta Jr, 112 (Vila Buarque)"},"insurances":"","misc":"","name":"Santa Casa de São Paulo Hospital Central","phone":"(11) 2176-7000","working_hours":""}},"education":{},"experience":"","name":"Jose Donato de Prospero","picture":"http://photos.doctoralia.com/635217547365143604_1.jpg","registration_number":"","salutation":"","services":"","speciality":"Anátomopatologista","subspecialities":""}},{"url":"http://www.doctoralia.com.br/medico/maria+de+fatima+araujo+nascimento-11987544","doctor": {"address":{"1":{"address":{"lat":-23.5427318,"lng":-46.6489045,"locality":"01221-020","location":"01221-020 São Paulo, São Paulo SP","street":"R. Dr. Cesario Motta Jr, 112 (Vila Buarque)"},"insurances":"","misc":"","name":"Santa Casa de São Paulo Hospital Central","phone":"(11) 2176-7000","working_hours":""}},"education":{},"experience":"","name":"Maria de Fatima Araujo Nascimento","picture":"http://photos.doctoralia.com/635217547365143604_1.jpg","registration_number":"","salutation":"","services":"","speciality":"Anátomopatologista","subspecialities":""}},{"url":"http://www.doctoralia.com.br/medico/dino+martini+filho-11987546","doctor": {"address":{"1":{"address":{"lat":-23.5427318,"lng":-46.6489045,"locality":"01221-020","location":"01221-020 São Paulo, São Paulo SP","street":"R. Dr. Cesario Motta Jr, 112 (Vila Buarque)"},"insurances":"","misc":"","name":"Santa Casa de São Paulo Hospital Central","phone":"(11) 2176-7000","working_hours":""}},"education":{},"experience":"","name":"Dino Martini Filho","picture":"http://photos.doctoralia.com/635217547365143604_1.jpg","registration_number":"","salutation":"","services":"","speciality":"Anátomopatologista","subspecialities":""}},{"url":"http://www.doctoralia.com.br/medico/maria+fernanda+carriel+amary-11987549","doctor": {"address":{"1":{"address":{"lat":-23.5427318,"lng":-46.6489045,"locality":"01221-020","location":"01221-020 São Paulo, São Paulo SP","street":"R. Dr. Cesario Motta Jr, 112 (Vila Buarque)"},"insurances":"","misc":"","name":"Santa Casa de São Paulo Hospital Central","phone":"(11) 2176-7000","working_hours":""}},"education":{},"experience":"","name":"Maria Fernanda Carriel Amary","picture":"http://photos.doctoralia.com/635217547365143604_1.jpg","registration_number":"","salutation":"","services":"","speciality":"Anátomopatologista","subspecialities":""}},{"url":"http://www.doctoralia.com.br/medico/marilia+germanos+de+castro-11987550","doctor": {"address":{"1":{"address":{"lat":-23.5427318,"lng":-46.6489045,"locality":"01221-020","location":"01221-020 São Paulo, São Paulo SP","street":"R. Dr. Cesario Motta Jr, 112 (Vila Buarque)"},"insurances":"","misc":"","name":"Santa Casa de São Paulo Hospital Central","phone":"(11) 2176-7000","working_hours":""}},"education":{},"experience":"","name":"Marilia Germanos de Castro","picture":"http://photos.doctoralia.com/635217547365143604_1.jpg","registration_number":"","salutation":"","services":"","speciality":"Anátomopatologista","subspecialities":""}},{"url":"http://www.doctoralia.com.br/medico/cristiane+maria+de+freitas+ribeiro-11987551","doctor": {"address":{"1":{"address":{"lat":-23.5427318,"lng":-46.6489045,"locality":"01221-020","location":"01221-020 São Paulo, São Paulo SP","street":"R. Dr. Cesario Motta Jr, 112 (Vila Buarque)"},"insurances":"","misc":"","name":"Santa Casa de São Paulo Hospital Central","phone":"(11) 2176-7000","working_hours":""}},"education":{},"experience":"","name":"Cristiane Maria de Freitas Ribeiro","picture":"http://photos.doctoralia.com/635217547365143604_1.jpg","registration_number":"","salutation":"","services":"","speciality":"Anátomopatologista","subspecialities":""}},{"url":"http://www.doctoralia.com.br/medico/priscila+pizzo+crem+dos+santos-11987552","doctor": {"address":{"1":{"address":{"lat":-23.5427318,"lng":-46.6489045,"locality":"01221-020","location":"01221-020 São Paulo, São Paulo SP","street":"R. Dr. Cesario Motta Jr, 112 (Vila Buarque)"},"insurances":"","misc":"","name":"Santa Casa de São Paulo Hospital Central","phone":"(11) 2176-7000","working_hours":""}},"education":{},"experience":"","name":"Priscila Pizzo Crem dos Santos","registration_number":"","salutation":"","services":"","speciality":"Anátomopatologista","subspecialities":""}},{"url":"http://www.doctoralia.com.br/medico/eduardo+sampaio+patricio+de+moraes-11987553","doctor": {"address":{"1":{"address":{"lat":-23.5427318,"lng":-46.6489045,"locality":"01221-020","location":"01221-020 São Paulo, São Paulo SP","street":"R. Dr. Cesario Motta Jr, 112 (Vila Buarque)"},"insurances":"","misc":"","name":"Santa Casa de São Paulo Hospital Central","phone":"(11) 2176-7000","working_hours":""}},"education":{},"experience":"","name":"Eduardo Sampaio Patricio de Moraes","picture":"http://photos.doctoralia.com/635217547365143604_1.jpg","registration_number":"","salutation":"","services":"","speciality":"Anátomopatologista","subspecialities":""}},{"url":"http://www.doctoralia.com.br/medico/liana+brasileiro+piantino-11987554","doctor": {"address":{"1":{"address":{"lat":-23.5427318,"lng":-46.6489045,"locality":"01221-020","location":"01221-020 São Paulo, São Paulo SP","street":"R. Dr. Cesario Motta Jr, 112 (Vila Buarque)"},"insurances":"","misc":"","name":"Santa Casa de São Paulo Hospital Central","phone":"(11) 2176-7000","working_hours":""}},"education":{},"experience":"","name":"Liana Brasileiro Piantino","registration_number":"","salutation":"","services":"","speciality":"Anátomopatologista","subspecialities":""}},{"url":"http://www.doctoralia.com.br/medico/fernanda+e+silva+lopes+de+pontes-11987555","doctor": {"address":{"1":{"address":{"lat":-23.5427318,"lng":-46.6489045,"locality":"01221-020","location":"01221-020 São Paulo, São Paulo SP","street":"R. Dr. Cesario Motta Jr, 112 (Vila Buarque)"},"insurances":"","misc":"","name":"Santa Casa de São Paulo Hospital Central","phone":"(11) 2176-7000","working_hours":""}},"education":{},"experience":"","name":"Fernanda e Silva Lopes de Pontes","picture":"http://photos.doctoralia.com/635217547365143604_1.jpg","registration_number":"","salutation":"","services":"","speciality":"Anátomopatologista","subspecialities":""}},{"url":"http://www.doctoralia.com.br/medico/ana+claudia+theodoro+lima+savoia-11987556","doctor": {"address":{"1":{"address":{"lat":-23.5427318,"lng":-46.6489045,"locality":"01221-020","location":"01221-020 São Paulo, São Paulo SP","street":"R. Dr. Cesario Motta Jr, 112 (Vila Buarque)"},"insurances":"","misc":"","name":"Santa Casa de São Paulo Hospital Central","phone":"(11) 2176-7000","working_hours":""}},"education":{},"experience":"","name":"Ana Claudia Theodoro Lima Savoia","registration_number":"","salutation":"","services":"","speciality":"Anátomopatologista","subspecialities":""}},{"url":"http://www.doctoralia.com.br/medico/rodrigo+lopes+pessoa+da+silva-11987557","doctor": {"address":{"1":{"address":{"lat":-23.5427318,"lng":-46.6489045,"locality":"01221-020","location":"01221-020 São Paulo, São Paulo SP","street":"R. Dr. Cesario Motta Jr, 112 (Vila Buarque)"},"insurances":"","misc":"","name":"Santa Casa de São Paulo Hospital Central","phone":"(11) 2176-7000","working_hours":""}},"education":{},"experience":"","name":"Rodrigo Lopes Pessoa da Silva","picture":"http://photos.doctoralia.com/635217547365143604_1.jpg","registration_number":"","salutation":"","services":"","speciality":"Anátomopatologista","subspecialities":""}},{"url":"http://www.doctoralia.com.br/medico/adriana+oliveira+do+nascimento-11987558","doctor": {"address":{"1":{"address":{"lat":-23.5427318,"lng":-46.6489045,"locality":"01221-020","location":"01221-020 São Paulo, São Paulo SP","street":"R. Dr. Cesario Motta Jr, 112 (Vila Buarque)"},"insurances":"","misc":"","name":"Santa Casa de São Paulo Hospital Central","phone":"(11) 2176-7000","working_hours":""}},"education":{},"experience":"","name":"Adriana Oliveira do Nascimento","picture":"http://photos.doctoralia.com/635217547365143604_1.jpg","registration_number":"","salutation":"","services":"","speciality":"Anátomopatologista","subspecialities":""}},{"url":"http://www.doctoralia.com.br/medico/ronaldo+curvello+dalmaso-11987559","doctor": {"address":{"1":{"address":{"lat":-23.5427318,"lng":-46.6489045,"locality":"01221-020","location":"01221-020 São Paulo, São Paulo SP","street":"R. Dr. Cesario Motta Jr, 112 (Vila Buarque)"},"insurances":"","misc":"","name":"Santa Casa de São Paulo Hospital Central","phone":"(11) 2176-7000","working_hours":""}},"education":{},"experience":"","name":"Ronaldo Curvello Dalmaso","picture":"http://photos.doctoralia.com/635217547365143604_1.jpg","registration_number":"","salutation":"","services":"","speciality":"Anátomopatologista","subspecialities":""}},{"url":"http://www.doctoralia.com.br/medico/juliana+abeche+fermozelli-11987560","doctor": {"address":{"1":{"address":{"lat":-23.5427318,"lng":-46.6489045,"locality":"01221-020","location":"01221-020 São Paulo, São Paulo SP","street":"R. Dr. Cesario Motta Jr, 112 (Vila Buarque)"},"insurances":"","misc":"","name":"Santa Casa de São Paulo Hospital Central","phone":"(11) 2176-7000","working_hours":""}},"education":{},"experience":"","name":"Juliana Abeche Fermozelli","registration_number":"","salutation":"","services":"","speciality":"Anátomopatologista","subspecialities":""}},{"url":"http://www.doctoralia.com.br/medico/rute+facchini+vellis-11987563","doctor": {"address":{"1":{"address":{"lat":-23.5427318,"lng":-46.6489045,"locality":"01221-020","location":"01221-020 São Paulo, São Paulo SP","street":"R. Dr. Cesario Motta Jr, 112 (Vila Buarque)"},"insurances":"","misc":"","name":"Santa Casa de São Paulo Hospital Central","phone":"(11) 2176-7000","working_hours":""}},"education":{},"experience":"","name":"Rute Facchini Vellis","picture":"http://photos.doctoralia.com/635217547365143604_1.jpg","registration_number":"","salutation":"","services":"","speciality":"Anátomopatologista","subspecialities":""}}]}