{"webData": [{"url":"http://www.doctoralia.com.br/medico/abensur+athanazio+rodrigo-12806004","doctor": {"address":{"1":{"address":{"lat":-23.5786565,"lng":-46.640031099999,"locality":"04101-000","location":"04101-000 São Paulo, São Paulo SP","street":"Rua Vergueiro, 1855 - conj 131 (Vila Mariana)"},"insurances":"Pacientes privados (sem plano de saúde)","misc":"","name":"Consultório","phone":"11 2503-2888, 11 2503-2887","working_hours":"Quinta-feira a tarde"}},"education":{"1":{"degree":"Título de epecialista em Clínica Mèdica","institute":"UNIFESP","year":"2007"},"2":{"degree":"Título de Especialista em Pneumologia","institute":"Faculdade de Medicina - Universidade de São Paulo - USP","year":"2009"},"3":{"degree":"Diretor de divulgação","institute":"Sociedade Paulista de Pneumologia","year":"2014"}},"experience":"","name":"Rodrigo Abensur Athanazio","picture":"http://photos.doctoralia.com/V2634997519197418138_2.jpg","registration_number":"122658","salutation":"Dr","services":"Asma, Bronquiectasia, Bronquiolite, Bronquite, Bronquite Crônica, Câncer de pulmão, Doença Pulmonar Obstrutiva Crônica, Embolia, Fibrose Cística, Fibrose Pulmonar, Pneumonia, Tosse","speciality":"Médico clínico, Pneumologista","subspecialities":"Asma, Doença Pulmonar Obstrutiva Crônica (EPOC), Sono - Ventilação Mecânica - CRC, Tabagismo, Tuberculose e Infecções Respiratórias"}},{"url":"http://www.doctoralia.com.br/medico/igor+bastos+polonio-11987756","doctor": {"address":{"1":{"address":{"lat":-23.5313916,"lng":-46.665599,"locality":"05014000","location":"05014000 São Paulo, São Paulo SP","street":"Rua Monte Alegre,47, Perdizes, São Paulo (Perdizes)"},"insurances":"Pacientes privados (sem plano de saúde)","misc":"","name":"Consultório","phone":"01138626362","working_hours":""},"2":{"address":{"lat":-23.5416013,"lng":-46.6493336,"locality":"01224000","location":"01224000 São Paulo, São Paulo SP","street":"Rua Jaguaribe, 144, Higienópolis, São Paulo (Higienópolis)"},"insurances":"Pacientes privados (sem plano de saúde)","misc":"","name":"Consultório","phone":"(011)28215222","working_hours":""}},"education":{},"experience":"","name":"Igor Bastos Polonio","registration_number":"","salutation":"","services":"","speciality":"Pneumologista","subspecialities":"","website":"http://www.drigorpolonio.com"}},{"url":"http://www.doctoralia.com.br/medico/carvalho+de+fassio+mariangela-10591744","doctor": {"address":{"1":{"address":{"lat":-23.6174295,"lng":-46.6753563,"locality":"04603-003","location":"04603-003 São Paulo, São Paulo SP","street":"Av. Vereador José Diniz, 3457 (cj 1109) (Campo Belo)"},"insurances":"Pacientes privados (sem plano de saúde), Bradesco Saúde, Sul América Saúde","misc":"","name":"Consultório","phone":"(11) 5049-0187","working_hours":"tarde"}},"education":{},"experience":"Asma, Broncopneumonia, Bronquite, Dispnéia","name":"Mariangela Carvalho de Fassio","picture":"http://photos.doctoralia.com/635506337880861590_1.jpg","registration_number":"44","salutation":"Dra","services":"Avaliação pré-operatória, Check up, Diagnostico E/Ou Primeiro Atendimento Em Clinica Cirurgica","speciality":"Médico clínico, Pneumologista","subspecialities":"Asma, Doença Pulmonar Obstrutiva Crônica (EPOC), Tabagismo, Tuberculose e Infecções Respiratórias"}},{"url":"http://www.doctoralia.com.br/medico/andrade+marcelo+jorge+de+souza+leao-12900177","doctor": {"address":{"1":{"address":{"lat":-23.5584906,"lng":-46.6552681,"locality":"01409001","location":"01409001 São Paulo, São Paulo SP","street":"Rua Peixoto Gomide 515 (conjunto 74) (Cerqueira Cesar)"},"insurances":"","misc":"","name":"Consultório","phone":"11 25075896, 11 37745896","working_hours":"seg a sab - 8:30h as 21h"}},"education":{"1":{"degree":"Residência Médica em Pneumolgia","institute":"Hospital das Clínicas - SP / INCOR / USP","year":"2007"},"2":{"degree":"Titulo de Especialista em Pneumologia","institute":"Sociedade Brasileira de Pneumologia","year":"2009"},"3":{"degree":"Título de Especialista em Medicina do Sono","institute":"Sociedade Brasileira de Medicina do Sono","year":"2009"}},"experience":"Bronquite, Enfisema, Pneumonia, Tosse","name":"Marcelo Jorge de Souza Leão Andrade","picture":"http://photos.doctoralia.com/635136540490787973_1.jpg","registration_number":"118088","salutation":"Dr","services":"Polissonografia , Provas de função pulmonar","speciality":"Médico clínico, Pneumologista","subspecialities":"Medicina de Urgência, Sono - Ventilação Mecânica - CRC"}},{"url":"http://www.doctoralia.com.br/medico/meira+dias+olivia-12336122","doctor": {"address":{"1":{"address":{"lat":-23.5567714,"lng":-46.6549247,"locality":"01308000","location":"01308000 São Paulo, São Paulo SP","street":"Rua Barata Ribeiro, 490 - conjunto 75-77 (Bela Vista)"},"insurances":"Pacientes privados (sem plano de saúde)","misc":"","name":"Consultório","phone":"3237-3771","working_hours":""},"2":{"address":{"lat":-23.5535033,"lng":-46.6530007,"locality":"01307001","location":"01307001 São Paulo, São Paulo SP","street":"Rua Frei Caneca 558 cj 601 (Consolação)"},"insurances":"Pacientes privados (sem plano de saúde)","misc":"","name":"Instituto Benvita","phone":"35548048","working_hours":""}},"education":{"1":{"degree":"Graduação em Medicina","institute":"Universidade Estadual de Campinas","year":"2006"},"2":{"degree":"Residência em Clínica Médica","institute":"Hospital das Clínicas da Universidade de São Paulo","year":"2008"},"3":{"degree":"Título de Especialista em Clínica Médica","institute":"Sociedade Brasileira de Clínica Médica","year":"2008"}},"experience":"","name":"Olívia Meira Dias","picture":"http://photos.doctoralia.com/635583367484782809_1.jpg","registration_number":"","salutation":"Dra","services":"Alveolite Alérgica Extrínseca, Anormalidades Do Sistema Respiratório, Asma, Broncopatias","speciality":"Pneumologista","subspecialities":""}},{"url":"http://www.doctoralia.com.br/medico/ricardo+frison+claudio-14804276","doctor": {"address":{"1":{"address":{"lat":-23.5425909,"lng":-46.573698,"locality":"03308-030","location":"03308-030 São Paulo, São Paulo SP","street":"Rua Cel. Joaquim Antonio Dias, 316 A (Tatuapé)"},"insurances":"Pacientes privados (sem plano de saúde), Unimed, Marítima, Omint","misc":"","name":"Consultório","phone":"01120983399","working_hours":""}},"education":{"1":{"degree":"TE PNEUMOLOGIA","institute":"SBPT","year":"1996"},"2":{"degree":"Residência","institute":"HSPE SP","year":"1996"},"3":{"degree":"DOUTORADO","institute":"UNIFESP","year":"2002"}},"experience":"","name":"Claudio Ricardo Frison","picture":"http://photos.doctoralia.com/V2634997519197418138_2.jpg","registration_number":"","salutation":"Dr","services":"Asma, Bronquite, Doença Pulmonar Obstrutiva Crônica, Enfisema Pulmonar","speciality":"Pneumologista","subspecialities":""}},{"url":"http://www.doctoralia.com.br/medico/stephan+samia-14793776","doctor": {"address":{"1":{"address":{"lat":-23.603673,"lng":-46.6590382,"locality":"04088001","location":"04088001 São Paulo, São Paulo SP","street":"alameda dos jurupis, 455, cj 63 (moema)"},"insurances":"Pacientes privados (sem plano de saúde), Bradesco Saúde, Cesp, Omint, Saude Caixa, nipomed","misc":"","name":"Consultório","phone":"11- 5052-4646, 11-5052-4676","working_hours":""}},"education":{"1":{"degree":"mestrado","institute":"unifesp","year":"2007"}},"experience":"Asma, Doença Pulmonar Obstrutiva Crônica, Doenças Pulmonares Intersticiais, Enfisema","name":"Samia Stephan","picture":"http://photos.doctoralia.com/V2634997519197418138_2.jpg","registration_number":"","salutation":"Dra","services":"Espirometria, Provas de função pulmonar","speciality":"Pneumologista","subspecialities":""}},{"url":"http://www.doctoralia.com.br/medico/pfingsten+luis+eduardo-14816237","doctor": {"address":{"1":{"address":{"lat":-23.5646051,"lng":-46.6668951,"locality":"01413100","location":"01413100 São Paulo, São Paulo SP","street":"Rua Augusta 2709 (sala 26) (Cerqueira César)"},"insurances":"Pacientes privados (sem plano de saúde)","misc":"","name":"Bv Especialidades Médicas","phone":"11942224433, 11970608558","working_hours":""},"2":{"address":{"lat":-23.6341107,"lng":-46.6368876,"locality":"04313000","location":"04313000 São Paulo, São Paulo SP","street":"Avenida Leonardo Da Vinci, 68 (Vila Guarani)"},"insurances":"Pacientes privados (sem plano de saúde), Allianz Saúde, Cassi, Intermédica, Marítima, Notre Dame, Omint, Saude Caixa, Classes laboriosas,  e 2 maisPrevent Sênior, Santamalia","misc":"","name":"Regener","phone":"1123898881, 1123898882","working_hours":""}},"education":{"1":{"degree":"Graduação","institute":"Faculdade de medicina do abc","year":"2008"},"2":{"degree":"Residência médica em pneumologia","institute":"Escola Paulista de Medicina - UNIFESP","year":"2013"}},"experience":"","name":"Luis Eduardo Pfingsten","picture":"http://photos.doctoralia.com/V2634997519197418138_2.jpg","registration_number":"136023","salutation":"","services":"Asma, Doença Pulmonar Obstrutiva Crônica, Síndromes Da Apnéia Do Sono, Tosse","speciality":"Pneumologista","subspecialities":""}},{"url":"http://www.doctoralia.com.br/medico/grieger+banholzer+eric-12898278","doctor": {"address":{"1":{"address":{"lat":-23.6183358,"lng":-46.6485236,"locality":"04063004","location":"04063004 São Paulo, São Paulo SP","street":"Av. Indianópolis, 2300 (Moema) (Moema)"},"insurances":"","misc":"","name":"Consultório","phone":"11-30712220, 11-96315-4143","working_hours":""}},"education":{"1":{"degree":"Título de especialista em Clínica Médica","institute":"Universidade Federal de São Paulo","year":"2009"},"2":{"degree":"Título de especialista em Pneumologia","institute":"Universidade Federal de São Paulo","year":"2011"}},"experience":"","name":"Eric Grieger Banholzer","picture":"http://photos.doctoralia.com/635115045250629143_1.jpg","registration_number":"123605","salutation":"Dr","services":"","speciality":"Médico clínico, Pneumologista","subspecialities":""}},{"url":"http://www.doctoralia.com.br/medico/barbosa+kawano+dourado+leticia-11869446","doctor": {"address":{"1":{"address":{"lat":-23.5409318,"lng":-46.6556491,"locality":"01228900","location":"01228900 São Paulo, São Paulo SP","street":"Centro Médico Angélica\nAvenida Angélica, 916 conjunto 405 (Higienópolis)"},"insurances":"","misc":"","name":"Consultório","phone":"38261422","working_hours":""}},"education":{"1":{"degree":"Medicina","institute":"Universidade de Brasilia (UnB)","year":"2002"},"2":{"degree":"Residencia em Pneumologia","institute":"Hospital das Clinicas da Faculdade de Medicina da Universidade de São Paulo","year":"2010"},"3":{"degree":"Doutorado em Pneumologia (em curso, ano de ingresso)","institute":"Hospital das Clinicas da Faculdade de Medicina da Universidade de São Paulo","year":"2012"}},"experience":"","name":"Leticia Barbosa Kawano Dourado","picture":"http://photos.doctoralia.com/V2634997519197418138_2.jpg","registration_number":"","salutation":"Dra","services":"","speciality":"Pneumologista","subspecialities":""}},{"url":"http://www.doctoralia.com.br/medico/jane+schucman+szmid-10600862","doctor": {"address":{"1":{"address":{"lat":-23.6787332,"lng":-46.6349189,"locality":"04417-100","location":"04417-100 São Paulo, São Paulo SP","street":"Rua Afonso Braz, 525 - Cj. 31 (Vila Nova Conceicao)"},"insurances":"Pacientes privados (sem plano de saúde), Cassi","misc":"","name":"Consultório","phone":"","working_hours":""}},"education":{},"experience":"","name":"Jane Schucman Szmid","picture":"http://photos.doctoralia.com/V2634997519197418138_2.jpg","registration_number":"","salutation":"Dra","services":"","speciality":"Pneumologista","subspecialities":""}},{"url":"http://www.doctoralia.com.br/medico/nivaldo+cassiano+bachichi-10589227","doctor": {"address":{"1":{"address":{"lat":-23.5689168,"lng":-46.6467856,"locality":"1310-000","location":"1310-000 São Paulo, São Paulo SP","street":"Paulista, 326 (5º And.) (Liberdade)"},"insurances":"Pacientes privados (sem plano de saúde)","misc":"","name":"Consultório","phone":"...","working_hours":""}},"education":{},"experience":"","name":"Nivaldo Cassiano Bachichi","picture":"http://photos.doctoralia.com/635185573388834498_2.jpg","registration_number":"","salutation":"Dr","services":"Pneumotórax","speciality":"Cirurgião torácico, Pneumologista","subspecialities":""}},{"url":"http://www.doctoralia.com.br/medico/fuad+mitre-10604965","doctor": {"address":{"1":{"address":{"lat":-23.5957288,"lng":-46.6355864,"locality":"4120-050","location":"4120-050 São Paulo, São Paulo SP","street":"Dr. Thirso Martins, 100 - Cj. 312/313 (Vl. Mariana)"},"insurances":"Pacientes privados (sem plano de saúde), Unimed","misc":"","name":"Consultório","phone":"115-5758","working_hours":""}},"education":{},"experience":"","name":"Fuad Mitre","picture":"http://photos.doctoralia.com/V2634997519197418138_2.jpg","registration_number":"","salutation":"Dr","services":"","speciality":"Cirurgião torácico, Pneumologista","subspecialities":""}},{"url":"http://www.doctoralia.com.br/medico/hora+adriana-14788588","doctor": {"address":{"1":{"address":{"lat":-23.5562726,"lng":-46.6555254,"locality":"01409001","location":"01409001 São Paulo, São Paulo SP","street":"Rua Peixoto Gomide, 263 (Jardins)"},"insurances":"Pacientes privados (sem plano de saúde)","misc":"","name":"Centro Medico Hospital Nove de Julho","phone":"3147-8967, 3147-8857","working_hours":""},"2":{"address":{"lat":-23.5564639,"lng":-46.6528008,"locality":"01308000","location":"01308000 São Paulo, São Paulo SP","street":"Rua Barata Ribeiro, 237 (Bela vista)"},"insurances":"","misc":"","name":"Consultório","phone":"3211-1200","working_hours":""}},"education":{},"experience":"","name":"Adriana Hora","picture":"http://photos.doctoralia.com/V2634997519197418138_2.jpg","registration_number":"","salutation":"Dra","services":"","speciality":"Pneumologista","subspecialities":"Sono - Ventilação Mecânica - CRC"}},{"url":"http://www.doctoralia.com.br/medico/tito+cesar+dos+santos+nery-10582883","doctor": {"address":{"1":{"address":{"lat":-23.5025795,"lng":-46.6269152,"locality":"2013-000","location":"2013-000 São Paulo, São Paulo SP","street":"Dr. Cesar, 62 (1º And.) (Santana)"},"insurances":"Pacientes privados (sem plano de saúde), Unimed","misc":"","name":"Consultório","phone":"(11) 2976-8272, (11) 2976-2643","working_hours":""}},"education":{},"experience":"","name":"Tito Cesar dos Santos Nery","picture":"http://photos.doctoralia.com/V2634997519197418138_2.jpg","registration_number":"","salutation":"Dr","services":"","speciality":"Pneumologista","subspecialities":""}},{"url":"http://www.doctoralia.com.br/medico/karin+rosatto+kelma-11629569","doctor": {"address":{"1":{"address":{"lat":-23.5896725,"lng":-46.6731512,"locality":"04532-070","location":"04532-070 São Paulo, São Paulo SP","street":"Rua João Clímaco Pereira, 51"},"insurances":"","misc":"","name":"Consultório","phone":"(11)3845-3800","working_hours":""}},"education":{},"experience":"","name":"Kelma Karin Rosatto","picture":"http://photos.doctoralia.com/V2634997519197418138_2.jpg","registration_number":"","salutation":"Dra","services":"","speciality":"Pneumologista","subspecialities":""}},{"url":"http://www.doctoralia.com.br/medico/luiz+bacarini+leite-10596395","doctor": {"address":{"1":{"address":{"lat":-23.5266188,"lng":-46.5480419,"locality":"03633-000","location":"03633-000 São Paulo, São Paulo SP","street":"Rua Major Angelo Zanchi, 121"},"insurances":"Pacientes privados (sem plano de saúde), Cassi","misc":"","name":"Consultório","phone":"","working_hours":""}},"education":{},"experience":"","name":"Luiz Bacarini Leite","picture":"http://photos.doctoralia.com/V2634997519197418138_2.jpg","registration_number":"","salutation":"Dr","services":"","speciality":"Pneumologista","subspecialities":""}},{"url":"http://www.doctoralia.com.br/medico/neiva+damasceno-11987762","doctor": {"address":{"1":{"address":{"lat":-23.5427318,"lng":-46.6489045,"locality":"01221-020","location":"01221-020 São Paulo, São Paulo SP","street":"R. Dr. Cesario Motta Jr, 112 (Vila Buarque)"},"insurances":"","misc":"","name":"Santa Casa de São Paulo Hospital Central","phone":"(11) 2176-7000","working_hours":""}},"education":{},"experience":"","name":"Neiva Damasceno","picture":"http://photos.doctoralia.com/V2634997519197418138_2.jpg","registration_number":"","salutation":"","services":"Pneumonia","speciality":"Pneumologista","subspecialities":""}},{"url":"http://www.doctoralia.com.br/medico/nely+fiks+iara-10602096","doctor": {"address":{"1":{"address":{"lat":-23.5896725,"lng":-46.6731512,"locality":"4532-070","location":"4532-070 São Paulo, São Paulo SP","street":"Dr. João Climaco Pereira, 51 (Itaim Bibi)"},"insurances":"Pacientes privados (sem plano de saúde)","misc":"","name":"Consultório","phone":"(11) 3845-3800","working_hours":""}},"education":{},"experience":"","name":"Iara Nely Fiks","picture":"http://photos.doctoralia.com/V2634997519197418138_2.jpg","registration_number":"57580","salutation":"Dra","services":"Asma","speciality":"Pneumologista","subspecialities":""}},{"url":"http://www.doctoralia.com.br/medico/marcus+vinicius+v+cavalcanti-10593767","doctor": {"address":{"1":{"address":{"lat":-23.5330872,"lng":-46.5307379,"locality":"3508-010","location":"3508-010 São Paulo, São Paulo SP","street":"Cel. Pedro Dias de Campos, 1240 (Vl. Matilde)"},"insurances":"Pacientes privados (sem plano de saúde), Unimed","misc":"","name":"Consultório","phone":"(11) 6651-6726","working_hours":""}},"education":{},"experience":"","name":"Marcus Vinícius V","picture":"http://photos.doctoralia.com/V2634997519197418138_2.jpg","registration_number":"","salutation":"Dr","services":"","speciality":"Pneumologista","subspecialities":""}},{"url":"http://www.doctoralia.com.br/medico/faraco+rodrigues+rafael-12336654","doctor": {"address":{"1":{"address":{"lat":-23.5493576,"lng":-46.5586088,"locality":"03313000","location":"03313000 São Paulo, São Paulo SP","street":"RUA CORTA VENTO 26 (TATUAPÉ)"},"insurances":"","misc":"","name":"Consultório","phone":"2307-1551","working_hours":""}},"education":{},"experience":"","name":"Rafael Faraco Rodrigues","picture":"http://photos.doctoralia.com/V2634997519197418138_2.jpg","registration_number":"117755","salutation":"Dr","services":"","speciality":"Pneumologista","subspecialities":""}},{"url":"http://www.doctoralia.com.br/medico/jorge+barros+afiune-10600284","doctor": {"address":{"1":{"address":{"lat":-23.5541878,"lng":-46.6594157,"locality":"01415-000","location":"01415-000 São Paulo, São Paulo SP","street":"Rua Bela Cintra, 746 - Cj. 616º Andar (Consolacao)"},"insurances":"Pacientes privados (sem plano de saúde), Cassi","misc":"","name":"Consultório","phone":"","working_hours":""}},"education":{},"experience":"","name":"Jorge Barros Afiune","picture":"http://photos.doctoralia.com/V2634997519197418138_2.jpg","registration_number":"","salutation":"Dr","services":"","speciality":"Pneumologista","subspecialities":""}},{"url":"http://www.doctoralia.com.br/medico/alessandra+garcia+braz-11962957","doctor": {"address":{"1":{"address":{"lat":-23.5837935,"lng":-46.6110737,"locality":"04262-000","location":"04262-000 São Paulo, São Paulo SP","street":"Av. Nazaré, 28, (Ipiranga)"},"insurances":"","misc":"","name":"Hospital Ipiranga","phone":"(11) 2067-7799","working_hours":""}},"education":{},"experience":"","name":"Alessandra Garcia Braz","picture":"http://photos.doctoralia.com/V2634997519197418138_2.jpg","registration_number":"","salutation":"","services":"Embolia, Embolia Pulmonar","speciality":"Pneumologista","subspecialities":""}},{"url":"http://www.doctoralia.com.br/medico/rosemary+farias+alves-10585253","doctor": {"address":{"1":{"address":{"lat":-23.5955631,"lng":-46.6476467,"locality":"04026-000","location":"04026-000 São Paulo, São Paulo SP","street":"Rua Bacelar, 173 - Conj. 103 (Vila Clementina)"},"insurances":"Pacientes privados (sem plano de saúde), Unimed","misc":"","name":"Consultório","phone":"(11) 5083-3964, (11) 5575-0673","working_hours":""}},"education":{},"experience":"","name":"Rosemary Farias Alves","picture":"http://photos.doctoralia.com/V2634997519197418138_2.jpg","registration_number":"","salutation":"Dra","services":"","speciality":"Cirurgião torácico, Pneumologista","subspecialities":""}},{"url":"http://www.doctoralia.com.br/medico/simone+perez+pilli-10584325","doctor": {"address":{"1":{"address":{"lat":-23.5426756,"lng":-46.651989,"locality":"01224-010","location":"01224-010 São Paulo, São Paulo SP","street":"R. Martinico Prado, 90"},"insurances":"Pacientes privados (sem plano de saúde), Bradesco Saúde, Cassi, Notre Dame","misc":"","name":"Consultório","phone":"(11) 3667-1343","working_hours":""}},"education":{},"experience":"","name":"Simone Perez Pilli","picture":"http://photos.doctoralia.com/V2635318135048249015_2.jpg","registration_number":"","salutation":"Dra","services":"","speciality":"Pneumologista, Endoscopista","subspecialities":"Endoscopia Digestiva, Endoscopia Respiratória"}},{"url":"http://www.doctoralia.com.br/medico/ricardo+santos+coelho-10586602","doctor": {"address":{"1":{"address":{"lat":-23.5500328,"lng":-46.658528999999,"locality":"01239-040","location":"01239-040 São Paulo, São Paulo SP","street":"Rua Mato Grosso, 306 - Cj 816 (Higienópolis)"},"insurances":"Pacientes privados (sem plano de saúde), Mediservice","misc":"","name":"Consultório","phone":"(11) 2114-6171","working_hours":""}},"education":{},"experience":"","name":"Ricardo Santos Coelho","picture":"http://photos.doctoralia.com/V2634997519197418138_2.jpg","registration_number":"","salutation":"Dr","services":"","speciality":"Médico clínico, Pneumologista","subspecialities":""}},{"url":"http://www.doctoralia.com.br/medico/elkis+furlanetto+ct+diag+an+clin-10606480","doctor": {"address":{"1":{"address":{"lat":-23.5518222,"lng":-46.6608802,"locality":"01228-200","location":"01228-200 São Paulo, São Paulo SP","street":"Av. Angelica, 2250 (Consolacao)"},"insurances":"Pacientes privados (sem plano de saúde), Cassi","misc":"","name":"Consultório","phone":"","working_hours":""}},"education":{},"experience":"","name":"Elkis Furlanetto Ct Diag An Clin","picture":"http://photos.doctoralia.com/635248868558301025_2.jpg","registration_number":"","salutation":"Dr","services":"","speciality":"Neurologista, Gastroenterologista","subspecialities":""}},{"url":"http://www.doctoralia.com.br/medico/de+negreiros+echevarria+joseba+andoni-10598704","doctor": {"address":{"1":{"address":{"lat":-23.550615,"lng":-46.6604197,"locality":"01228-200","location":"01228-200 São Paulo, São Paulo SP","street":"Av. Angelica, 2100 (cj 14) (Consolação)"},"insurances":"","misc":"","name":"Consultório","phone":"(11) 3129-8440","working_hours":""}},"education":{},"experience":"","name":"Joseba Andoni de Negreiros Echevarria","picture":"http://photos.doctoralia.com/V2634997519197418138_2.jpg","registration_number":"","salutation":"Dr","services":"","speciality":"Pneumologista","subspecialities":""}},{"url":"http://www.doctoralia.com.br/medico/gomes+mauro-11898087","doctor": {"address":{"1":{"address":{"lat":-23.5399061,"lng":-46.6614896,"locality":"01232-010","location":"01232-010 São Paulo, São Paulo SP","street":"Rua Conselheiro Brotero, 1539 (cj 111)"},"insurances":"","misc":"","name":"Consultório","phone":"","working_hours":""},"2":{"address":{"lat":-23.5013583,"lng":-46.6224622,"locality":"02035-010","location":"02035-010 São Paulo, São Paulo SP","street":"R. Dr. Zuquim, 449 (cj 74) (Santana)"},"insurances":"","misc":"","name":"Consultório","phone":"","working_hours":""}},"education":{},"experience":"","name":"Mauro Gomes","picture":"http://photos.doctoralia.com/V2634997519197418138_2.jpg","registration_number":"","salutation":"Dr","services":"","speciality":"Pneumologista","subspecialities":""}},{"url":"http://www.doctoralia.com.br/medico/roberto+rincon+galves+junior-12091306","doctor": {"address":{"1":{"address":{"lat":-23.530642,"lng":-46.5994896,"locality":"03021-040","location":"03021-040 São Paulo, São Paulo SP","street":"R. Jequitinhonha, 360\n (Belém)"},"insurances":"","misc":"","name":"PAM Maria Zélia","phone":"","working_hours":""}},"education":{},"experience":"","name":"Roberto Rincon Galves Junior","picture":"http://photos.doctoralia.com/V2634997519197418138_2.jpg","registration_number":"","salutation":"","services":"","speciality":"Pneumologista","subspecialities":""}},{"url":"http://www.doctoralia.com.br/medico/jose+roberto+jardim-11868805","doctor": {"address":{"1":{"address":{"lat":-23.5968869,"lng":-46.6606822,"locality":"04032-060","location":"04032-060 São Paulo, São Paulo SP","street":"Rua dos Acores, 310 (Jdim Lusitania)"},"insurances":"","misc":"","name":"Lar Escola Sao Francisco","phone":"(11) 5904-8000","working_hours":""}},"education":{},"experience":"","name":"Jose Roberto Jardim","picture":"http://photos.doctoralia.com/V2634997519197418138_2.jpg","registration_number":"","salutation":"","services":"","speciality":"Pneumologista","subspecialities":""}},{"url":"http://www.doctoralia.com.br/medico/valeria+cristina+vigar+martins-11987755","doctor": {"address":{"1":{"address":{"lat":-23.5427318,"lng":-46.6489045,"locality":"01221-020","location":"01221-020 São Paulo, São Paulo SP","street":"R. Dr. Cesario Motta Jr, 112 (Vila Buarque)"},"insurances":"","misc":"","name":"Santa Casa de São Paulo Hospital Central","phone":"","working_hours":""}},"education":{},"experience":"","name":"Valeria Cristina Vigar Martins","picture":"http://photos.doctoralia.com/V2634997519197418138_2.jpg","registration_number":"","salutation":"","services":"","speciality":"Pneumologista","subspecialities":""}},{"url":"http://www.doctoralia.com.br/medico/carmela+caporrino-11870129","doctor": {"address":{"1":{"address":{"lat":-23.5373656,"lng":-46.5888692,"locality":"03014-020","location":"03014-020 São Paulo, São Paulo SP","street":"Praca Major Guilherme Rudge, 91 (Belem)"},"insurances":"","misc":"","name":"Medthorax Pneumologia E Cirurgia Toracica","phone":"","working_hours":""}},"education":{},"experience":"","name":"Carmela Caporrino","picture":"http://photos.doctoralia.com/V2634997519197418138_2.jpg","registration_number":"","salutation":"","services":"","speciality":"Pneumologista","subspecialities":""}},{"url":"http://www.doctoralia.com.br/medico/vanessa+regina+ferreira-11987758","doctor": {"address":{"1":{"address":{"lat":-23.5427318,"lng":-46.6489045,"locality":"01221-020","location":"01221-020 São Paulo, São Paulo SP","street":"R. Dr. Cesario Motta Jr, 112 (Vila Buarque)"},"insurances":"","misc":"","name":"Santa Casa de São Paulo Hospital Central","phone":"(11) 2176-7000","working_hours":""}},"education":{},"experience":"","name":"Vanessa Regina Ferreira","picture":"http://photos.doctoralia.com/V2634997519197418138_2.jpg","registration_number":"","salutation":"","services":"","speciality":"Pneumologista","subspecialities":""}},{"url":"http://www.doctoralia.com.br/medico/fiss+elie-10606829","doctor": {"address":{"1":{"address":{"lat":-23.5663341,"lng":-46.6431822,"locality":"01327-010","location":"01327-010 São Paulo, São Paulo SP","street":"Rua Martiniano de Carvalho 864"},"insurances":"","misc":"","name":"Consultório","phone":"(11) 3284-7772","working_hours":""}},"education":{},"experience":"","name":"Elie Fiss","picture":"http://photos.doctoralia.com/V2634997519197418138_2.jpg","registration_number":"35958","salutation":"Dr","services":"","speciality":"Pneumologista","subspecialities":""}},{"url":"http://www.doctoralia.com.br/medico/roberto+stirbulov-11987750","doctor": {"address":{"1":{"address":{"lat":-23.5427318,"lng":-46.6489045,"locality":"01221-020","location":"01221-020 São Paulo, São Paulo SP","street":"R. Dr. Cesario Motta Jr, 112 (Vila Buarque)"},"insurances":"","misc":"","name":"Santa Casa de São Paulo Hospital Central","phone":"(11) 2176-7000","working_hours":""}},"education":{},"experience":"","name":"Roberto Stirbulov","picture":"http://photos.doctoralia.com/V2634997519197418138_2.jpg","registration_number":"","salutation":"","services":"","speciality":"Pneumologista","subspecialities":""}},{"url":"http://www.doctoralia.com.br/medico/jorge+ethel+filho-11987747","doctor": {"address":{"1":{"address":{"lat":-23.5427318,"lng":-46.6489045,"locality":"01221-020","location":"01221-020 São Paulo, São Paulo SP","street":"R. Dr. Cesario Motta Jr, 112 (Vila Buarque)"},"insurances":"","misc":"","name":"Santa Casa de São Paulo Hospital Central","phone":"(11) 2176-7000","working_hours":""}},"education":{},"experience":"","name":"Jorge Ethel Filho","picture":"http://photos.doctoralia.com/V2634997519197418138_2.jpg","registration_number":"","salutation":"","services":"","speciality":"Pneumologista","subspecialities":""}},{"url":"http://www.doctoralia.com.br/medico/amilcar+marcelo+bigatao-11868801","doctor": {"address":{"1":{"address":{"lat":-23.5968869,"lng":-46.6606822,"locality":"04032-060","location":"04032-060 São Paulo, São Paulo SP","street":"Rua dos Acores, 310 (Jdim Lusitania)"},"insurances":"","misc":"","name":"Lar Escola Sao Francisco","phone":"(11) 5904-8000","working_hours":""}},"education":{},"experience":"","name":"Amilcar Marcelo Bigatao","picture":"http://photos.doctoralia.com/V2634997519197418138_2.jpg","registration_number":"","salutation":"","services":"","speciality":"Pneumologista","subspecialities":""}},{"url":"http://www.doctoralia.com.br/medico/rafael+faraco+rodrigues-11987759","doctor": {"address":{"1":{"address":{"lat":-23.5427318,"lng":-46.6489045,"locality":"01221-020","location":"01221-020 São Paulo, São Paulo SP","street":"R. Dr. Cesario Motta Jr, 112 (Vila Buarque)"},"insurances":"","misc":"","name":"Santa Casa de São Paulo Hospital Central","phone":"(11) 2176-7000","working_hours":""}},"education":{},"experience":"","name":"Rafael Faraco Rodrigues","picture":"http://photos.doctoralia.com/V2634997519197418138_2.jpg","registration_number":"","salutation":"","services":"","speciality":"Pneumologista","subspecialities":""}},{"url":"http://www.doctoralia.com.br/medico/luzia+helena+nigro+pedroso-12033722","doctor": {"address":{"1":{"address":{"lat":-23.5505199,"lng":-46.633309399999,"locality":"x","location":"x São Paulo, São Paulo SP","street":"x"},"insurances":"","misc":"","name":"Consultório","phone":"1934117121","working_hours":""},"2":{"address":{"lat":-22.7358374,"lng":-47.6471994,"locality":"13400-000","location":"13400-000 Piracicaba, São Paulo SP","street":"Avenida Independência, 789"},"insurances":"","misc":"","name":"Santa Casa de Piracicaba","phone":"(19) 3417-5000","working_hours":""}},"education":{},"experience":"","name":"Luzia Helena Nigro Pedroso","picture":"http://photos.doctoralia.com/V2634997519197418138_2.jpg","registration_number":"","salutation":"","services":"","speciality":"Pneumologista","subspecialities":""}},{"url":"http://www.doctoralia.com.br/medico/vera+lucia+da+gama+e+silva+volpe-11962955","doctor": {"address":{"1":{"address":{"lat":-23.5837935,"lng":-46.6110737,"locality":"04262-000","location":"04262-000 São Paulo, São Paulo SP","street":"Av. Nazaré, 28, (Ipiranga)"},"insurances":"","misc":"","name":"Hospital Ipiranga","phone":"(11) 2067-7799","working_hours":""}},"education":{},"experience":"","name":"Vera Lucia da Gama e Silva Volpe","picture":"http://photos.doctoralia.com/V2634997519197418138_2.jpg","registration_number":"","salutation":"","services":"","speciality":"Pneumologista","subspecialities":""}},{"url":"http://www.doctoralia.com.br/medico/carla+guerra+ribeiro-11880861","doctor": {"address":{"1":{"address":{"lat":-23.5680342,"lng":-46.6207423,"locality":"01540-000","location":"01540-000 São Paulo, São Paulo SP","street":"Rua Herminio Lemos, 385 (Cambuci)"},"insurances":"","misc":"","name":"Santamalia Saude Cambuci","phone":"(11) 3278-1000","working_hours":""}},"education":{},"experience":"","name":"Carla Guerra Ribeiro","picture":"http://photos.doctoralia.com/V2634997519197418138_2.jpg","registration_number":"","salutation":"","services":"","speciality":"Pneumologista","subspecialities":""}},{"url":"http://www.doctoralia.com.br/medico/bernardo+kiertsman-11987749","doctor": {"address":{"1":{"address":{"lat":-23.5427318,"lng":-46.6489045,"locality":"01221-020","location":"01221-020 São Paulo, São Paulo SP","street":"R. Dr. Cesario Motta Jr, 112 (Vila Buarque)"},"insurances":"","misc":"","name":"Santa Casa de São Paulo Hospital Central","phone":"(11) 2176-7000","working_hours":""}},"education":{},"experience":"","name":"Bernardo Kiertsman","picture":"http://photos.doctoralia.com/V2634997519197418138_2.jpg","registration_number":"","salutation":"","services":"","speciality":"Pneumologista","subspecialities":""}},{"url":"http://www.doctoralia.com.br/medico/eduardo+de+aguiar+ferone-11987757","doctor": {"address":{"1":{"address":{"lat":-23.5427318,"lng":-46.6489045,"locality":"01221-020","location":"01221-020 São Paulo, São Paulo SP","street":"R. Dr. Cesario Motta Jr, 112 (Vila Buarque)"},"insurances":"","misc":"","name":"Santa Casa de São Paulo Hospital Central","phone":"(11) 2176-7000","working_hours":""}},"education":{},"experience":"","name":"Eduardo de Aguiar Ferone","picture":"http://photos.doctoralia.com/V2634997519197418138_2.jpg","registration_number":"","salutation":"","services":"","speciality":"Pneumologista","subspecialities":""}},{"url":"http://www.doctoralia.com.br/medico/eduardo+henrique+genofre-10607439","doctor": {"address":{"1":{"address":{"lat":-23.5684796,"lng":-46.6479499,"locality":"01311-000","location":"01311-000 São Paulo, São Paulo SP","street":"Av. Paulista, 491 (Bela Vista)"},"insurances":"Pacientes privados (sem plano de saúde), Cesp, Golden Cross, Omint, Sul América Saúde","misc":"","name":"Consultório","phone":"(11) 3253-6576","working_hours":""}},"education":{},"experience":"","name":"Eduardo Henrique Genofre","picture":"http://photos.doctoralia.com/V2634997519197418138_2.jpg","registration_number":"","salutation":"Dr","services":"","speciality":"Pneumologista","subspecialities":""}},{"url":"http://www.doctoralia.com.br/medico/mario+antonio+faria+pires-10591544","doctor": {"address":{"1":{"address":{"lat":-23.5841925,"lng":-46.557882799999,"locality":"3116-000","location":"3116-000 São Paulo, São Paulo SP","street":"Oratorio, 709 (Mooca)"},"insurances":"Pacientes privados (sem plano de saúde), Unimed","misc":"","name":"Consultório","phone":"116-6010","working_hours":""}},"education":{},"experience":"","name":"Mario Antonio Faria Pires","picture":"http://photos.doctoralia.com/V2634997519197418138_2.jpg","registration_number":"","salutation":"Dr","services":"","speciality":"Pneumologista","subspecialities":""}},{"url":"http://www.doctoralia.com.br/medico/maria+elisa+ruffolo+magliari-10592698","doctor": {"address":{"1":{"address":{"lat":-23.558802,"lng":-46.651678999999,"locality":"1332-000","location":"1332-000 São Paulo, São Paulo SP","street":"Itapeva, 240 - Sl. 1605/1606 (Paraíso)"},"insurances":"Pacientes privados (sem plano de saúde), Unimed","misc":"","name":"Consultório","phone":"113-2533, (34) 3266-4652","working_hours":""}},"education":{},"experience":"","name":"Maria Elisa Ruffolo Magliari","picture":"http://photos.doctoralia.com/V2634997519197418138_2.jpg","registration_number":"","salutation":"Dra","services":"","speciality":"Pneumologista","subspecialities":""}},{"url":"http://www.doctoralia.com.br/medico/fernando+gomes+de+araujo-10605135","doctor": {"address":{"1":{"address":{"lat":-23.5238963,"lng":-46.7001415,"locality":"5041-001","location":"5041-001 São Paulo, São Paulo SP","street":"Faustolo, 1515 (Lapa)"},"insurances":"Pacientes privados (sem plano de saúde), Unimed","misc":"","name":"Consultório","phone":"(11) 3873-8609","working_hours":""}},"education":{},"experience":"","name":"Fernando Gomes de Araújo","picture":"http://photos.doctoralia.com/V2634997519197418138_2.jpg","registration_number":"","salutation":"Dr","services":"","speciality":"Pneumologista","subspecialities":""}},{"url":"http://www.doctoralia.com.br/medico/jefferson+benedito+pires+de+freitas-10601026","doctor": {"address":{"1":{"address":{"lat":-23.5835363,"lng":-46.6768013,"locality":"4533-012","location":"4533-012 São Paulo, São Paulo SP","street":"Tabapuã, 649 - Cj. 47 (Itaim Bibi)"},"insurances":"Pacientes privados (sem plano de saúde), Unimed","misc":"","name":"Consultório","phone":"113-0784","working_hours":""}},"education":{},"experience":"","name":"Jefferson Benedito Pires de Freitas","picture":"http://photos.doctoralia.com/V2634997519197418138_2.jpg","registration_number":"","salutation":"Dr","services":"","speciality":"Pneumologista","subspecialities":""}},{"url":"http://www.doctoralia.com.br/medico/jorge+nakatani-10599521","doctor": {"address":{"1":{"address":{"lat":-23.5555295,"lng":-46.461576099999,"locality":"8270-070","location":"8270-070 São Paulo, São Paulo SP","street":"Santa Marcelina, 289 (Vl. Carmosina)"},"insurances":"Pacientes privados (sem plano de saúde), Unimed","misc":"","name":"Consultório","phone":"116-5275","working_hours":""}},"education":{},"experience":"","name":"Jorge Nakatani","picture":"http://photos.doctoralia.com/V2634997519197418138_2.jpg","registration_number":"","salutation":"Dr","services":"","speciality":"Pneumologista","subspecialities":""}},{"url":"http://www.doctoralia.com.br/medico/daniela+gagliardi+n+miranda-10608797","doctor": {"address":{"1":{"address":{"lat":-23.5981119,"lng":-46.6464514,"locality":"4039-020","location":"4039-020 São Paulo, São Paulo SP","street":"Pedro de Toledo, 980 - Cj. 55 (Vl. Clementino)"},"insurances":"Pacientes privados (sem plano de saúde), Unimed","misc":"","name":"Consultório","phone":"(11) 5083-5336","working_hours":""}},"education":{},"experience":"","name":"Daniela Gagliardi N Miranda","picture":"http://photos.doctoralia.com/V2634997519197418138_2.jpg","registration_number":"","salutation":"Dra","services":"","speciality":"Pneumologista","subspecialities":""}},{"url":"http://www.doctoralia.com.br/medico/carlos+roberto+vono-10610210","doctor": {"address":{"1":{"address":{"lat":-23.5767697,"lng":-46.6413825,"locality":"4104-000","location":"4104-000 São Paulo, São Paulo SP","street":"Correa Dias, 184 - Cj. 55 (Paraíso)"},"insurances":"","misc":"","name":"Consultório","phone":"115-5753","working_hours":""}},"education":{},"experience":"","name":"Carlos Roberto Vono","picture":"http://photos.doctoralia.com/635185573388834498_2.jpg","registration_number":"","salutation":"Dr","services":"","speciality":"Cirurgião torácico, Pneumologista","subspecialities":""}},{"url":"http://www.doctoralia.com.br/medico/valmar+queiroz+medeiros-10582670","doctor": {"address":{"1":{"address":{"lat":-23.5505199,"lng":-46.633309399999,"locality":"16066-090","location":"16066-090 São Paulo, São Paulo SP","street":"R Conselheiro Crispiniano, 40 - Salas 804/805 (Centro)"},"insurances":"Pacientes privados (sem plano de saúde), Geap","misc":"","name":"Consultório","phone":"(10) 2236-7395","working_hours":""}},"education":{},"experience":"","name":"Valmar Queiroz Medeiros","picture":"http://photos.doctoralia.com/V2634997519197418138_2.jpg","registration_number":"","salutation":"Dr","services":"","speciality":"Pneumologista","subspecialities":""}},{"url":"http://www.doctoralia.com.br/medico/paulo+cesar+bastos+vieira-10588889","doctor": {"address":{"1":{"address":{"lat":-23.5259395,"lng":-46.7140644,"locality":"05078-000","location":"05078-000 São Paulo, São Paulo SP","street":"R Brigadeiro Gaviao Peixoto, 389 (Lapa)"},"insurances":"","misc":"","name":"Inst.Kencis de Medicina S/C Ltda","phone":"(11) 3832-9880","working_hours":""}},"education":{},"experience":"","name":"Paulo Cesar Bastos Vieira","picture":"http://photos.doctoralia.com/V2634997519197418138_2.jpg","registration_number":"","salutation":"Dr","services":"","speciality":"Pneumologista, Intensivista","subspecialities":""}},{"url":"http://www.doctoralia.com.br/medico/jose+antonio+dos+s+freire-10600049","doctor": {"address":{"1":{"address":{"lat":-23.5043747,"lng":-46.6077963,"locality":"2066-000","location":"2066-000 São Paulo, São Paulo SP","street":"Ida da Silva, 441 (Vl. Guilherme)"},"insurances":"Pacientes privados (sem plano de saúde), Unimed","misc":"","name":"Consultório","phone":"(11) 6906-2913","working_hours":""}},"education":{},"experience":"","name":"Jose Antonio dos S","picture":"http://photos.doctoralia.com/V2634997519197418138_2.jpg","registration_number":"","salutation":"Dr","services":"","speciality":"Pneumologista","subspecialities":""}},{"url":"http://www.doctoralia.com.br/medico/rached+samia-12798101","doctor": {"address":{"1":{"address":{"lat":-23.5500328,"lng":-46.658528999999,"locality":"01239-040","location":"01239-040 São Paulo, São Paulo SP","street":"R. Mato Grosso, 306 (16° andar, cj 1602) (Higienópolis)"},"insurances":"","misc":"","name":"Instituto Abathon - Medicina e Saúde","phone":"(11) 2114-6080","working_hours":""}},"education":{},"experience":"","name":"Samia Rached","picture":"http://photos.doctoralia.com/V2634997519197418138_2.jpg","registration_number":"","salutation":"Dra","services":"","speciality":"Pneumologista","subspecialities":"Asma"}},{"url":"http://www.doctoralia.com.br/medico/ferreira+rozin+gabriel-12798118","doctor": {"address":{"1":{"address":{"lat":-23.5500328,"lng":-46.658528999999,"locality":"01239-040","location":"01239-040 São Paulo, São Paulo SP","street":"R. Mato Grosso, 306 (16° andar, cj 1602) (Higienópolis)"},"insurances":"","misc":"","name":"Instituto Abathon - Medicina e Saúde","phone":"(11) 2114-6080","working_hours":""}},"education":{},"experience":"","name":"Gabriel Ferreira Rozin","picture":"http://photos.doctoralia.com/V2635265117725969798_2.jpg","registration_number":"","salutation":"Dr","services":"","speciality":"Médico clínico, Pneumologista","subspecialities":""}},{"url":"http://www.doctoralia.com.br/medico/jose+antonio+dos+santos+freire-10600050","doctor": {"address":{"1":{"address":{"lat":-23.5043747,"lng":-46.6077963,"locality":"02066-000","location":"02066-000 São Paulo, São Paulo SP","street":"Rua Ida da Silva, 441 (Carandiru)"},"insurances":"Pacientes privados (sem plano de saúde), Unimed","misc":"","name":"Consultório","phone":"","working_hours":""}},"education":{},"experience":"","name":"Jose Antonio dos Santos Freire","picture":"http://photos.doctoralia.com/V2634997519197418138_2.jpg","registration_number":"","salutation":"Dr","services":"","speciality":"Pneumologista","subspecialities":""}},{"url":"http://www.doctoralia.com.br/medico/nelson+morrone+junior-11962956","doctor": {"address":{"1":{"address":{"lat":-23.5837935,"lng":-46.6110737,"locality":"04262-000","location":"04262-000 São Paulo, São Paulo SP","street":"Av. Nazaré, 28, (Ipiranga)"},"insurances":"","misc":"","name":"Hospital Ipiranga","phone":"(11) 2067-7799","working_hours":""}},"education":{},"experience":"","name":"Nelson Morrone Junior","picture":"http://photos.doctoralia.com/V2634997519197418138_2.jpg","registration_number":"","salutation":"","services":"","speciality":"Pneumologista","subspecialities":""}},{"url":"http://www.doctoralia.com.br/medico/geraldo+lorenzi+filho-11870128","doctor": {"address":{"1":{"address":{"lat":-23.5373656,"lng":-46.5888692,"locality":"03014-020","location":"03014-020 São Paulo, São Paulo SP","street":"Praca Major Guilherme Rudge, 91 (Belem)"},"insurances":"","misc":"","name":"Medthorax Pneumologia E Cirurgia Toracica","phone":"(11) 6291-0050, (11) 6694-1090, (11) 6694-1090","working_hours":""}},"education":{},"experience":"","name":"Geraldo Lorenzi Filho","picture":"http://photos.doctoralia.com/V2634997519197418138_2.jpg","registration_number":"","salutation":"","services":"","speciality":"Pneumologista","subspecialities":""}},{"url":"http://www.doctoralia.com.br/medico/marice+ashidani-11868698","doctor": {"address":{"1":{"address":{"lat":-23.5505199,"lng":-46.633309399999,"locality":"05001-000","location":"05001-000 São Paulo, São Paulo SP","street":"Avenida Francisco Matarazzo, 74 / Terreo (Perdizes)"},"insurances":"","misc":"","name":"Seconci","phone":"(11) 3664--5050","working_hours":""}},"education":{},"experience":"","name":"Marice Ashidani","picture":"http://photos.doctoralia.com/V2634997519197418138_2.jpg","registration_number":"","salutation":"","services":"","speciality":"Pneumologista","subspecialities":""}},{"url":"http://www.doctoralia.com.br/medico/zuel+carlos+tassi-12086989","doctor": {"address":{"1":{"address":{"lat":-23.568108,"lng":-46.6437544,"locality":"01327-010","location":"01327-010 São Paulo, São Paulo SP","street":"Praça Amadeu Amaral , 47, 8º andar, cj. 84-B. (Bela Vista)"},"insurances":"","misc":"","name":"Consultório","phone":"(11)3283-4787","working_hours":""}},"education":{},"experience":"","name":"Zuel Carlos Tassi","picture":"http://photos.doctoralia.com/V2634997519197418138_2.jpg","registration_number":"","salutation":"","services":"","speciality":"Pneumologista","subspecialities":""}},{"url":"http://www.doctoralia.com.br/medico/luis+roberto+prado+rodrigues-11898127","doctor": {"address":{"1":{"address":{"lat":-23.5314633,"lng":-46.6529967,"locality":"01230-000","location":"01230-000 São Paulo, São Paulo SP","street":"Rua Dr Albuquerque Lins, 40 (Santa Cecilia)"},"insurances":"","misc":"","name":"Sae Dstaids Campos Eliseos","phone":"(11) 3825-3766","working_hours":""}},"education":{},"experience":"","name":"Luis Roberto Prado Rodrigues","picture":"http://photos.doctoralia.com/V2634997519197418138_2.jpg","registration_number":"","salutation":"","services":"","speciality":"Pneumologista","subspecialities":""}},{"url":"http://www.doctoralia.com.br/medico/benedito+juarez+de+andrade-11987748","doctor": {"address":{"1":{"address":{"lat":-23.5427318,"lng":-46.6489045,"locality":"01221-020","location":"01221-020 São Paulo, São Paulo SP","street":"R. Dr. Cesario Motta Jr, 112 (Vila Buarque)"},"insurances":"","misc":"","name":"Santa Casa de São Paulo Hospital Central","phone":"(11) 2176-7000","working_hours":""}},"education":{},"experience":"","name":"Benedito Juarez de Andrade","picture":"http://photos.doctoralia.com/V2634997519197418138_2.jpg","registration_number":"","salutation":"","services":"","speciality":"Pneumologista","subspecialities":""}},{"url":"http://www.doctoralia.com.br/medico/juliana+leite+s+guedes-11987763","doctor": {"address":{"1":{"address":{"lat":-23.5427318,"lng":-46.6489045,"locality":"01221-020","location":"01221-020 São Paulo, São Paulo SP","street":"R. Dr. Cesario Motta Jr, 112 (Vila Buarque)"},"insurances":"","misc":"","name":"Santa Casa de São Paulo Hospital Central","phone":"(11) 2176-7000","working_hours":""}},"education":{},"experience":"","name":"Juliana Leite S Guedes","picture":"http://photos.doctoralia.com/V2634997519197418138_2.jpg","registration_number":"","salutation":"","services":"","speciality":"Pneumologista","subspecialities":""}},{"url":"http://www.doctoralia.com.br/medico/roberto+mauricio+delman-12090269","doctor": {"address":{"1":{"address":{"lat":-23.5518862,"lng":-46.6301201,"locality":"01019-900","location":"01019-900 São Paulo, São Paulo SP","street":"Rua do Carmo, 171 (Centro)"},"insurances":"","misc":"","name":"Sindicato Dos Metalurgicos","phone":"(11) 3115-4066","working_hours":""}},"education":{},"experience":"","name":"Roberto Mauricio Delman","picture":"http://photos.doctoralia.com/V2634997519197418138_2.jpg","registration_number":"","salutation":"","services":"","speciality":"Pneumologista","subspecialities":""}},{"url":"http://www.doctoralia.com.br/medico/marcelo+francisco+lopes-12091305","doctor": {"address":{"1":{"address":{"lat":-23.530642,"lng":-46.5994896,"locality":"03021-040","location":"03021-040 São Paulo, São Paulo SP","street":"R. Jequitinhonha, 360\n (Belém)"},"insurances":"","misc":"","name":"PAM Maria Zélia","phone":"(11) 6291-3833, (11) 6291-3025","working_hours":""}},"education":{},"experience":"","name":"Marcelo Francisco Lopes","picture":"http://photos.doctoralia.com/V2634997519197418138_2.jpg","registration_number":"","salutation":"","services":"","speciality":"Pneumologista","subspecialities":""}},{"url":"http://www.doctoralia.com.br/medico/oliver+augusto+nascimento-11868800","doctor": {"address":{"1":{"address":{"lat":-23.5968869,"lng":-46.6606822,"locality":"04032-060","location":"04032-060 São Paulo, São Paulo SP","street":"Rua dos Acores, 310 (Jdim Lusitania)"},"insurances":"","misc":"","name":"Lar Escola Sao Francisco","phone":"(11) 5904-8000","working_hours":""}},"education":{},"experience":"","name":"Oliver Augusto Nascimento","picture":"http://photos.doctoralia.com/V2634997519197418138_2.jpg","registration_number":"","salutation":"","services":"","speciality":"Pneumologista","subspecialities":""}},{"url":"http://www.doctoralia.com.br/medico/fernando+sergio+studart+leitao+filho-11868802","doctor": {"address":{"1":{"address":{"lat":-23.5968869,"lng":-46.6606822,"locality":"04032-060","location":"04032-060 São Paulo, São Paulo SP","street":"Rua dos Acores, 310 (Jdim Lusitania)"},"insurances":"","misc":"","name":"Lar Escola Sao Francisco","phone":"(11) 5904-8000","working_hours":""}},"education":{},"experience":"","name":"Fernando Sergio Studart Leitao Filho","picture":"http://photos.doctoralia.com/V2634997519197418138_2.jpg","registration_number":"","salutation":"","services":"","speciality":"Pneumologista","subspecialities":""}},{"url":"http://www.doctoralia.com.br/medico/sergio+rodrigues+de+almeida+santos-11868804","doctor": {"address":{"1":{"address":{"lat":-23.5968869,"lng":-46.6606822,"locality":"04032-060","location":"04032-060 São Paulo, São Paulo SP","street":"Rua dos Acores, 310 (Jdim Lusitania)"},"insurances":"","misc":"","name":"Lar Escola Sao Francisco","phone":"(11) 5904-8000","working_hours":""}},"education":{},"experience":"","name":"Sergio Rodrigues de Almeida Santos","picture":"http://photos.doctoralia.com/V2634997519197418138_2.jpg","registration_number":"","salutation":"","services":"","speciality":"Pneumologista","subspecialities":""}},{"url":"http://www.doctoralia.com.br/medico/sandra+cortez+martins-11869195","doctor": {"address":{"1":{"address":{"lat":-23.5699129,"lng":-46.5898163,"locality":"03124-010","location":"03124-010 São Paulo, São Paulo SP","street":"Rua Emboacava, 556 (Parque da Mooca)"},"insurances":"","misc":"","name":"Promed Serviços Médicos","phone":"(11) 2272-7444","working_hours":""}},"education":{},"experience":"","name":"Sandra Cortez Martins","picture":"http://photos.doctoralia.com/V2634997519197418138_2.jpg","registration_number":"","salutation":"","services":"","speciality":"Pneumologista","subspecialities":""}},{"url":"http://www.doctoralia.com.br/medico/sandra+maria+teixeira-11898202","doctor": {"address":{"1":{"address":{"lat":-23.6437399,"lng":-46.6426045,"locality":"04321-120","location":"04321-120 São Paulo, São Paulo SP","street":"Rua das Perobas, 344 / 4 Andar (Jabaquara)"},"insurances":"","misc":"","name":"Medicina Hiperbarica","phone":"(11) 5011-6658","working_hours":""}},"education":{},"experience":"","name":"Sandra Maria Teixeira","picture":"http://photos.doctoralia.com/V2634997519197418138_2.jpg","registration_number":"","salutation":"","services":"","speciality":"Pneumologista","subspecialities":""}},{"url":"http://www.doctoralia.com.br/medico/tania+lopes+da+silva-11987752","doctor": {"address":{"1":{"address":{"lat":-23.5427318,"lng":-46.6489045,"locality":"01221-020","location":"01221-020 São Paulo, São Paulo SP","street":"R. Dr. Cesario Motta Jr, 112 (Vila Buarque)"},"insurances":"","misc":"","name":"Santa Casa de São Paulo Hospital Central","phone":"","working_hours":""}},"education":{},"experience":"","name":"Tania Lopes da Silva","picture":"http://photos.doctoralia.com/V2634997519197418138_2.jpg","registration_number":"","salutation":"","services":"","speciality":"Pneumologista","subspecialities":""}},{"url":"http://www.doctoralia.com.br/medico/suzianne+ruth+hosanah+lima-11868803","doctor": {"address":{"1":{"address":{"lat":-23.5968869,"lng":-46.6606822,"locality":"04032-060","location":"04032-060 São Paulo, São Paulo SP","street":"Rua dos Acores, 310 (Jdim Lusitania)"},"insurances":"","misc":"","name":"Lar Escola Sao Francisco","phone":"","working_hours":""}},"education":{},"experience":"","name":"Suzianne Ruth Hosanah Lima","registration_number":"","salutation":"","services":"","speciality":"Pneumologista","subspecialities":""}},{"url":"http://www.doctoralia.com.br/medico/rodrigo+russo-11987760","doctor": {"address":{"1":{"address":{"lat":-23.5427318,"lng":-46.6489045,"locality":"01221-020","location":"01221-020 São Paulo, São Paulo SP","street":"R. Dr. Cesario Motta Jr, 112 (Vila Buarque)"},"insurances":"","misc":"","name":"Santa Casa de São Paulo Hospital Central","phone":"(11) 2176-7000","working_hours":""}},"education":{},"experience":"","name":"Rodrigo Russo","picture":"http://photos.doctoralia.com/V2634997519197418138_2.jpg","registration_number":"","salutation":"","services":"","speciality":"Pneumologista","subspecialities":""}},{"url":"http://www.doctoralia.com.br/medico/caio+julio+cesar+dos+santos+fernandes-10611308","doctor": {"address":{"1":{"address":{"lat":-23.5577666,"lng":-46.6546189,"locality":"01308-050","location":"01308-050 São Paulo, São Paulo SP","street":"Rua Adma Jafet, 91 (Cerqueira Cesar)"},"insurances":"","misc":"","name":"Consultório","phone":"(11) 3155-0200","working_hours":""}},"education":{},"experience":"","name":"Caio Julio Cesar dos Santos Fernandes","picture":"http://photos.doctoralia.com/V2634997519197418138_2.jpg","registration_number":"","salutation":"Dr","services":"","speciality":"Pneumologista","subspecialities":""}},{"url":"http://www.doctoralia.com.br/medico/flavio+gnecco+lastebasse-11871113","doctor": {"address":{"1":{"address":{"lat":-23.5088884,"lng":-46.652587999999,"locality":"02514-000","location":"02514-000 São Paulo, São Paulo SP","street":"Avenida Braz Leme, 1793 (Casa Verde)"},"insurances":"","misc":"","name":"Protecor","phone":"(11) 3966-6539, (11) 6256-5544, (11) 6256-5544","working_hours":""}},"education":{},"experience":"","name":"Flavio Gnecco Lastebasse","picture":"http://photos.doctoralia.com/V2634997519197418138_2.jpg","registration_number":"","salutation":"","services":"","speciality":"Pneumologista","subspecialities":""}},{"url":"http://www.doctoralia.com.br/medico/pedro+bes+nugue-11987751","doctor": {"address":{"1":{"address":{"lat":-23.5427318,"lng":-46.6489045,"locality":"01221-020","location":"01221-020 São Paulo, São Paulo SP","street":"R. Dr. Cesario Motta Jr, 112 (Vila Buarque)"},"insurances":"","misc":"","name":"Santa Casa de São Paulo Hospital Central","phone":"(11) 2176-7000","working_hours":""}},"education":{},"experience":"","name":"Pedro Bes Nugue","picture":"http://photos.doctoralia.com/V2634997519197418138_2.jpg","registration_number":"","salutation":"","services":"","speciality":"Pneumologista","subspecialities":""}},{"url":"http://www.doctoralia.com.br/medico/marco+antonio+naletto-11987753","doctor": {"address":{"1":{"address":{"lat":-23.5427318,"lng":-46.6489045,"locality":"01221-020","location":"01221-020 São Paulo, São Paulo SP","street":"R. Dr. Cesario Motta Jr, 112 (Vila Buarque)"},"insurances":"","misc":"","name":"Santa Casa de São Paulo Hospital Central","phone":"(11) 2176-7000","working_hours":""}},"education":{},"experience":"","name":"Marco Antonio Naletto","picture":"http://photos.doctoralia.com/V2634997519197418138_2.jpg","registration_number":"","salutation":"","services":"","speciality":"Pneumologista","subspecialities":""}},{"url":"http://www.doctoralia.com.br/medico/lucia+harumi+muramatu-11987754","doctor": {"address":{"1":{"address":{"lat":-23.5427318,"lng":-46.6489045,"locality":"01221-020","location":"01221-020 São Paulo, São Paulo SP","street":"R. Dr. Cesario Motta Jr, 112 (Vila Buarque)"},"insurances":"","misc":"","name":"Santa Casa de São Paulo Hospital Central","phone":"(11) 2176-7000","working_hours":""}},"education":{},"experience":"","name":"Lucia Harumi Muramatu","picture":"http://photos.doctoralia.com/V2634997519197418138_2.jpg","registration_number":"","salutation":"","services":"","speciality":"Pneumologista","subspecialities":""}},{"url":"http://www.doctoralia.com.br/medico/silvia+portugal+morcerf+casotti+vidaure-11987761","doctor": {"address":{"1":{"address":{"lat":-23.5427318,"lng":-46.6489045,"locality":"01221-020","location":"01221-020 São Paulo, São Paulo SP","street":"R. Dr. Cesario Motta Jr, 112 (Vila Buarque)"},"insurances":"","misc":"","name":"Santa Casa de São Paulo Hospital Central","phone":"(11) 2176-7000","working_hours":""}},"education":{},"experience":"","name":"Silvia Portugal Morcerf Casotti Vidaure","picture":"http://photos.doctoralia.com/V2634997519197418138_2.jpg","registration_number":"","salutation":"","services":"","speciality":"Pneumologista","subspecialities":""}},{"url":"http://www.doctoralia.com.br/medico/celia+mallart+llarges-12018796","doctor": {"address":{"1":{"address":{"lat":-23.6572847,"lng":-46.6537446,"locality":"04378-500","location":"04378-500 São Paulo, São Paulo SP","street":"Av. Santa Catarina, 2785 (Jabaquara)"},"insurances":"","misc":"","name":"Hospital e Maternidade Santa Marina","phone":"(11) 5013-1100","working_hours":""}},"education":{},"experience":"","name":"Celia Mallart Llarges","picture":"http://photos.doctoralia.com/V2634997519197418138_2.jpg","registration_number":"","salutation":"","services":"","speciality":"Pneumologista","subspecialities":""}},{"url":"http://www.doctoralia.com.br/medico/eliana+menezes+paiva+silva-12087874","doctor": {"address":{"1":{"address":{"lat":-23.5566208,"lng":-46.6253464,"locality":"01518-020","location":"01518-020 São Paulo, São Paulo SP","street":"Rua Leopoldo Miguez, 327 (Cambuci)"},"insurances":"","misc":"","name":"Pam Varzea Do Carmo Nga 63","phone":"(11) 3385-7000","working_hours":""}},"education":{},"experience":"","name":"Eliana Menezes Paiva Silva","picture":"http://photos.doctoralia.com/V2634997519197418138_2.jpg","registration_number":"","salutation":"","services":"","speciality":"Pneumologista","subspecialities":""}},{"url":"http://www.doctoralia.com.br/medico/edma+saad-11898103","doctor": {"address":{"1":{"address":{"lat":-23.5542758,"lng":-46.4710757,"locality":"08285-130","location":"08285-130 São Paulo, São Paulo SP","street":"Rua Medio Iguacu, 86 (Cidade Lider)"},"insurances":"","misc":"","name":"Sae Dst Aids Cidade Lider II","phone":"(11) 2748-0255","working_hours":""}},"education":{},"experience":"","name":"Edma Saad","picture":"http://photos.doctoralia.com/V2634997519197418138_2.jpg","registration_number":"","salutation":"","services":"","speciality":"Pneumologista","subspecialities":""}}]}