{"webData": [{"url":"http://www.doctoralia.com.br/medico/fischetti+delgatto+geovanini+patricia-13839249","doctor": {"address":{"1":{"address":{"lat":-23.6266103,"lng":-46.7334282,"locality":"05715-010","location":"05715-010 São Paulo, São Paulo SP","street":"R:Deputado Joao Sussumu Hirata, 790 (Vila Andrade)"},"insurances":"","misc":"","name":"Consultório","phone":"11 37428128","working_hours":"Terca e Quinta à tarde"}},"education":{"1":{"degree":"Medicina","institute":"Faculdade de Ciencias Medicas da Santa Casa de SPaulo","year":"1993"},"2":{"degree":"Otorrinolaringologia","institute":"Casa de Saude Santa Marcelina","year":"1997"},"3":{"degree":"MBA Executivo em Gestao de Saude","institute":"IBMEC São Paulo","year":"2009"}},"experience":"Abscesso Retrofaríngeo, Desvio do septo nasal, Distúrbios Da Voz, Halitose","name":"Patricia Fischetti Delgatto Geovanini","picture":"http://photos.doctoralia.com/634668312135146966_2.jpg","registration_number":"79526","salutation":"Dra","services":"Adenoidectomia, Amigdalectomia, Amigdalectomia Com Ou Sem Adenoidectomia, Atendimento de aparelhos auditivos","speciality":"Otorrinolaringologista, Especialistas em Administração em Saúde","subspecialities":"Distúrbios do Sono"}},{"url":"http://www.doctoralia.com.br/medico/viana+debora-13176458","doctor": {"address":{"1":{"address":{"lat":-23.5358919,"lng":-46.5750413,"locality":"03066020","location":"03066020 São Paulo, São Paulo SP","street":"Rua Soriano de Sousa 189 ( sala 84 ) (Tatuapé)"},"insurances":"","misc":"","name":"Consultório","phone":"967331364","working_hours":"das 9 às 17 horas"}},"education":{"1":{"degree":"Farmacologista","institute":"Faculdade Oswaldo Cruz","year":"1993"},"2":{"degree":"Coach","institute":"Sociedade Brasileira de Coaching","year":"2009"}},"experience":"","name":"Debora Viana","picture":"http://photos.doctoralia.com/635364049142255565_2.jpg","registration_number":"17528","salutation":"Dra","services":"","speciality":"Especialistas em Administração em Saúde","subspecialities":""}},{"url":"http://www.doctoralia.com.br/medico/luiz+eduardo+vitagliano-10595960","doctor": {"address":{"1":{"address":{"lat":-23.5505199,"lng":-46.633309399999,"locality":"01328-001","location":"01328-001 São Paulo, São Paulo SP","street":"R. Maestro Cardim, 769 - Bloco 2 Audit. Interna (Paraíso)"},"insurances":"Pacientes privados (sem plano de saúde), Unimed","misc":"","name":"Consultório","phone":"(11) 3505-2012","working_hours":""}},"education":{},"experience":"","name":"Luiz Eduardo Vitagliano","picture":"http://photos.doctoralia.com/635507434604515669_2.jpg","registration_number":"","salutation":"Dr","services":"","speciality":"Pediatra, Especialistas em Administração em Saúde","subspecialities":""}},{"url":"http://www.doctoralia.com.br/medico/masayuki+nakagawa+junior-10590922","doctor": {"address":{"1":{"address":{"lat":-23.583929,"lng":-46.678599,"locality":"04533-003","location":"04533-003 São Paulo, São Paulo SP","street":"Rua Tabapuã, 821 - Cj 66 (Itaim)"},"insurances":"Pacientes privados (sem plano de saúde), Lincx, Medial saude","misc":"","name":"Consultório","phone":"(11) 3078-0716","working_hours":""}},"education":{},"experience":"","name":"Masayuki Nakagawa Junior","picture":"http://photos.doctoralia.com/V2635265117725969798_2.jpg","registration_number":"","salutation":"Dr","services":"","speciality":"Médico clínico, Especialistas em Administração em Saúde","subspecialities":""}},{"url":"http://www.doctoralia.com.br/medico/costa+fabio-12334034","doctor": {"address":{"1":{"address":{"lat":-23.5903386,"lng":-46.6732254,"locality":"04544-000","location":"04544-000 São Paulo, São Paulo SP","street":"Rua Dr. Alceu de Campos Rodrigues, 95, (Itaim Bibi)"},"insurances":"","misc":"","name":"Hospital São Luiz Unidade Itaim","phone":"(11) 3040-1100","working_hours":""},"2":{"address":{"lat":-22.9866043,"lng":-43.3661299,"locality":"22775-001","location":"22775-001 Rio de Janeiro, Río de Janeiro RJ","street":"Av. Ayrton Senna, 2541 (Barra da Tijuca)"},"insurances":"","misc":"","name":"Hospital Barra D'Or","phone":"(21) 2430-3600","working_hours":""}},"education":{},"experience":"","name":"Fabio Costa","picture":"http://photos.doctoralia.com/635364049142255565_2.jpg","registration_number":"","salutation":"Dr","services":"","speciality":"Especialistas em Administração em Saúde","subspecialities":""}}]}