{"webData": [{"url":"http://www.doctoralia.com.br/medico/geudjenian+daniela-14817817","doctor": {"address":{"1":{"address":{"lat":-23.5529159,"lng":-46.7203269,"locality":"05465070","location":"05465070 São Paulo, São Paulo SP","street":"Av General Furtado Nascimento 740 (cj 36) (Alto de Pinheiros)"},"insurances":"Pacientes privados (sem plano de saúde)","misc":"","name":"Consultório","phone":"30247490","working_hours":""},"2":{"address":{"lat":-23.533319,"lng":-46.7779256,"locality":"06013020","location":"06013020 Osasco, São Paulo SP","street":"Rua João Collino 100 (Centro)"},"insurances":"Pacientes privados (sem plano de saúde), Amil, Bradesco Saúde, Unimed, Dix-Amico, Golden Cross, Medial saude, Mediservice, Notre Dame","misc":"","name":"Consultório","phone":"36840579","working_hours":""}},"education":{"1":{"degree":"Médica","institute":"Faculdade de Ciências Médicas da Santa Casa de São Paulo","year":"1997"},"2":{"degree":"Residência em Cirurgia Geral","institute":"Santa Casa de São Paulo","year":"2000"},"3":{"degree":"Título de especialista em Cirurgia Pediátrica","institute":"Santa Casa de São Paulo","year":"2003"},"4":{"degree":"Título de Especialista em Cirurgia Pediátrica","institute":"Sociedade Brasileira de Cirurgia Pediátrica","year":"2003"}},"experience":"","name":"Daniela Geudjenian","picture":"http://photos.doctoralia.com/635616580110405058_2.jpg","registration_number":"","salutation":"","services":"Apendicite, Atresia Esofágica, Atresia Intestinal, Cisto Tireoglosso, Criptorquidismo, Fimose, Gastrosquise, Hérnia Inguinal, Hérnia Umbilical","speciality":"Cirurgião pediátrico","subspecialities":"","website":"http://www.cliniclass.com.br"}},{"url":"http://www.doctoralia.com.br/medico/soares+martins-moura+elaine+cristina-14820692","doctor": {"address":{"1":{"address":{"lat":-23.5921137,"lng":-46.6446562,"locality":"04025000","location":"04025000 São Paulo, São Paulo SP","street":"Rua dos Otonis 131 (Vila Clementino)"},"insurances":"Pacientes privados (sem plano de saúde)","misc":"","name":"Consultório","phone":"(11)50844480, (11)55754761","working_hours":""}},"education":{"1":{"degree":"Medicina","institute":"Faculdade de Medicina do ABC","year":"1997"},"2":{"degree":"Residência Médica em Cirurgia Geral","institute":"FAculdade de Medicina do ABC","year":"1999"},"3":{"degree":"Residência Médica em Cirurgia Pediátrica","institute":"Hospital Santa Marcelina","year":"2002"},"4":{"degree":"Título de Especialista em Cirurgia Pediátrica","institute":"AMB / CIPE","year":"2003"},"5":{"degree":"Doutorado em Cirurgia Pediátrica","institute":"Universidade Federal de São Paulo","year":"2007"}},"experience":"","name":"Elaine Cristina Soares Martins-Moura","registration_number":"","salutation":"","services":"Anus Imperfurado, Bexiga Urinaria Neurogênica, Constipação em bebês, Doença De Hirschsprung, Fimose, Fissura Anal, Hérnia Inguinal, Hérnia Umbilical, Hipospadia, Incontinência Fecal","speciality":"Cirurgião pediátrico","subspecialities":""}},{"url":"http://www.doctoralia.com.br/medico/braz+da+silva+albany-10615702","doctor": {"address":{"1":{"address":{"lat":-23.5796218,"lng":-46.645565,"locality":"04011-032","location":"04011-032 São Paulo, São Paulo SP","street":"RUA EÇA DE QUEIROZ, 488 (Vila Mariana)"},"insurances":"Pacientes privados (sem plano de saúde), Cassi","misc":"","name":"Consultório","phone":"(11)5088-6699","working_hours":""}},"education":{},"experience":"","name":"Albany Braz da Silva","picture":"http://photos.doctoralia.com/V2635271488940374368_2.jpg","registration_number":"","salutation":"Dr","services":"","speciality":"Urologista, Cirurgião pediátrico","subspecialities":""}},{"url":"http://www.doctoralia.com.br/medico/napolitano+neto+paschoal-10589166","doctor": {"address":{"1":{"address":{"lat":-23.5674812,"lng":-46.6885807,"locality":"05420-000","location":"05420-000 São Paulo, São Paulo SP","street":"Avenida Pedroso de Morais, 240 - Cj 121 (Pinheiros)"},"insurances":"Pacientes privados (sem plano de saúde), Unimed","misc":"","name":"Consultório","phone":"(11) 3812-4684","working_hours":""}},"education":{},"experience":"","name":"Paschoal Napolitano Neto","picture":"http://photos.doctoralia.com/635616580110405058_2.jpg","registration_number":"19469","salutation":"Dr","services":"Fimose","speciality":"Cirurgião pediátrico","subspecialities":""}},{"url":"http://www.doctoralia.com.br/medico/celia+regina+fuller-10610420","doctor": {"address":{"1":{"address":{"lat":-23.543052,"lng":-46.5758292,"locality":"3306-020","location":"3306-020 São Paulo, São Paulo SP","street":"Icém, 28 (Tatuapé)"},"insurances":"Pacientes privados (sem plano de saúde), Unimed","misc":"","name":"Consultório","phone":"(11) 2296-9715","working_hours":""}},"education":{},"experience":"","name":"Celia Regina Fuller","picture":"http://photos.doctoralia.com/635564212892806326_2.jpg","registration_number":"","salutation":"Dr","services":"","speciality":"Pediatra, Cirurgião pediátrico","subspecialities":""}},{"url":"http://www.doctoralia.com.br/medico/sauro+bagnaresi+junior-10584778","doctor": {"address":{"1":{"address":{"lat":-23.57855,"lng":-46.6338265,"locality":"04107-030","location":"04107-030 São Paulo, São Paulo SP","street":"Rua Guimaraes Passos, 175 (Vila Mariana)"},"insurances":"Pacientes privados (sem plano de saúde), Cassi","misc":"","name":"Consultório","phone":"","working_hours":""}},"education":{},"experience":"","name":"Sauro Bagnaresi Junior","picture":"http://photos.doctoralia.com/635616580110405058_2.jpg","registration_number":"","salutation":"Dr","services":"Hipospadia","speciality":"Cirurgião pediátrico","subspecialities":""}},{"url":"http://www.doctoralia.com.br/medico/armando+mari+jose-10599561","doctor": {"address":{"1":{"address":{"lat":-23.6082614,"lng":-46.6648968,"locality":"4081-010","location":"4081-010 São Paulo, São Paulo SP","street":"Juquis, 273 - Cj. 111 (Moema)"},"insurances":"Pacientes privados (sem plano de saúde), Unimed","misc":"","name":"Consultório","phone":"(11) 5531-2053","working_hours":""}},"education":{},"experience":"","name":"Jose Armando Mari","picture":"http://photos.doctoralia.com/635616580110405058_2.jpg","registration_number":"16039","salutation":"Dr","services":"","speciality":"Cirurgião pediátrico","subspecialities":""}},{"url":"http://www.doctoralia.com.br/medico/antonio+carlos+onofre-10612959","doctor": {"address":{"1":{"address":{"lat":-23.5823998,"lng":-46.6635766,"locality":"4502-000","location":"4502-000 São Paulo, São Paulo SP","street":"República do Líbano, 204 (Ibirapuera)"},"insurances":"Pacientes privados (sem plano de saúde), Unimed","misc":"","name":"Consultório","phone":"(11) 3884-9988","working_hours":""}},"education":{},"experience":"","name":"Antonio Carlos Onofre","picture":"http://photos.doctoralia.com/635616580110405058_2.jpg","registration_number":"","salutation":"Dr","services":"","speciality":"Cirurgião pediátrico","subspecialities":""}},{"url":"http://www.doctoralia.com.br/medico/paulo+chapchap-10588429","doctor": {"address":{"1":{"address":{"lat":-23.5572835,"lng":-46.654814599999,"locality":"01308-050","location":"01308-050 São Paulo, São Paulo SP","street":"Rua Dona Adma Jafet, 50 - 6 Andar (Bela Vista)"},"insurances":"Pacientes privados (sem plano de saúde), Unimed","misc":"","name":"Consultório","phone":"(11) 3214-4184","working_hours":""}},"education":{},"experience":"","name":"Paulo Chapchap","picture":"http://photos.doctoralia.com/635616580110405058_2.jpg","registration_number":"","salutation":"Dr","services":"","speciality":"Cirurgião pediátrico","subspecialities":""}},{"url":"http://www.doctoralia.com.br/medico/antonio+carlos+heinisch-10612931","doctor": {"address":{"1":{"address":{"lat":-23.5479371,"lng":-46.5407801,"locality":"3423-000","location":"3423-000 São Paulo, São Paulo SP","street":"Lutécia, 440 (Vl. Carrão)"},"insurances":"Pacientes privados (sem plano de saúde), Unimed","misc":"","name":"Consultório","phone":"(11) 6941-8574","working_hours":""}},"education":{},"experience":"","name":"Antonio Carlos Heinisch","picture":"http://photos.doctoralia.com/635616580110405058_2.jpg","registration_number":"","salutation":"Dr","services":"","speciality":"Cirurgião pediátrico","subspecialities":""}},{"url":"http://www.doctoralia.com.br/medico/ilan+flank-11986579","doctor": {"address":{"1":{"address":{"lat":-23.5427318,"lng":-46.6489045,"locality":"01221-020","location":"01221-020 São Paulo, São Paulo SP","street":"R. Dr. Cesario Motta Jr, 112 (Vila Buarque)"},"insurances":"","misc":"","name":"Santa Casa de São Paulo Hospital Central","phone":"(11) 2176-7000","working_hours":""}},"education":{},"experience":"","name":"Ilan Flank","picture":"http://photos.doctoralia.com/635616580110405058_2.jpg","registration_number":"","salutation":"","services":"Fimose","speciality":"Cirurgião pediátrico","subspecialities":""}},{"url":"http://www.doctoralia.com.br/medico/luis+felipe+de+araujo+campos-10596013","doctor": {"address":{"1":{"address":{"lat":-23.5466122,"lng":-46.5717023,"locality":"3319-000","location":"3319-000 São Paulo, São Paulo SP","street":"Cantagalo, 231 (Vl. Gomes Cardim)"},"insurances":"Pacientes privados (sem plano de saúde), Unimed","misc":"","name":"Consultório","phone":"116-9414","working_hours":""}},"education":{},"experience":"","name":"Luís Felipe de Araujo Campos","picture":"http://photos.doctoralia.com/635616580110405058_2.jpg","registration_number":"","salutation":"Dr","services":"","speciality":"Cirurgião pediátrico","subspecialities":""}},{"url":"http://www.doctoralia.com.br/medico/andre+ivan+bradley+dos+santos+dias-10613350","doctor": {"address":{"1":{"address":{"lat":-23.5885761,"lng":-46.634819,"locality":"04117-000","location":"04117-000 São Paulo, São Paulo SP","street":"Av. Professor Noé de Azevedo, 208 - Conjunto 112 (Vila Mariana)"},"insurances":"Pacientes privados (sem plano de saúde), Bradesco Saúde, Unimed, Marítima","misc":"","name":"Consultório","phone":"(11) 5573-8416, (11) 7812-8732","working_hours":""}},"education":{},"experience":"","name":"André Ivan Bradley dos Santos Dias","picture":"http://photos.doctoralia.com/635616580110405058_2.jpg","registration_number":"","salutation":"Dr","services":"","speciality":"Cirurgião pediátrico","subspecialities":""}},{"url":"http://www.doctoralia.com.br/medico/sidney+federman-10584243","doctor": {"address":{"1":{"address":{"lat":-23.4920641,"lng":-46.631013,"locality":"02403-011","location":"02403-011 São Paulo, São Paulo SP","street":"Rua Francisca Julia, 602 (Santana)"},"insurances":"Pacientes privados (sem plano de saúde), Geap","misc":"","name":"Consultório","phone":"","working_hours":""}},"education":{},"experience":"","name":"Sidney Federman","picture":"http://photos.doctoralia.com/635616580110405058_2.jpg","registration_number":"","salutation":"Dr","services":"","speciality":"Cirurgião pediátrico","subspecialities":""}},{"url":"http://www.doctoralia.com.br/medico/adriana+saez+caputo-10615845","doctor": {"address":{"1":{"address":{"lat":-23.5674726,"lng":-46.5401003,"locality":"3356-060","location":"3356-060 São Paulo, São Paulo SP","street":"Dr. Sampaio Vidal, 265 - Sl. 55 (Vl. Formosa)"},"insurances":"Pacientes privados (sem plano de saúde), Unimed","misc":"","name":"Consultório","phone":"(11) 6783-2211","working_hours":""}},"education":{},"experience":"","name":"Adriana Saez Caputo","picture":"http://photos.doctoralia.com/635616580110405058_2.jpg","registration_number":"","salutation":"Dra","services":"","speciality":"Cirurgião pediátrico","subspecialities":""}},{"url":"http://www.doctoralia.com.br/medico/longo+dos+santos+luis+ricardo-10596077","doctor": {"address":{"1":{"address":{"lat":-23.5692044,"lng":-46.6449377,"locality":"01333-010","location":"01333-010 São Paulo, São Paulo SP","street":"R. Cincinato Braga, 144 (4° Andar, Sl 23) (Bela Vista)"},"insurances":"Pacientes privados (sem plano de saúde), Unimed","misc":"","name":"Consultório","phone":"...","working_hours":""}},"education":{},"experience":"","name":"Luis Ricardo Longo dos Santos","picture":"http://photos.doctoralia.com/635616580110405058_2.jpg","registration_number":"","salutation":"Dr","services":"","speciality":"Cirurgião pediátrico","subspecialities":""}},{"url":"http://www.doctoralia.com.br/medico/mendes+gibelli+nelson+elias-10589915","doctor": {"address":{"1":{"address":{"lat":-23.5604304,"lng":-46.6606055,"locality":"01411-001","location":"01411-001 São Paulo, São Paulo SP","street":"R. Padre João Manuel, 199 (cj 54) (Jardim Paulista)"},"insurances":"Pacientes privados (sem plano de saúde), Cassi","misc":"","name":"Consultório","phone":"(11) 3063-0659","working_hours":""}},"education":{},"experience":"","name":"Nelson Elias Mendes Gibelli","picture":"http://photos.doctoralia.com/635616580110405058_2.jpg","registration_number":"","salutation":"Dr","services":"","speciality":"Cirurgião pediátrico","subspecialities":""}},{"url":"http://www.doctoralia.com.br/medico/americo+buzas-10614551","doctor": {"address":{"1":{"address":{"lat":-23.5526612,"lng":-46.5267845,"locality":"3446-090","location":"3446-090 São Paulo, São Paulo SP","street":"Astarte, 94/100 (Vl. Carrão)"},"insurances":"Pacientes privados (sem plano de saúde), Unimed","misc":"","name":"Consultório","phone":"116-7815","working_hours":""}},"education":{},"experience":"","name":"Americo Buzas","picture":"http://photos.doctoralia.com/635616580110405058_2.jpg","registration_number":"","salutation":"Dr","services":"","speciality":"Cirurgião pediátrico","subspecialities":""}},{"url":"http://www.doctoralia.com.br/medico/leonardo+hiroki+kawasaki-12091219","doctor": {"address":{"1":{"address":{"lat":-23.530642,"lng":-46.5994896,"locality":"03021-040","location":"03021-040 São Paulo, São Paulo SP","street":"R. Jequitinhonha, 360\n (Belém)"},"insurances":"","misc":"","name":"PAM Maria Zélia","phone":"(11) 6291-3833, (11) 6291-3025","working_hours":""}},"education":{},"experience":"","name":"Leonardo Hiroki Kawasaki","picture":"http://photos.doctoralia.com/635616580110405058_2.jpg","registration_number":"","salutation":"","services":"","speciality":"Cirurgião pediátrico","subspecialities":""}},{"url":"http://www.doctoralia.com.br/medico/maria+ignez+valente-10580522","doctor": {"address":{"1":{"address":{"lat":-23.6400376,"lng":-46.697590899999,"locality":"4738-000","location":"4738-000 São Paulo, São Paulo SP","street":"Marechal Deodoro, 392 (Santo Amaro)"},"insurances":"Pacientes privados (sem plano de saúde), Unimed","misc":"","name":"Consultório","phone":"115-5249","working_hours":""}},"education":{},"experience":"","name":"Maria Ignez Valente","picture":"http://photos.doctoralia.com/635564212892806326_2.jpg","registration_number":"","salutation":"Dra","services":"","speciality":"Pediatra, Cirurgião pediátrico","subspecialities":""}},{"url":"http://www.doctoralia.com.br/medico/schettini+sergio+tomaz-12896654","doctor": {"address":{"1":{"address":{"lat":-23.5500144,"lng":-46.6600405,"locality":"01228-200","location":"01228-200 São Paulo, São Paulo SP","street":"Avenida Angélica 2016, 11° andar sala 112 (Higienópolis)"},"insurances":"","misc":"","name":"Consultório","phone":"555394621, 9.91335857","working_hours":"Vespertino"}},"education":{},"experience":"","name":"Sérgio Tomaz Schettini","picture":"http://photos.doctoralia.com/635616580110405058_2.jpg","registration_number":"","salutation":"Dr","services":"","speciality":"Cirurgião pediátrico","subspecialities":""}},{"url":"http://www.doctoralia.com.br/medico/fabio+chilvarquer-10605651","doctor": {"address":{"1":{"address":{"lat":-23.5399061,"lng":-46.6614896,"locality":"1232-011","location":"1232-011 São Paulo, São Paulo SP","street":"Cons. Brotero, 1539 - Cj. 91 (Higienópolis)"},"insurances":"Pacientes privados (sem plano de saúde), Unimed","misc":"","name":"Consultório","phone":"113-8264","working_hours":""}},"education":{},"experience":"","name":"Fábio Chilvarquer","picture":"http://photos.doctoralia.com/635507434604515669_2.jpg","registration_number":"","salutation":"Dr","services":"","speciality":"Pediatra, Cirurgião pediátrico","subspecialities":""}},{"url":"http://www.doctoralia.com.br/medico/adriano+luis+gomes-12018493","doctor": {"address":{"1":{"address":{"lat":-23.6572847,"lng":-46.6537446,"locality":"04378-500","location":"04378-500 São Paulo, São Paulo SP","street":"Av. Santa Catarina, 2785 (Jabaquara)"},"insurances":"","misc":"","name":"Hospital e Maternidade Santa Marina","phone":"(11) 5013-1100","working_hours":""}},"education":{},"experience":"","name":"Adriano Luis Gomes","picture":"http://photos.doctoralia.com/635616580110405058_2.jpg","registration_number":"","salutation":"","services":"","speciality":"Cirurgião pediátrico","subspecialities":""}},{"url":"http://www.doctoralia.com.br/medico/flavia+giroldo-11986582","doctor": {"address":{"1":{"address":{"lat":-23.5427318,"lng":-46.6489045,"locality":"01221-020","location":"01221-020 São Paulo, São Paulo SP","street":"R. Dr. Cesario Motta Jr, 112 (Vila Buarque)"},"insurances":"","misc":"","name":"Santa Casa de São Paulo Hospital Central","phone":"(11) 2176-7000","working_hours":""}},"education":{},"experience":"","name":"Flavia Giroldo","picture":"http://photos.doctoralia.com/635616580110405058_2.jpg","registration_number":"","salutation":"","services":"","speciality":"Cirurgião pediátrico","subspecialities":""}},{"url":"http://www.doctoralia.com.br/medico/giovanni+cappellano-10603461","doctor": {"address":{"1":{"address":{"lat":-23.5960066,"lng":-46.6465793,"locality":"4025-010","location":"4025-010 São Paulo, São Paulo SP","street":"Leandro Dupre, 204 - Cj. 51 (Vl. Clementino)"},"insurances":"Pacientes privados (sem plano de saúde), Unimed","misc":"","name":"Consultório","phone":"","working_hours":""}},"education":{},"experience":"","name":"Giovanni Cappellano","registration_number":"","salutation":"Dr","services":"","speciality":"Cirurgião pediátrico","subspecialities":""}},{"url":"http://www.doctoralia.com.br/medico/fabio+luis+peterlini-10605693","doctor": {"address":{"1":{"address":{"lat":-23.5538232,"lng":-46.6622303,"locality":"1228-200","location":"1228-200 São Paulo, São Paulo SP","street":"Angelica, 2503 - 1º And. (Consolação)"},"insurances":"","misc":"","name":"Consultório","phone":"113-2312","working_hours":""}},"education":{},"experience":"","name":"Fábio Luis Peterlini","picture":"http://photos.doctoralia.com/635616580110405058_2.jpg","registration_number":"","salutation":"Dr","services":"","speciality":"Cirurgião pediátrico","subspecialities":""}},{"url":"http://www.doctoralia.com.br/medico/maria+cristina+gomes+de+abreu-10580479","doctor": {"address":{"1":{"address":{"lat":-23.5505199,"lng":-46.633309399999,"locality":"4037-000","location":"4037-000 São Paulo, São Paulo SP","street":"Dr. Diogo de Faria, 55 - Cj. 102 (Vl. Clementino)"},"insurances":"Pacientes privados (sem plano de saúde), Unimed","misc":"","name":"Consultório","phone":"(11) 5573-5813","working_hours":""}},"education":{},"experience":"","name":"Maria Cristina Gomes de Abreu","picture":"http://photos.doctoralia.com/635616580110405058_2.jpg","registration_number":"","salutation":"Dra","services":"","speciality":"Cirurgião pediátrico","subspecialities":""}},{"url":"http://www.doctoralia.com.br/medico/marcelo+iasi-10594710","doctor": {"address":{"1":{"address":{"lat":-23.6066938,"lng":-46.671256799999,"locality":"4517-001","location":"4517-001 São Paulo, São Paulo SP","street":"Cotovia, 481 (Indianópolis)"},"insurances":"Pacientes privados (sem plano de saúde), Unimed","misc":"","name":"Consultório","phone":"(11) 5542-9388","working_hours":""}},"education":{},"experience":"","name":"Marcelo Iasi","picture":"http://photos.doctoralia.com/635616580110405058_2.jpg","registration_number":"","salutation":"Dr","services":"","speciality":"Cirurgião pediátrico","subspecialities":""}},{"url":"http://www.doctoralia.com.br/medico/said+chamandi+mattar-10584985","doctor": {"address":{"1":{"address":{"lat":-23.5365108,"lng":-46.5712068,"locality":"3067-030","location":"3067-030 São Paulo, São Paulo SP","street":"Henrique Lindenberg, 171 (Tatuapé)"},"insurances":"Pacientes privados (sem plano de saúde), Unimed","misc":"","name":"Consultório","phone":"112-2950","working_hours":""}},"education":{},"experience":"","name":"Said Chamandi Mattar","picture":"http://photos.doctoralia.com/635616580110405058_2.jpg","registration_number":"","salutation":"Dr","services":"","speciality":"Cirurgião pediátrico","subspecialities":""}},{"url":"http://www.doctoralia.com.br/medico/saleth+chiari+matias+maria-10591683","doctor": {"address":{"1":{"address":{"lat":-23.5838638,"lng":-46.6365007,"locality":"04101-200","location":"04101-200 São Paulo, São Paulo SP","street":"R. Vergueiro, 2541 (Vila Mariana)"},"insurances":"Pacientes privados (sem plano de saúde), Unimed","misc":"","name":"Consultório","phone":"(11) 5084-2867","working_hours":""}},"education":{},"experience":"","name":"Maria Saleth Chiari Matias","picture":"http://photos.doctoralia.com/635616580110405058_2.jpg","registration_number":"","salutation":"Dra","services":"","speciality":"Cirurgião pediátrico","subspecialities":""}},{"url":"http://www.doctoralia.com.br/medico/cristiane+elias+dargham-10608854","doctor": {"address":{"1":{"address":{"lat":-23.5375177,"lng":-46.6859999,"locality":"5020-000","location":"5020-000 São Paulo, São Paulo SP","street":"Caraibas, 1191 (Perdizes)"},"insurances":"Pacientes privados (sem plano de saúde), Unimed","misc":"","name":"Consultório","phone":"(11) 3864-4328","working_hours":""}},"education":{},"experience":"","name":"Cristiane Elias Dargham","picture":"http://photos.doctoralia.com/635616580110405058_2.jpg","registration_number":"","salutation":"Dra","services":"","speciality":"Cirurgião pediátrico","subspecialities":""}},{"url":"http://www.doctoralia.com.br/medico/salzedas+netto+alcides+augusto-11971856","doctor": {"address":{"1":{"address":{"lat":-23.5966263,"lng":-46.6473005,"locality":"04038002","location":"04038002 São Paulo, São Paulo SP","street":"Rua Borges Lagoa, 1080, CJ 201/202 (Vila Mariana)"},"insurances":"","misc":"","name":"Consultório","phone":"11 55745441","working_hours":""}},"education":{},"experience":"","name":"Alcides Augusto Salzedas Netto","picture":"http://photos.doctoralia.com/635616580110405058_2.jpg","registration_number":"","salutation":"Prof","services":"","speciality":"Cirurgião pediátrico","subspecialities":""}},{"url":"http://www.doctoralia.com.br/medico/jose+carlos+fasano-10599703","doctor": {"address":{"1":{"address":{"lat":-23.5668245,"lng":-46.6412999,"locality":"01323-001","location":"01323-001 São Paulo, São Paulo SP","street":"Rua Maestro Cardim, 769 - Bloco 5 (Liberdade)"},"insurances":"Pacientes privados (sem plano de saúde), Unimed","misc":"","name":"Consultório","phone":"(11) 287-2550","working_hours":""}},"education":{},"experience":"","name":"Jose Carlos Fasano","picture":"http://photos.doctoralia.com/635616580110405058_2.jpg","registration_number":"","salutation":"Dr","services":"","speciality":"Cirurgião pediátrico","subspecialities":""}},{"url":"http://www.doctoralia.com.br/medico/fabio+bedoni-10605276","doctor": {"address":{"1":{"address":{"lat":-23.6509781,"lng":-46.6783747,"locality":"4627-000","location":"4627-000 São Paulo, São Paulo SP","street":"Washington Luiz, 3085 (Santo Amaro)"},"insurances":"Pacientes privados (sem plano de saúde), Unimed","misc":"","name":"Consultório","phone":"(11) 5521-3993","working_hours":""}},"education":{},"experience":"","name":"Fábio Bedoni","picture":"http://photos.doctoralia.com/635616580110405058_2.jpg","registration_number":"","salutation":"Dr","services":"","speciality":"Cirurgião pediátrico","subspecialities":""}},{"url":"http://www.doctoralia.com.br/medico/ali+abdul+rahman+ayoub-10614739","doctor": {"address":{"1":{"address":{"lat":-23.5368617,"lng":-46.590176799999,"locality":"3014-000","location":"3014-000 São Paulo, São Paulo SP","street":"Celso Garcia, 2294 (Belenzinho)"},"insurances":"Pacientes privados (sem plano de saúde), Unimed","misc":"","name":"Consultório","phone":"116-0993","working_hours":""}},"education":{},"experience":"","name":"Ali Abdul Rahman Ayoub","picture":"http://photos.doctoralia.com/635616580110405058_2.jpg","registration_number":"","salutation":"Dra","services":"","speciality":"Cirurgião pediátrico","subspecialities":""}},{"url":"http://www.doctoralia.com.br/medico/alfredo+soares+c+cabral+junior-10614736","doctor": {"address":{"1":{"address":{"lat":-23.6016798,"lng":-46.675273399999,"locality":"14780-450","location":"14780-450 São Paulo, São Paulo SP","street":"R Gomes de Carvalho, 120 (Vl Olimpia)"},"insurances":"Pacientes privados (sem plano de saúde), Geap","misc":"","name":"Consultório","phone":"113-8465","working_hours":""}},"education":{},"experience":"","name":"Alfredo Soares C.Cabral Junior","picture":"http://photos.doctoralia.com/635616580110405058_2.jpg","registration_number":"","salutation":"Dr","services":"","speciality":"Cirurgião pediátrico","subspecialities":""}},{"url":"http://www.doctoralia.com.br/medico/paiva+dr+lucio-13892983","doctor": {"address":{"1":{"address":{"lat":-23.5739218,"lng":-46.689520599999,"locality":"01451-001","location":"01451-001 São Paulo, São Paulo SP","street":"Rua Faria Lima, 12 (Centro)"},"insurances":"","misc":"","name":"Consultório","phone":"32112-4593","working_hours":""}},"education":{},"experience":"","name":"Dr","picture":"http://photos.doctoralia.com/635616580110405058_2.jpg","registration_number":"","salutation":"Dr","services":"","speciality":"Cirurgião pediátrico","subspecialities":""}},{"url":"http://www.doctoralia.com.br/medico/humberto+salgado+filho-11986574","doctor": {"address":{"1":{"address":{"lat":-23.5427318,"lng":-46.6489045,"locality":"01221-020","location":"01221-020 São Paulo, São Paulo SP","street":"R. Dr. Cesario Motta Jr, 112 (Vila Buarque)"},"insurances":"","misc":"","name":"Santa Casa de São Paulo Hospital Central","phone":"(11) 2176-7000","working_hours":""}},"education":{},"experience":"","name":"Humberto Salgado Filho","picture":"http://photos.doctoralia.com/635616580110405058_2.jpg","registration_number":"","salutation":"","services":"","speciality":"Cirurgião pediátrico","subspecialities":""}},{"url":"http://www.doctoralia.com.br/medico/daniela+patricia+palmeira+santos+da+cunha-11986575","doctor": {"address":{"1":{"address":{"lat":-23.5427318,"lng":-46.6489045,"locality":"01221-020","location":"01221-020 São Paulo, São Paulo SP","street":"R. Dr. Cesario Motta Jr, 112 (Vila Buarque)"},"insurances":"","misc":"","name":"Santa Casa de São Paulo Hospital Central","phone":"(11) 2176-7000","working_hours":""}},"education":{},"experience":"","name":"Daniela Patricia Palmeira Santos da Cunha","picture":"http://photos.doctoralia.com/635616580110405058_2.jpg","registration_number":"","salutation":"","services":"","speciality":"Cirurgião pediátrico","subspecialities":""}},{"url":"http://www.doctoralia.com.br/medico/luiz+henrique+duarte+ribeiro-11880827","doctor": {"address":{"1":{"address":{"lat":-23.5680342,"lng":-46.6207423,"locality":"01540-000","location":"01540-000 São Paulo, São Paulo SP","street":"Rua Herminio Lemos, 385 (Cambuci)"},"insurances":"","misc":"","name":"Santamalia Saude Cambuci","phone":"(11) 3278-1000","working_hours":""}},"education":{},"experience":"","name":"Luiz Henrique Duarte Ribeiro","picture":"http://photos.doctoralia.com/635616580110405058_2.jpg","registration_number":"","salutation":"","services":"","speciality":"Cirurgião pediátrico","subspecialities":""}},{"url":"http://www.doctoralia.com.br/medico/renato+melli+carrera-11986573","doctor": {"address":{"1":{"address":{"lat":-23.5427318,"lng":-46.6489045,"locality":"01221-020","location":"01221-020 São Paulo, São Paulo SP","street":"R. Dr. Cesario Motta Jr, 112 (Vila Buarque)"},"insurances":"","misc":"","name":"Santa Casa de São Paulo Hospital Central","phone":"(11) 2176-7000","working_hours":""}},"education":{},"experience":"","name":"Renato Melli Carrera","picture":"http://photos.doctoralia.com/635616580110405058_2.jpg","registration_number":"","salutation":"","services":"","speciality":"Cirurgião pediátrico","subspecialities":""}},{"url":"http://www.doctoralia.com.br/medico/daniela+geudjenian+arantes-11986576","doctor": {"address":{"1":{"address":{"lat":-23.5427318,"lng":-46.6489045,"locality":"01221-020","location":"01221-020 São Paulo, São Paulo SP","street":"R. Dr. Cesario Motta Jr, 112 (Vila Buarque)"},"insurances":"","misc":"","name":"Santa Casa de São Paulo Hospital Central","phone":"(11) 2176-7000","working_hours":""}},"education":{},"experience":"","name":"Daniela Geudjenian Arantes","picture":"http://photos.doctoralia.com/635616580110405058_2.jpg","registration_number":"","salutation":"","services":"","speciality":"Cirurgião pediátrico","subspecialities":""}},{"url":"http://www.doctoralia.com.br/medico/tiago+jose+de+almeida+silva-11986577","doctor": {"address":{"1":{"address":{"lat":-23.5427318,"lng":-46.6489045,"locality":"01221-020","location":"01221-020 São Paulo, São Paulo SP","street":"R. Dr. Cesario Motta Jr, 112 (Vila Buarque)"},"insurances":"","misc":"","name":"Santa Casa de São Paulo Hospital Central","phone":"(11) 2176-7000","working_hours":""}},"education":{},"experience":"","name":"Tiago Jose de Almeida Silva","picture":"http://photos.doctoralia.com/635616580110405058_2.jpg","registration_number":"","salutation":"","services":"","speciality":"Cirurgião pediátrico","subspecialities":""}},{"url":"http://www.doctoralia.com.br/medico/daniel+reda+fenga-11986578","doctor": {"address":{"1":{"address":{"lat":-23.5427318,"lng":-46.6489045,"locality":"01221-020","location":"01221-020 São Paulo, São Paulo SP","street":"R. Dr. Cesario Motta Jr, 112 (Vila Buarque)"},"insurances":"","misc":"","name":"Santa Casa de São Paulo Hospital Central","phone":"(11) 2176-7000","working_hours":""}},"education":{},"experience":"","name":"Daniel Reda Fenga","picture":"http://photos.doctoralia.com/635616580110405058_2.jpg","registration_number":"","salutation":"","services":"","speciality":"Cirurgião pediátrico","subspecialities":""}},{"url":"http://www.doctoralia.com.br/medico/caio+alexandre+raicher-11986580","doctor": {"address":{"1":{"address":{"lat":-23.5427318,"lng":-46.6489045,"locality":"01221-020","location":"01221-020 São Paulo, São Paulo SP","street":"R. Dr. Cesario Motta Jr, 112 (Vila Buarque)"},"insurances":"","misc":"","name":"Santa Casa de São Paulo Hospital Central","phone":"(11) 2176-7000","working_hours":""}},"education":{},"experience":"","name":"Caio Alexandre Raicher","picture":"http://photos.doctoralia.com/635616580110405058_2.jpg","registration_number":"","salutation":"","services":"","speciality":"Cirurgião pediátrico","subspecialities":""}},{"url":"http://www.doctoralia.com.br/medico/patricia+monteiro+araujo-11986581","doctor": {"address":{"1":{"address":{"lat":-23.5427318,"lng":-46.6489045,"locality":"01221-020","location":"01221-020 São Paulo, São Paulo SP","street":"R. Dr. Cesario Motta Jr, 112 (Vila Buarque)"},"insurances":"","misc":"","name":"Santa Casa de São Paulo Hospital Central","phone":"(11) 2176-7000","working_hours":""}},"education":{},"experience":"","name":"Patricia Monteiro Araujo","picture":"http://photos.doctoralia.com/635616580110405058_2.jpg","registration_number":"","salutation":"","services":"","speciality":"Cirurgião pediátrico","subspecialities":""}},{"url":"http://www.doctoralia.com.br/medico/luiz+felipe+de+araujo+campos-11986584","doctor": {"address":{"1":{"address":{"lat":-23.5427318,"lng":-46.6489045,"locality":"01221-020","location":"01221-020 São Paulo, São Paulo SP","street":"R. Dr. Cesario Motta Jr, 112 (Vila Buarque)"},"insurances":"","misc":"","name":"Santa Casa de São Paulo Hospital Central","phone":"(11) 2176-7000","working_hours":""}},"education":{},"experience":"","name":"Luiz Felipe de Araujo Campos","picture":"http://photos.doctoralia.com/635616580110405058_2.jpg","registration_number":"","salutation":"","services":"","speciality":"Cirurgião pediátrico","subspecialities":""}},{"url":"http://www.doctoralia.com.br/medico/claudia+gisele+santos+areas-11986585","doctor": {"address":{"1":{"address":{"lat":-23.5427318,"lng":-46.6489045,"locality":"01221-020","location":"01221-020 São Paulo, São Paulo SP","street":"R. Dr. Cesario Motta Jr, 112 (Vila Buarque)"},"insurances":"","misc":"","name":"Santa Casa de São Paulo Hospital Central","phone":"(11) 2176-7000","working_hours":""}},"education":{},"experience":"","name":"Claudia Gisele Santos Areas","picture":"http://photos.doctoralia.com/635616580110405058_2.jpg","registration_number":"","salutation":"","services":"","speciality":"Cirurgião pediátrico","subspecialities":""}},{"url":"http://www.doctoralia.com.br/medico/thiago+said+daibes+pereira-11986586","doctor": {"address":{"1":{"address":{"lat":-23.5427318,"lng":-46.6489045,"locality":"01221-020","location":"01221-020 São Paulo, São Paulo SP","street":"R. Dr. Cesario Motta Jr, 112 (Vila Buarque)"},"insurances":"","misc":"","name":"Santa Casa de São Paulo Hospital Central","phone":"(11) 2176-7000","working_hours":""}},"education":{},"experience":"","name":"Thiago Said Daibes Pereira","picture":"http://photos.doctoralia.com/635616580110405058_2.jpg","registration_number":"","salutation":"","services":"","speciality":"Cirurgião pediátrico","subspecialities":""}},{"url":"http://www.doctoralia.com.br/medico/eliane+mitiko+mariya-12018494","doctor": {"address":{"1":{"address":{"lat":-23.6572847,"lng":-46.6537446,"locality":"04378-500","location":"04378-500 São Paulo, São Paulo SP","street":"Av. Santa Catarina, 2785 (Jabaquara)"},"insurances":"","misc":"","name":"Hospital e Maternidade Santa Marina","phone":"(11) 5013-1100","working_hours":""}},"education":{},"experience":"","name":"Eliane Mitiko Mariya","picture":"http://photos.doctoralia.com/635616580110405058_2.jpg","registration_number":"","salutation":"","services":"","speciality":"Cirurgião pediátrico","subspecialities":""}},{"url":"http://www.doctoralia.com.br/medico/mila+tori+correa+leite-12018495","doctor": {"address":{"1":{"address":{"lat":-23.6572847,"lng":-46.6537446,"locality":"04378-500","location":"04378-500 São Paulo, São Paulo SP","street":"Av. Santa Catarina, 2785 (Jabaquara)"},"insurances":"","misc":"","name":"Hospital e Maternidade Santa Marina","phone":"(11) 5013-1100","working_hours":""}},"education":{},"experience":"","name":"Mila Tori Correa Leite","picture":"http://photos.doctoralia.com/635616580110405058_2.jpg","registration_number":"","salutation":"","services":"","speciality":"Cirurgião pediátrico","subspecialities":""}},{"url":"http://www.doctoralia.com.br/medico/lima+dos+santos+elionete-12019032","doctor": {"address":{"1":{"address":{"lat":-23.5522428,"lng":-46.5855889,"locality":"03172-010","location":"03172-010 São Paulo, São Paulo SP","street":"Rua Siqueira Bueno, 1757"},"insurances":"","misc":"","name":"Hospital Infantil Cândido Fontoura","phone":"(11) 2603-5350, (11) 2603-5351","working_hours":""}},"education":{},"experience":"","name":"Elionete Lima dos Santos","picture":"http://photos.doctoralia.com/635616580110405058_2.jpg","registration_number":"","salutation":"Dr","services":"","speciality":"Cirurgião pediátrico","subspecialities":""}},{"url":"http://www.doctoralia.com.br/medico/nuncio+vicente+de+chiara-12087279","doctor": {"address":{"1":{"address":{"lat":-23.5446782,"lng":-46.6386066,"locality":"01037-000","location":"01037-000 São Paulo, São Paulo SP","street":"Rua Conselheiro Crispiniano, 20 (Centro)"},"insurances":"","misc":"","name":"Pam Centro Nga 55","phone":"(11) 3106-8528","working_hours":""}},"education":{},"experience":"","name":"Nuncio Vicente de Chiara","picture":"http://photos.doctoralia.com/635616580110405058_2.jpg","registration_number":"","salutation":"","services":"","speciality":"Cirurgião pediátrico","subspecialities":""}},{"url":"http://www.doctoralia.com.br/medico/andrea+campos+da+silva-12091218","doctor": {"address":{"1":{"address":{"lat":-23.530642,"lng":-46.5994896,"locality":"03021-040","location":"03021-040 São Paulo, São Paulo SP","street":"R. Jequitinhonha, 360\n (Belém)"},"insurances":"","misc":"","name":"PAM Maria Zélia","phone":"(11) 6291-3833, (11) 6291-3025","working_hours":""}},"education":{},"experience":"","name":"Andrea Campos da Silva","picture":"http://photos.doctoralia.com/635616580110405058_2.jpg","registration_number":"","salutation":"","services":"","speciality":"Cirurgião pediátrico","subspecialities":""}}]}