{"webData": [{"url":"http://www.doctoralia.com.br/medico/jairo+de+oliveira+patricio-10601325","doctor": {"address":{"1":{"address":{"lat":-23.5010011,"lng":-46.6229623,"locality":"02036-021","location":"02036-021 São Paulo, São Paulo SP","street":"Rua Duarte de Azevedo, 284 (Santana)"},"insurances":"Pacientes privados (sem plano de saúde), Geap","misc":"","name":"Consultório","phone":"(11) 6977-3859","working_hours":""}},"education":{},"experience":"","name":"Jairo de Oliveira Patricio","picture":"http://photos.doctoralia.com/635185573388834498_2.jpg","registration_number":"","salutation":"Dr","services":"","speciality":"Cirurgião torácico","subspecialities":""}},{"url":"http://www.doctoralia.com.br/medico/mario+claudio+ghefter-12018499","doctor": {"address":{"1":{"address":{"lat":-23.6572847,"lng":-46.6537446,"locality":"04378-500","location":"04378-500 São Paulo, São Paulo SP","street":"Av. Santa Catarina, 2785 (Jabaquara)"},"insurances":"","misc":"","name":"Hospital e Maternidade Santa Marina","phone":"(11) 5013-1100","working_hours":""}},"education":{},"experience":"","name":"Mario Claudio Ghefter","picture":"http://photos.doctoralia.com/635185573388834498_2.jpg","registration_number":"","salutation":"","services":"Mediastinite","speciality":"Cirurgião torácico","subspecialities":""}},{"url":"http://www.doctoralia.com.br/medico/rosemary+farias+alves-10585253","doctor": {"address":{"1":{"address":{"lat":-23.5955631,"lng":-46.6476467,"locality":"04026-000","location":"04026-000 São Paulo, São Paulo SP","street":"Rua Bacelar, 173 - Conj. 103 (Vila Clementina)"},"insurances":"Pacientes privados (sem plano de saúde), Unimed","misc":"","name":"Consultório","phone":"(11) 5083-3964, (11) 5575-0673","working_hours":""}},"education":{},"experience":"","name":"Rosemary Farias Alves","picture":"http://photos.doctoralia.com/635185573388834498_2.jpg","registration_number":"","salutation":"Dra","services":"","speciality":"Cirurgião torácico, Pneumologista","subspecialities":""}},{"url":"http://www.doctoralia.com.br/medico/antonio+alberto+vieira+de+sousa-10612829","doctor": {"address":{"1":{"address":{"lat":-23.6183629,"lng":-46.648159,"locality":"4063-004","location":"4063-004 São Paulo, São Paulo SP","street":"Indianopolis, 2321 (Vl. Mte Alegre)"},"insurances":"","misc":"","name":"Consultório","phone":"115-0787","working_hours":""}},"education":{},"experience":"","name":"Antonio Alberto Vieira de Sousa","picture":"http://photos.doctoralia.com/635185573388834498_2.jpg","registration_number":"","salutation":"Dr","services":"","speciality":"Cirurgião torácico","subspecialities":""}},{"url":"http://www.doctoralia.com.br/medico/alexandre+de+oliveira-10615085","doctor": {"address":{"1":{"address":{"lat":-23.5564639,"lng":-46.6528008,"locality":"01308-000","location":"01308-000 São Paulo, São Paulo SP","street":"Rua Barata Ribeiro, 237 - Cj 75 (Bela Vista)"},"insurances":"","misc":"","name":"Consultório","phone":"(11) 3212-0121","working_hours":""}},"education":{},"experience":"","name":"Alexandre de Oliveira","picture":"http://photos.doctoralia.com/635185573388834498_2.jpg","registration_number":"","salutation":"Dr","services":"","speciality":"Cirurgião torácico","subspecialities":""}},{"url":"http://www.doctoralia.com.br/medico/carlos+roberto+vono-10610210","doctor": {"address":{"1":{"address":{"lat":-23.5767697,"lng":-46.6413825,"locality":"4104-000","location":"4104-000 São Paulo, São Paulo SP","street":"Correa Dias, 184 - Cj. 55 (Paraíso)"},"insurances":"","misc":"","name":"Consultório","phone":"115-5753","working_hours":""}},"education":{},"experience":"","name":"Carlos Roberto Vono","picture":"http://photos.doctoralia.com/635185573388834498_2.jpg","registration_number":"","salutation":"Dr","services":"","speciality":"Cirurgião torácico, Pneumologista","subspecialities":""}},{"url":"http://www.doctoralia.com.br/medico/corpu-clin+de+doencas+cardiopulmonar+sc-10609572","doctor": {"address":{"1":{"address":{"lat":-23.5598095,"lng":-46.6558859,"locality":"01409-001","location":"01409-001 São Paulo, São Paulo SP","street":"Rua Peixoto Gomide, 671 - 6 Andar (Jardim Paulista)"},"insurances":"Pacientes privados (sem plano de saúde), Cassi","misc":"","name":"Consultório","phone":"","working_hours":""}},"education":{},"experience":"","name":"Corpu-Clin de Doencas Cardiopulmonar SC","picture":"http://photos.doctoralia.com/635185573388834498_2.jpg","registration_number":"","salutation":"Dr","services":"","speciality":"Cirurgião torácico","subspecialities":""}},{"url":"http://www.doctoralia.com.br/medico/augusto+ishy-11898254","doctor": {"address":{"1":{"address":{"lat":-23.557046,"lng":-46.655001899999,"locality":"01308-000","location":"01308-000 São Paulo, São Paulo SP","street":"Rua Barata Ribeiro, 483 / Conj 55 Sala 2 (Bela Vista)"},"insurances":"","misc":"","name":"Pectus Cirurgia Toracica","phone":"(11) 6191-7419","working_hours":""}},"education":{},"experience":"","name":"Augusto Ishy","picture":"http://photos.doctoralia.com/635185573388834498_2.jpg","registration_number":"","salutation":"","services":"","speciality":"Cirurgião torácico","subspecialities":""}},{"url":"http://www.doctoralia.com.br/medico/de+menezes+lyra+roberto-13230498","doctor": {"address":{"1":{"address":{"lat":-23.6012276,"lng":-46.661277299999,"locality":"04521-022","location":"04521-022 São Paulo, São Paulo SP","street":"Rua Min Gabriel de Resende Passos, 500 - 9 andar - Conjunto 909 (Moema)"},"insurances":"Pacientes privados (sem plano de saúde), Amil","misc":"","name":"Consultório","phone":"11 50526019, 11 50526291","working_hours":""}},"education":{"1":{"degree":"Título de Especialista em Cirurgia Torácica","institute":"Sociedade Brasileira de Cirurgia Torácica - SBCT","year":"1986"}},"experience":"Carcinoma Pulmonar De Células Não Pequenas, Estenose Traqueal, Hiperidrose, Pneumotórax","name":"Roberto de Menezes Lyra","picture":"http://photos.doctoralia.com/635185573388834498_2.jpg","registration_number":"","salutation":"Dr","services":"Linfadenectomia Mediastinal, Lobectomia Pulmonar, Simpatectomia, Timectomia","speciality":"Cirurgião torácico","subspecialities":"","website":"http://https://www.youtube.com/watch?v=gHgohGGCplc"}},{"url":"http://www.doctoralia.com.br/medico/oliveira+alexandre-12111214","doctor": {"address":{"1":{"address":{"lat":-23.5564639,"lng":-46.6528008,"locality":"01308000","location":"01308000 São Paulo, São Paulo SP","street":"Rua Barata Ribeiro 237 (cj 71) (Bela Vista)"},"insurances":"","misc":"","name":"Consultório","phone":"11 3212 0121, 11 3255 4008","working_hours":"14 as 19"}},"education":{"1":{"degree":"Residência Médica Cirurgia Torácica","institute":"Universidade de São Paulo - USP","year":"1999"},"2":{"degree":"Fellowship Thoracic Surgery","institute":"Mayo Clinic USA","year":"2000"},"3":{"degree":"Doutorado Cirurgia Torácica","institute":"UNIVERSIDADE FEDERAL DE SÃO PAULO","year":"2013"}},"experience":"Carcinoma Pulmonar De Células Não Pequenas, Hiperidrose, Pneumotórax","name":"Alexandre Oliveira","picture":"http://photos.doctoralia.com/635223245753460633_1.jpg","registration_number":"","salutation":"Dr","services":"Videotoracoscopia","speciality":"Cirurgião torácico","subspecialities":""}},{"url":"http://www.doctoralia.com.br/medico/conrado+abrao+fernando-11962386","doctor": {"address":{"1":{"address":{"lat":-23.5605241,"lng":-46.6536366,"locality":"01332000","location":"01332000 São Paulo, São Paulo SP","street":"Rua Itapeva, 518  (conjunto 910) (Bela Vista)"},"insurances":"Pacientes privados (sem plano de saúde)","misc":"","name":"Consultório","phone":"3288 6000, 98749 9481","working_hours":""},"2":{"address":{"lat":-23.5686312,"lng":-46.6432841,"locality":"01323-903","location":"01323-903 São Paulo, São Paulo SP","street":"Rua João Julião 331 (Bela Vista)"},"insurances":"Pacientes privados (sem plano de saúde)","misc":"","name":"Hospital Alemão Oswaldo Cruz","phone":"(11) 3549-1000","working_hours":""},"3":{"address":{"lat":-23.5577666,"lng":-46.6546189,"locality":"01308-050","location":"01308-050 São Paulo, São Paulo SP","street":"Rua Dona Adma Jafet, 91 (Bela Vista)"},"insurances":"Pacientes privados (sem plano de saúde)","misc":"","name":"Hospital Sirio Libanês","phone":"(11) 3155-0200","working_hours":""}},"education":{"1":{"degree":"Cirurgião Geral","institute":"USP","year":"2005"},"2":{"degree":"Cirurgião Torácica","institute":"USP","year":"2007"},"3":{"degree":"Ex- médico assistente da Disciplina de Cirurgia Torácica","institute":"USP","year":"2013"}},"experience":"","name":"Fernando Conrado Abrão","picture":"http://photos.doctoralia.com/635185573388834498_2.jpg","registration_number":"","salutation":"Dr","services":"","speciality":"Cirurgião torácico","subspecialities":""}},{"url":"http://www.doctoralia.com.br/medico/nivaldo+cassiano+bachichi-10589227","doctor": {"address":{"1":{"address":{"lat":-23.5689168,"lng":-46.6467856,"locality":"1310-000","location":"1310-000 São Paulo, São Paulo SP","street":"Paulista, 326 (5º And.) (Liberdade)"},"insurances":"Pacientes privados (sem plano de saúde)","misc":"","name":"Consultório","phone":"...","working_hours":""}},"education":{},"experience":"","name":"Nivaldo Cassiano Bachichi","picture":"http://photos.doctoralia.com/635185573388834498_2.jpg","registration_number":"","salutation":"Dr","services":"Pneumotórax","speciality":"Cirurgião torácico, Pneumologista","subspecialities":""}},{"url":"http://www.doctoralia.com.br/medico/fuad+mitre-10604965","doctor": {"address":{"1":{"address":{"lat":-23.5957288,"lng":-46.6355864,"locality":"4120-050","location":"4120-050 São Paulo, São Paulo SP","street":"Dr. Thirso Martins, 100 - Cj. 312/313 (Vl. Mariana)"},"insurances":"Pacientes privados (sem plano de saúde), Unimed","misc":"","name":"Consultório","phone":"115-5758","working_hours":""}},"education":{},"experience":"","name":"Fuad Mitre","picture":"http://photos.doctoralia.com/V2634997519197418138_2.jpg","registration_number":"","salutation":"Dr","services":"","speciality":"Cirurgião torácico, Pneumologista","subspecialities":""}},{"url":"http://www.doctoralia.com.br/medico/vicente+dorgan+neto-11986591","doctor": {"address":{"1":{"address":{"lat":-23.5427318,"lng":-46.6489045,"locality":"01221-020","location":"01221-020 São Paulo, São Paulo SP","street":"R. Dr. Cesario Motta Jr, 112 (Vila Buarque)"},"insurances":"","misc":"","name":"Santa Casa de São Paulo Hospital Central","phone":"(11) 2176-7000","working_hours":""}},"education":{},"experience":"","name":"Vicente Dorgan Neto","picture":"http://photos.doctoralia.com/635185573388834498_2.jpg","registration_number":"","salutation":"","services":"","speciality":"Cirurgião torácico","subspecialities":""}},{"url":"http://www.doctoralia.com.br/medico/marco+aurelio+marchetti+filho-11880829","doctor": {"address":{"1":{"address":{"lat":-23.5680342,"lng":-46.6207423,"locality":"01540-000","location":"01540-000 São Paulo, São Paulo SP","street":"Rua Herminio Lemos, 385 (Cambuci)"},"insurances":"","misc":"","name":"Santamalia Saude Cambuci","phone":"(11) 3278-1000","working_hours":""}},"education":{},"experience":"","name":"Marco Aurelio Marchetti Filho","picture":"http://photos.doctoralia.com/635185573388834498_2.jpg","registration_number":"","salutation":"","services":"","speciality":"Cirurgião torácico","subspecialities":""}},{"url":"http://www.doctoralia.com.br/medico/bibas+benoit+jacques-11951854","doctor": {"address":{"1":{"address":{"lat":-23.5500328,"lng":-46.658528999999,"locality":"01239-040","location":"01239-040 São Paulo, São Paulo SP","street":"R. Mato Grosso, 306 (16° andar, cj 1602) (Higienópolis)"},"insurances":"","misc":"","name":"Instituto Abathon - Medicina e Saúde","phone":"(11) 2114-6080","working_hours":""}},"education":{},"experience":"","name":"Benoit Jacques Bibas","picture":"http://photos.doctoralia.com/635185573388834498_2.jpg","registration_number":"","salutation":"Dr","services":"","speciality":"Cirurgião torácico","subspecialities":""}},{"url":"http://www.doctoralia.com.br/medico/roberto+da+cunha+bourroul+f-11923465","doctor": {"address":{"1":{"address":{"lat":-23.5655034,"lng":-46.6501717,"locality":"01403-001","location":"01403-001 São Paulo, São Paulo SP","street":"Al. Joaquim Eugenio de Lima, 383 (Jardim Paulista)"},"insurances":"","misc":"","name":"Pro Matre Paulista","phone":"(11) 3269-2233","working_hours":""}},"education":{},"experience":"","name":"Roberto da Cunha Bourroul F","picture":"http://photos.doctoralia.com/635185573388834498_2.jpg","registration_number":"","salutation":"","services":"","speciality":"Cirurgião torácico","subspecialities":""}},{"url":"http://www.doctoralia.com.br/medico/roberto+saad+junior-11986590","doctor": {"address":{"1":{"address":{"lat":-23.5427318,"lng":-46.6489045,"locality":"01221-020","location":"01221-020 São Paulo, São Paulo SP","street":"R. Dr. Cesario Motta Jr, 112 (Vila Buarque)"},"insurances":"","misc":"","name":"Santa Casa de São Paulo Hospital Central","phone":"(11) 2176-7000","working_hours":""}},"education":{},"experience":"","name":"Roberto Saad Junior","picture":"http://photos.doctoralia.com/635185573388834498_2.jpg","registration_number":"","salutation":"","services":"","speciality":"Cirurgião torácico","subspecialities":""}},{"url":"http://www.doctoralia.com.br/medico/nikkei+tamura-12013311","doctor": {"address":{"1":{"address":{"lat":-23.706749,"lng":-46.6094434,"locality":"09980-150","location":"09980-150 Diadema, São Paulo SP","street":"Rua Jose Bonifacio, 1641 (Serraria)"},"insurances":"","misc":"","name":"Hospital Estadual de Diadema Hospital Serraria","phone":"(11) 3583-1400","working_hours":""}},"education":{},"experience":"","name":"Nikkei Tamura","picture":"http://photos.doctoralia.com/635185573388834498_2.jpg","registration_number":"","salutation":"","services":"","speciality":"Cirurgião torácico","subspecialities":""}},{"url":"http://www.doctoralia.com.br/medico/renato+de+oliveira-12013312","doctor": {"address":{"1":{"address":{"lat":-23.706749,"lng":-46.6094434,"locality":"09980-150","location":"09980-150 Diadema, São Paulo SP","street":"Rua Jose Bonifacio, 1641 (Serraria)"},"insurances":"","misc":"","name":"Hospital Estadual de Diadema Hospital Serraria","phone":"(11) 3583-1400","working_hours":""}},"education":{},"experience":"","name":"Renato de Oliveira","picture":"http://photos.doctoralia.com/635185573388834498_2.jpg","registration_number":"","salutation":"","services":"","speciality":"Cirurgião torácico","subspecialities":""}},{"url":"http://www.doctoralia.com.br/medico/anderson+de+oliveira-12013313","doctor": {"address":{"1":{"address":{"lat":-23.706749,"lng":-46.6094434,"locality":"09980-150","location":"09980-150 Diadema, São Paulo SP","street":"Rua Jose Bonifacio, 1641 (Serraria)"},"insurances":"","misc":"","name":"Hospital Estadual de Diadema Hospital Serraria","phone":"(11) 3583-1400","working_hours":""}},"education":{},"experience":"","name":"Anderson de Oliveira","picture":"http://photos.doctoralia.com/635185573388834498_2.jpg","registration_number":"","salutation":"","services":"","speciality":"Cirurgião torácico","subspecialities":""}},{"url":"http://www.doctoralia.com.br/medico/gustavo+fernandes+miranda-12035177","doctor": {"address":{"1":{"address":{"lat":-23.4542498,"lng":-46.5337925,"locality":"07196-150","location":"07196-150 Guarulhos, São Paulo SP","street":"Praça Lauro de Sousa Lima (Bom Clima)"},"insurances":"","misc":"","name":"Hospital Municipal de Urgencias HMU","phone":"(11) 2475-7422","working_hours":""},"2":{"address":{"lat":-23.4732612,"lng":-46.5407636,"locality":"07022-000","location":"07022-000 Guarulhos, São Paulo SP","street":"Rua Dona Antonia, 636 (Gopouva)"},"insurances":"","misc":"","name":"Saude Guarulhos Hospital Geral","phone":"(11) 6475-8800","working_hours":""}},"education":{},"experience":"","name":"Gustavo Fernandes Miranda","picture":"http://photos.doctoralia.com/V2634806611488779431_2.jpg","registration_number":"","salutation":"","services":"","speciality":"Cirurgião torácico, Cirurgião Vascular","subspecialities":""}},{"url":"http://www.doctoralia.com.br/medico/ricardo+helberth+bammann-12019540","doctor": {"address":{"1":{"address":{"lat":-23.4616641,"lng":-46.5152168,"locality":"07197-000","location":"07197-000 Guarulhos, São Paulo SP","street":"R. Mariana Ubaldina do Espírito Santo, 140 (Macedo)"},"insurances":"","misc":"","name":"Hospital Bom Clima Guarulhos","phone":"(11) 2472-4200","working_hours":""}},"education":{},"experience":"","name":"Ricardo Helberth Bammann","picture":"http://photos.doctoralia.com/635185573388834498_2.jpg","registration_number":"","salutation":"","services":"","speciality":"Cirurgião torácico","subspecialities":""}},{"url":"http://www.doctoralia.com.br/medico/ney+conceicao+alvarenga+figueira-11932255","doctor": {"address":{"1":{"address":{"lat":-1.4481698,"lng":-48.4828339,"locality":"66055-240","location":"66055-240 Belém, Pará PA","street":"Avenida Generalissimo Deodoro, 868 (Umarizal)"},"insurances":"","misc":"","name":"Hospital D Luiz I","phone":"( 91)3210-1414, (91) 3215-4393","working_hours":""},"2":{"address":{"lat":-1.4519836,"lng":-48.4780675,"locality":"67040-000","location":"67040-000 Belém, Pará PA","street":"Av. Gov. Magalhães Barata, 277 (Nazare)"},"insurances":"","misc":"","name":"Hospital Infantil Santa Terezinha","phone":"(91) 3249-0836, (91) 3249-2282","working_hours":""},"3":{"address":{"lat":-23.5263155,"lng":-46.7719467,"locality":"06216-240","location":"06216-240 Osasco, São Paulo SP","street":"Rua Ari Barroso, 355 (Presidente Altino)"},"insurances":"","misc":"","name":"Hospital Regional Doutor Vivaldo Martins Simoes","phone":"(11) 3683-3077","working_hours":""},"4":{"address":{"lat":-1.4400579,"lng":-48.4763622,"locality":"66050-380","location":"66050-380 Belém, Pará PA","street":"Rua Oliveira Belo, 935 (Umarizal)"},"insurances":"","misc":"","name":"Santa Casa de Misericordia Do Para","phone":"(91) 31914009-2241","working_hours":""},"5":{"address":{"lat":-1.4516068,"lng":-48.4716791,"locality":"66063-240","location":"66063-240 Belém, Pará PA","street":"Av. Gov. Magalhães Barata, 992 (São Brás)"},"insurances":"","misc":"","name":"Hospital Ophir Loyola","phone":"(91) 3249-9429, (91) 3342-1100","working_hours":""},"6":{"address":{"lat":-1.4557549,"lng":-48.4901799,"locality":"66063-240","location":"66063-240 Belém, Pará PA","street":"Avenida Gov Magalhães Barata, 992 To (Zona Rural)"},"insurances":"","misc":"","name":"Hospital Dos Servidores Do Estado","phone":"(91) 3289-1004","working_hours":""}},"education":{},"experience":"","name":"Ney Conceicao Alvarenga Figueira","picture":"http://photos.doctoralia.com/635604512750644474_2.jpg","registration_number":"","salutation":"","services":"","speciality":"Cirurgião Geral, Cirurgião torácico","subspecialities":""}},{"url":"http://www.doctoralia.com.br/medico/daniel+stelmach-12047558","doctor": {"address":{"1":{"address":{"lat":-23.6679561,"lng":-46.526079,"locality":"09030-010","location":"09030-010 Santo André, São Paulo SP","street":"Avenida Doutor Erasmo, 18, (Vila Assunção)"},"insurances":"","misc":"","name":"Hospital E Maternidade Christovão Da Gama SA","phone":"(11) 4993-3692, (11) 4993-3700","working_hours":""}},"education":{},"experience":"","name":"Daniel Stelmach","picture":"http://photos.doctoralia.com/635185573388834498_2.jpg","registration_number":"","salutation":"","services":"","speciality":"Cirurgião torácico","subspecialities":""}},{"url":"http://www.doctoralia.com.br/medico/ernesto+evangelista+neto-11951024","doctor": {"address":{"1":{"address":{"lat":-23.6718847,"lng":-46.5347617,"locality":"09190-615","location":"09190-615 Santo André, São Paulo SP","street":"Rua Henrique Calderazzo, 321 (Paraiso)"},"insurances":"","misc":"","name":"Hospital Estadual Mario Covas de Santo Andre","phone":"(11) 2829-5000","working_hours":""}},"education":{},"experience":"","name":"Ernesto Evangelista Neto","picture":"http://photos.doctoralia.com/635185573388834498_2.jpg","registration_number":"","salutation":"","services":"","speciality":"Cirurgião torácico","subspecialities":""}},{"url":"http://www.doctoralia.com.br/medico/roberto+alvaro+ramos+filho-11951023","doctor": {"address":{"1":{"address":{"lat":-23.6718847,"lng":-46.5347617,"locality":"09190-615","location":"09190-615 Santo André, São Paulo SP","street":"Rua Henrique Calderazzo, 321 (Paraiso)"},"insurances":"","misc":"","name":"Hospital Estadual Mario Covas de Santo Andre","phone":"(11) 2829-5000","working_hours":""}},"education":{},"experience":"","name":"Roberto Alvaro Ramos Filho","picture":"http://photos.doctoralia.com/635185573388834498_2.jpg","registration_number":"","salutation":"","services":"","speciality":"Cirurgião torácico","subspecialities":""}},{"url":"http://www.doctoralia.com.br/medico/altair+da+silva+costa+junior-11951025","doctor": {"address":{"1":{"address":{"lat":-23.6718847,"lng":-46.5347617,"locality":"09190-615","location":"09190-615 Santo André, São Paulo SP","street":"Rua Henrique Calderazzo, 321 (Paraiso)"},"insurances":"","misc":"","name":"Hospital Estadual Mario Covas de Santo Andre","phone":"(11) 2829-5000","working_hours":""}},"education":{},"experience":"","name":"Altair da Silva Costa Junior","picture":"http://photos.doctoralia.com/635185573388834498_2.jpg","registration_number":"","salutation":"","services":"","speciality":"Cirurgião torácico","subspecialities":""}},{"url":"http://www.doctoralia.com.br/medico/juan+ignacio+espinoza+morales-12058718","doctor": {"address":{"1":{"address":{"lat":-23.6902097,"lng":-46.5479894,"locality":"09751-000","location":"09751-000 São Bernardo do Campo, São Paulo SP","street":"Av. Pereira Barreto, 846 (Baeta Neves)"},"insurances":"","misc":"","name":"Hospital e Maternidade Baeta Neves","phone":"(11) 4122-6544","working_hours":""}},"education":{},"experience":"","name":"Juan Ignacio Espinoza Morales","picture":"http://photos.doctoralia.com/635185573388834498_2.jpg","registration_number":"","salutation":"","services":"","speciality":"Cirurgião torácico","subspecialities":""}},{"url":"http://www.doctoralia.com.br/medico/roberto+saad+junior-11997135","doctor": {"address":{"1":{"address":{"lat":-23.6931859,"lng":-46.554102099999,"locality":"09750-660","location":"09750-660 São Bernardo do Campo, São Paulo SP","street":"Avenida Lucas Nogueira Garcez 400 (Jd do Mar)"},"insurances":"","misc":"","name":"Hospital Sao Bernardo S A","phone":"(11) 4330-1511","working_hours":""}},"education":{},"experience":"","name":"Roberto Saad Junior","picture":"http://photos.doctoralia.com/635185573388834498_2.jpg","registration_number":"","salutation":"","services":"","speciality":"Cirurgião torácico","subspecialities":""}},{"url":"http://www.doctoralia.com.br/medico/daniel+stelmach-12013026","doctor": {"address":{"1":{"address":{"lat":-23.7138756,"lng":-46.5445636,"locality":"09715-090","location":"09715-090 São Bernardo do Campo, São Paulo SP","street":"Rua Silva Jardim, 470 (Centro)"},"insurances":"","misc":"","name":"Hospital Anchieta Sao Bernardo Do Campo","phone":"(11) 4345-4011","working_hours":""}},"education":{},"experience":"","name":"Daniel Stelmach","picture":"http://photos.doctoralia.com/635185573388834498_2.jpg","registration_number":"","salutation":"","services":"","speciality":"Cirurgião torácico","subspecialities":""}},{"url":"http://www.doctoralia.com.br/medico/carlos+roberto+gonzaga+frazatto-11889308","doctor": {"address":{"1":{"address":{"lat":-22.8983996,"lng":-47.0724434,"locality":"13013-161","location":"13013-161 Campinas, São Paulo SP","street":"Avenida Andrade Neves, 1189 (Botafogo)"},"insurances":"","misc":"","name":"Clinica de Patologia Toraco Abdominal Doutor Frazatto","phone":"(19) 3231-6988","working_hours":""}},"education":{},"experience":"","name":"Carlos Roberto Gonzaga Frazatto","picture":"http://photos.doctoralia.com/635185573388834498_2.jpg","registration_number":"","salutation":"","services":"Hiperidrose","speciality":"Cirurgião torácico","subspecialities":""}},{"url":"http://www.doctoralia.com.br/medico/de+campos+silva+daniel+roberto-12047382","doctor": {"address":{"1":{"address":{"lat":-23.2052591,"lng":-47.290611,"locality":"13320-166","location":"13320-166 Salto, São Paulo SP","street":"Rua Prudente de Moraes, 465. (Centro)"},"insurances":"Pacientes privados (sem plano de saúde), Unimed, Sinam","misc":"","name":"Consultório","phone":"011 4029-6347","working_hours":""},"2":{"address":{"lat":-23.1996811,"lng":-47.2950248,"locality":"13320-250","location":"13320-250 Salto, São Paulo SP","street":"Rua 24 de Outubro, 749 (Centro)"},"insurances":"Pacientes privados (sem plano de saúde)","misc":"","name":"Hospital Unimed de Salto","phone":"(11) 4602-8800","working_hours":""},"3":{"address":{"lat":-23.269784,"lng":-47.2954035,"locality":"13300-025","location":"13300-025 Itu, São Paulo SP","street":"Rua Joaquim Borges, 314 (Centro)"},"insurances":"","misc":"","name":"Hospital Sanatorinhos de Itu","phone":"(11) 4013-8000","working_hours":""},"4":{"address":{"lat":-22.9048924,"lng":-47.0686293,"locality":"13013-160","location":"13013-160 Campinas, São Paulo SP","street":"Avenida Andrade Neves, 402 (Botafogo)"},"insurances":"Pacientes privados (sem plano de saúde)","misc":"","name":"Hospital Vera Cruz S A","phone":"(19) 3234-3101, (19) 3734-3000, (19) 3734-3002","working_hours":""},"5":{"address":{"lat":-23.2050654,"lng":-47.2917435,"locality":"13320-240","location":"13320-240 Salto, São Paulo SP","street":"Rua Europa, 1571 (Jardim Celani)"},"insurances":"","misc":"","name":"Hospital de Salto","phone":"(11) 4602-9000","working_hours":""},"6":{"address":{"lat":-22.9041684,"lng":-47.0621719,"locality":"13010-151","location":"13010-151 Campinas, São Paulo SP","street":"Rua Bernadino de Campos, 804 (Centro)"},"insurances":"","misc":"","name":"Hospital Santa Tereza","phone":"19 3733-4333, 19 3733-4337","working_hours":""}},"education":{"1":{"degree":"Graduação","institute":"PUC-SP (Sorocaba)","year":"2007"},"2":{"degree":"Cirurgia Geral","institute":"Hospital Guilherme Álvaro","year":"2012"},"3":{"degree":"Cirurgia Torácica","institute":"UNICAMP","year":"2014"}},"experience":"Anormalidades Do Sistema Respiratório, Doenças Torácicas, Hiperidrose, Neoplasias Torácicas","name":"Daniel Roberto de Campos Silva","picture":"http://photos.doctoralia.com/635317553450377147_1.jpg","registration_number":"129670","salutation":"Dr","services":"Broncoscopias, Mediastinoscopia, Simpatectomia, Videotoracoscopia","speciality":"Cirurgião Geral, Cirurgião torácico","subspecialities":"Cirurgia Torácica"}},{"url":"http://www.doctoralia.com.br/medico/marcelo+manzano+said-10594757","doctor": {"address":{"1":{"address":{"lat":-22.8783337,"lng":-47.0531646,"locality":"13073-300","location":"13073-300 Campinas, São Paulo SP","street":"Avenida Barão de Itapura, 2948 (Taquaral)"},"insurances":"Pacientes privados (sem plano de saúde), Cassi","misc":"","name":"Consultório","phone":"","working_hours":""}},"education":{},"experience":"","name":"Marcelo Manzano Said","picture":"http://photos.doctoralia.com/635185573388834498_2.jpg","registration_number":"","salutation":"Dr","services":"Hiperidrose","speciality":"Cirurgião torácico","subspecialities":""}}]}