{"webData": [{"url":"http://www.doctoralia.com.br/medico/ferreira+xavier+andre-12046558","doctor": {"address":{"1":{"address":{"lat":-23.6344608,"lng":-46.666314799999,"locality":"01046927","location":"01046927 São Paulo, São Paulo SP","street":"AV IPIRANGA, 318 / BLOCO A / SALA 401\n (REPUBLICA)"},"insurances":"Pacientes privados (sem plano de saúde)","misc":"Departamento: CARDIOLOGIA/ OBESIDADE","name":"Reability Centro Medico - Republica / Centro","phone":"20580551, 32146298","working_hours":"SEGUNDA A SEXTA"},"2":{"address":{"lat":-23.5958314,"lng":-46.68818,"locality":"04547006","location":"04547006 São Paulo, São Paulo SP","street":"R. gomes de carvalho, 1581 / 107\nVila Olimpia (Vila Olimpia)"},"insurances":"Pacientes privados (sem plano de saúde), Amil, Bradesco Saúde, Unimed, Allianz Saúde, CABESP, Itaú Seguros, Lincx, Mediservice,  e 4 maisNotre Dame, Omint, Porto Seguro, Unibanco Saúde","misc":"","name":"Reability Centro Medico - Vila Olimpia","phone":"38491734","working_hours":"segunda a sexta"},"3":{"address":{"lat":-23.6153646,"lng":-46.5692177,"locality":"09520070","location":"09520070 São Caetano do Sul, São Paulo SP","street":"Rua Amazonas 521 (Sala 54) (Centro)"},"insurances":"Pacientes privados (sem plano de saúde), Bradesco Saúde, Unimed, Allianz Saúde, CABESP, Itaú Seguros, Lincx, Mediservice, Notre Dame,  e 3 maisOmint, Porto Seguro, Unibanco Saúde","misc":"","name":"Reability Centro Medico - São Caetano do Sul","phone":"11 35654443","working_hours":"segunda a sexta"}},"education":{"1":{"degree":"Especialista Cardiologia","institute":"Hosp Beneficencia Portuguesa SP","year":"1995"},"2":{"degree":"Especialista em Obesidade Clinica","institute":"UNIFESP Univ Federal São Paulo","year":"2007"}},"experience":"Arritmia, Cardiopatias, Hipertensão, Obesidade Mórbida","name":"Andre Ferreira Xavier","registration_number":"78808","salutation":"","services":"ECG (eletrocardiograma) , Ecocardiograma, Holter digital , Teste Ergométrico","speciality":"Cardiologista, Nutrologista","subspecialities":"Exames e Diagnósticos","website":"http://www.clinicareability.com.br"}},{"url":"http://www.doctoralia.com.br/medico/kaarkoski+rita-12134733","doctor": {"address":{"1":{"address":{"lat":-23.5990432,"lng":-46.637768,"locality":"04038-040","location":"04038-040 São Paulo, São Paulo SP","street":"Rua Tenente Gomes Ribeiro 212, cj 12, ZONA SUL SP (MOEMA, CAMPO BELO, JABAQUARA, PARAÍSO, KLABIN, IPIRANGA) (Vila Mariana)"},"insurances":"Pacientes privados (sem plano de saúde)","misc":"","name":"Consultório","phone":"50839964, 993100328","working_hours":"16-20h(3af)"},"2":{"address":{"lat":-23.5187161,"lng":-46.5871969,"locality":"02042001","location":"02042001 São Paulo, São Paulo SP","street":"Rua Maria Curupaiti, 441, D18, zona norte SP(Santana,Tucuruvi, Mandaqui, Tremembe, Parada Inglesa, Agua Fria, Vila Maria (Jardim São Bento)"},"insurances":"Pacientes privados (sem plano de saúde)","misc":"","name":"Consultório","phone":"(11)50839964, 11 993100328","working_hours":"16h-20h(4af, 6af)"}},"education":{"1":{"degree":"Título de especialista em Endocrinologia & Metabologia","institute":"SBEM","year":"2005"},"2":{"degree":"Título de especialista em Nutrologia","institute":"ABRAN","year":"2008"},"3":{"degree":"Pós Graduação em Medicina Preventiva","institute":"UNICSUL","year":"2010"}},"experience":"Diabetes Mellitus, Doenças Nutricionais E Metabólicas, Hipersensibilidade Alimentar, Intolerância À Lactose","name":"Rita Kaarkoski","picture":"http://photos.doctoralia.com/635319194339175523_1.jpg","registration_number":"101559","salutation":"Dra","services":"Bioimpedância, Emagrecimento definitivo, Teste de Intolerância Alimentar, Tratamento com insulina ","speciality":"Endocrinologista, Nutrologista","subspecialities":"Diabetologia, Nutrição, Obesidade, Patologia da Tiróide"}},{"url":"http://www.doctoralia.com.br/medico/granja+maria+mercedes-10592150","doctor": {"address":{"1":{"address":{"lat":-23.584297,"lng":-46.676871899999,"locality":"04542-050","location":"04542-050 São Paulo, São Paulo SP","street":"Rua Urussui, 92 - 125"},"insurances":"Pacientes privados (sem plano de saúde), Mediservice","misc":"","name":"Consultório","phone":"(11) 3079-3000, (11) 3079-4676","working_hours":""}},"education":{},"experience":"","name":"Maria Mercedes Granja","picture":"http://photos.doctoralia.com/635628895710102527_2.jpg","registration_number":"32","salutation":"Dra","services":"","speciality":"Patologista clínico, Nutrologista","subspecialities":""}},{"url":"http://www.doctoralia.com.br/medico/pedroza+paula-12747286","doctor": {"address":{"1":{"address":{"lat":-23.5505199,"lng":-46.633309399999,"locality":"05319-000","location":"05319-000 São Paulo, São Paulo SP","street":"avenida Queirós Filho,1700, conjunto 405 da Torre C (Vila Leopoldina)"},"insurances":"","misc":"","name":"Consultório","phone":"11-3672-3540, 11-3641-7514","working_hours":"13:30 as 19:00"}},"education":{},"experience":"","name":"Paula Pedroza","picture":"http://photos.doctoralia.com/635628895710102527_2.jpg","registration_number":"","salutation":"Dra","services":"Alergias Alimentares, Cefaléia (dor de cabeça), Obesidade","speciality":"Acupunturista, Nutrologista","subspecialities":""}},{"url":"http://www.doctoralia.com.br/medico/goulart+valeria-14820731","doctor": {"address":{"1":{"address":{"lat":-23.5825979,"lng":-46.6656173,"locality":"04503-000","location":"04503-000 São Paulo, São Paulo SP","street":"RUA BENTO DE ANDRADE 252 (jardins)"},"insurances":"Pacientes privados (sem plano de saúde)","misc":"","name":"Instituto Do Atleta","phone":"113051-4333, 113887-5123","working_hours":""}},"education":{},"experience":"","name":"Valéria Goulart","picture":"http://photos.doctoralia.com/635637795614492397_1.jpg","registration_number":"","salutation":"","services":"Doenças Nutricionais E Metabólicas, Obesidade, Transtornos Nutricionais","speciality":"Nutrologista","subspecialities":""}},{"url":"http://www.doctoralia.com.br/medico/paulo+engler+pinto+jr-10588511","doctor": {"address":{"1":{"address":{"lat":-23.5689809,"lng":-46.6615453,"locality":"01408-010","location":"01408-010 São Paulo, São Paulo SP","street":"Rua Cacapava, 49 - Cj. 34 (Jardim Paulista)"},"insurances":"Pacientes privados (sem plano de saúde), Cassi","misc":"","name":"Consultório","phone":"(11) 3081-9791","working_hours":""}},"education":{},"experience":"","name":"Paulo Engler Pinto Jr.","picture":"http://photos.doctoralia.com/V2635380558608040869_2.jpg","registration_number":"","salutation":"Dr","services":"","speciality":"Cirurgião do Aparelho Digestivo, Nutrologista","subspecialities":""}},{"url":"http://www.doctoralia.com.br/medico/jose+roberto+araujo+lima-10598458","doctor": {"address":{"1":{"address":{"lat":-23.5962969,"lng":-46.6683908,"locality":"04513-070","location":"04513-070 São Paulo, São Paulo SP","street":"R. Barra do Peixe, 18 (Moema)"},"insurances":"Pacientes privados (sem plano de saúde), Cassi","misc":"","name":"Consultório","phone":"(11) 3846-7973","working_hours":""}},"education":{},"experience":"","name":"Jose Roberto Araujo Lima","picture":"http://photos.doctoralia.com/635628895710102527_2.jpg","registration_number":"","salutation":"Dr","services":"","speciality":"Cirurgião plástico, Nutrologista","subspecialities":""}},{"url":"http://www.doctoralia.com.br/medico/milton+mizumoto-11898226","doctor": {"address":{"1":{"address":{"lat":-23.574312,"lng":-46.6890556,"locality":"01451-000","location":"01451-000 São Paulo, São Paulo SP","street":"Avenida Brigadeiro Faria Lima, 1912 / 4 B (Pinheiros)"},"insurances":"","misc":"","name":"Mizu Clinica Nutrologia Med Esporte E Terapia Corp","phone":"(11) 3819-1122","working_hours":""}},"education":{},"experience":"","name":"Milton Mizumoto","picture":"http://photos.doctoralia.com/635628895710102527_2.jpg","registration_number":"","salutation":"","services":"","speciality":"Nutrologista","subspecialities":""}},{"url":"http://www.doctoralia.com.br/medico/mauro+fisberg-10591296","doctor": {"address":{"1":{"address":{"lat":-23.5966263,"lng":-46.6473005,"locality":"04038-002","location":"04038-002 São Paulo, São Paulo SP","street":"Rua Borges Lagoa, 1080 - 603"},"insurances":"Pacientes privados (sem plano de saúde), Cassi","misc":"","name":"Consultório","phone":"(11) 5575-3875","working_hours":""}},"education":{},"experience":"","name":"Mauro Fisberg","picture":"http://photos.doctoralia.com/635628895710102527_2.jpg","registration_number":"","salutation":"Dr","services":"","speciality":"Nutrologista","subspecialities":""}}]}