{"webData": [{"url":"http://www.doctoralia.com.br/medico/sofia+oscimar-13607779","doctor": {"address":{"1":{"address":{"lat":-23.5010164,"lng":-46.6212136,"locality":"02036-021","location":"02036-021 São Paulo, São Paulo SP","street":"Rua Duarte de Aze73vedo 284 Cj (Santana)"},"insurances":"","misc":"","name":"Consultório","phone":"2950-5096, 2972-1419","working_hours":"13:00 às 18:00 hs"}},"education":{"1":{"degree":"Título de Especialista em Otorrinolaringologia e Cirurgia","institute":"CEMA","year":"1998"},"2":{"degree":"Mestre em Medicina","institute":"Fac Ciências Médicas da Santa Casa de São Paulo","year":"2006"},"3":{"degree":"Título de Especialista em Cirurgia Cranio-Maxilo-Facial","institute":"Santa Casa de São Paulo","year":"2008"}},"experience":"Apnéia Do Sono Tipo Obstrutiva, Deformidades Adquiridas Nasais, Malformações congênitas, Tumores Odontogênicos","name":"Oscimar Sofia","picture":"http://photos.doctoralia.com/635238630368455925_1.jpg","registration_number":"73056","salutation":"Dr","services":"Cirurgia endoscópica nasossinusal","speciality":"Otorrinolaringologista, Cirurgião Cranio-Maxilo-Facial","subspecialities":"Cirurgia Crânio-Maxilo-Facial, Cirurgia Odontológica"}},{"url":"http://www.doctoralia.com.br/medico/francisco+mello+daniel-12805617","doctor": {"address":{"1":{"address":{"lat":-23.5492355,"lng":-46.6569364,"locality":"01239-040","location":"01239-040 São Paulo, São Paulo SP","street":"Rua Mato Grosso, 128, cj. 72 (Higienópolis)"},"insurances":"Pacientes privados (sem plano de saúde), Amil, Allianz Saúde, Dix-Amico, Golden Cross, Lincx, Marítima, Omint","misc":"","name":"Consultório","phone":"11 2478 5536, 11 2478 2026","working_hours":""}},"education":{"1":{"degree":"Graduação em Medicina","institute":"Universidade Federal do Paraná - UFPR","year":"2004"},"2":{"degree":"Residência em Cirurgia Plástica","institute":"Santa Casa de Misericórdia de SP","year":"2009"},"3":{"degree":"Especialização em Cirurgia Crânio-Maxilo-Facial","institute":"Hospital de Clínicas - FMUSP","year":"2011"}},"experience":"Anormalidades Craniofaciais, Assimetria Facial, Cicatriz Hipertrófica, Craniossinostose","name":"Daniel Francisco Mello","picture":"http://photos.doctoralia.com/634980126562950894_1.jpg","registration_number":"117","salutation":"Dr","services":"Avancos Fronto Orbitarios, Reconstrucao Craniana Ou Cranio Facial, Reducao Cirurgica Da Fratura Dos Ossos Proprios Do Nariz, Tratamento Cirurgico Da Craniossinostose","speciality":"Cirurgião plástico, Cirurgião Cranio-Maxilo-Facial","subspecialities":""}},{"url":"http://www.doctoralia.com.br/medico/frick+carpes+arturo-12107238","doctor": {"address":{"1":{"address":{"lat":-23.6018876,"lng":-46.6543468,"locality":"04090010","location":"04090010 São Paulo, São Paulo SP","street":"Alameda dos Nhambiquaras, 159. (Moema)"},"insurances":"Pacientes privados (sem plano de saúde), Sul América","misc":"","name":"Consultório","phone":"11 55731970","working_hours":"Agendar"},"2":{"address":{"lat":-23.569984,"lng":-46.6456397,"locality":"1310-000","location":"1310-000 São Paulo, São Paulo SP","street":"Paulista, 200 (Bela Vista)"},"insurances":"","misc":"","name":"Hospital Santa Catarina","phone":"113-0164","working_hours":""},"3":{"address":{"lat":-23.5998959,"lng":-46.7161521,"locality":"05652-900","location":"05652-900 São Paulo, São Paulo SP","street":"Av. Albert Einstein, 627 (Morumbi)"},"insurances":"Pacientes privados (sem plano de saúde)","misc":"","name":"Hospital Israelita Albert Einstein","phone":"(11) 2151-1233","working_hours":""},"4":{"address":{"lat":-23.5668245,"lng":-46.6412999,"locality":"01323-900","location":"01323-900 São Paulo, São Paulo SP","street":"Rua Maestro Cardim, 769 (Bela Vista)"},"insurances":"","misc":"","name":"Hospital Beneficência Portuguesa - Unidade São Joaquim","phone":"(11) 3505-1000","working_hours":""},"5":{"address":{"lat":-23.5342547,"lng":-46.6880967,"locality":"05022-001","location":"05022-001 São Paulo, São Paulo SP","street":"Av. Pompeia, 1178 (Pompeia)"},"insurances":"Pacientes privados (sem plano de saúde)","misc":"","name":"Hospital São Camilo (Pompeia)","phone":"(11) 3677-4444","working_hours":""},"6":{"address":{"lat":-23.556738,"lng":-46.670129,"locality":"05403-000","location":"05403-000 São Paulo, São Paulo SP","street":"Av. Dr Enéas de Carvalho Aguiar, 255 (Cerqueira Cesar)"},"insurances":"","misc":"","name":"Hospital das Clínicas da Faculdade de Medicina Da USP","phone":"(11) 3069-6000","working_hours":""},"7":{"address":{"lat":-23.5686312,"lng":-46.6432841,"locality":"01323-903","location":"01323-903 São Paulo, São Paulo SP","street":"Rua João Julião 331 (Bela Vista)"},"insurances":"Pacientes privados (sem plano de saúde)","misc":"","name":"Hospital Alemão Oswaldo Cruz","phone":"(11) 3549-1000","working_hours":""}},"education":{},"experience":"","name":"Arturo Frick Carpes","picture":"http://photos.doctoralia.com/635354407085599882_1.jpg","registration_number":"","salutation":"Dr","services":"Doenças Maxilomandibulares, Otorrinolaringopatias, Síndromes Da Apnéia Do Sono, Traumatismos Faciais","speciality":"Otorrinolaringologista, Cirurgião Cranio-Maxilo-Facial","subspecialities":"Cirurgia Crânio-Maxilo-Facial, Cirurgia Plástica da Face, Distúrbios do Sono"}},{"url":"http://www.doctoralia.com.br/medico/furlan+de+lucca+audrien-14789974","doctor": {"address":{"1":{"address":{"lat":-23.5931042,"lng":-46.6375809,"locality":"04021050","location":"04021050 São Paulo, São Paulo SP","street":"Rua Sena Madureira 151 (Vila Clementino)"},"insurances":"","misc":"","name":"Consultório","phone":"11 50815240","working_hours":"Segunda a sexta, das 8h30 as 20h00"},"2":{"address":{"lat":-22.7544168,"lng":-47.424688,"locality":"13450-031","location":"13450-031 Santa Barbara D'Oeste, São Paulo SP","street":"Avenida Monte Castelo 775"},"insurances":"","misc":"","name":"Consultório","phone":"19 36261287","working_hours":"Terça a sexta, das 9h as 17h"},"3":{"address":{"lat":-23.5562726,"lng":-46.6555254,"locality":"01409001","location":"01409001 São Paulo, São Paulo SP","street":"Rua Peixoto Gomide, 263 (Jardins)"},"insurances":"","misc":"","name":"Centro Medico Hospital Nove de Julho","phone":"3147-8967, 3147-8857","working_hours":""}},"education":{"1":{"degree":"Graduação em Medicina","institute":"Universidade Federal de São Paulo - Escola Paulista de Medicina","year":"2007"},"2":{"degree":"Título de especialista em Cirurgia Geral","institute":"Universidade Ferderal de São Paulo - Escola Paulista de Medicina","year":"2011"},"3":{"degree":"Título de especialista em Cirurgia Plástica","institute":"Universidade Federal de São Paulo - Escola Paulista de Medicina","year":"2014"}},"experience":"","name":"Audrien Furlan de Lucca","picture":"http://photos.doctoralia.com/635443485905402311_1.jpg","registration_number":"128","salutation":"Dr","services":"Anormalidades Craniofaciais, Anormalidades Da Pele, Assimetria Facial, Carcinoma Basocelular","speciality":"Cirurgião plástico, Cirurgião Cranio-Maxilo-Facial","subspecialities":"Blefaroplastia, Cirurgia Plástica da Face, Mamoplastia de Aumento, Peeling Superficial"}}]}