{"webData": [{"url":"http://www.doctoralia.com.br/medico/david+serson-10608408","doctor": {"address":{"1":{"address":{"lat":-23.5807321,"lng":-46.6418604,"locality":"04013-010","location":"04013-010 São Paulo, São Paulo SP","street":"R Remanso, 31 (Vl Mariana)"},"insurances":"","misc":"","name":"Cedimen-Centro de Diag.Em Medica Nuclear S/C","phone":"115-5748","working_hours":""}},"education":{},"experience":"","name":"David Serson","picture":"http://photos.doctoralia.com/635367056994231345_2.jpg","registration_number":"","salutation":"Dr","services":"","speciality":"Radiologista, Especialista em Medicina Nuclear","subspecialities":"Densitometria Óssea"}},{"url":"http://www.doctoralia.com.br/medico/elkis+furlanetto+ct+diag+an+clin-10606480","doctor": {"address":{"1":{"address":{"lat":-23.5518222,"lng":-46.6608802,"locality":"01228-200","location":"01228-200 São Paulo, São Paulo SP","street":"Av. Angelica, 2250 (Consolacao)"},"insurances":"Pacientes privados (sem plano de saúde), Cassi","misc":"","name":"Consultório","phone":"","working_hours":""}},"education":{},"experience":"","name":"Elkis Furlanetto Ct Diag An Clin","picture":"http://photos.doctoralia.com/V2635385284200594124_2.jpg","registration_number":"","salutation":"Dr","services":"","speciality":"Neurologista, Gastroenterologista","subspecialities":""}},{"url":"http://www.doctoralia.com.br/medico/rigo+leticia-11958817","doctor": {"address":{"1":{"address":{"lat":-23.5668245,"lng":-46.6412999,"locality":"01323-900","location":"01323-900 São Paulo, São Paulo SP","street":"Rua Maestro Cardim, 769 (Bela Vista)"},"insurances":"","misc":"","name":"Hospital Beneficência Portuguesa - Unidade São Joaquim","phone":"(11) 3505-1000","working_hours":""}},"education":{},"experience":"","name":"Leticia Rigo","registration_number":"","salutation":"Dra","services":"","speciality":"Especialista em Medicina Nuclear","subspecialities":""}},{"url":"http://www.doctoralia.com.br/medico/shlomo+lewin-11871601","doctor": {"address":{"1":{"address":{"lat":-23.5591214,"lng":-46.652908,"locality":"01332-000","location":"01332-000 São Paulo, São Paulo SP","street":"Rua Itapeva, 366 8and Cj 83 (Bela Vista)"},"insurances":"","misc":"","name":"Uddo Unidade de Diagnostico E Densitometria Ossea","phone":"(11) 3254-6800, (11) 3284-1544, (11) 3284-1544","working_hours":""},"2":{"address":{"lat":-23.5427318,"lng":-46.6489045,"locality":"01221-020","location":"01221-020 São Paulo, São Paulo SP","street":"R. Dr. Cesario Motta Jr, 112 (Vila Buarque)"},"insurances":"","misc":"","name":"Santa Casa de São Paulo Hospital Central","phone":"(11) 2176-7000","working_hours":""}},"education":{},"experience":"","name":"Shlomo Lewin","registration_number":"","salutation":"","services":"","speciality":"Especialista em Medicina Nuclear","subspecialities":""}},{"url":"http://www.doctoralia.com.br/medico/marcelo+tatit+sapienza-11871602","doctor": {"address":{"1":{"address":{"lat":-23.5591214,"lng":-46.652908,"locality":"01332-000","location":"01332-000 São Paulo, São Paulo SP","street":"Rua Itapeva, 366 8and Cj 83 (Bela Vista)"},"insurances":"","misc":"","name":"Uddo Unidade de Diagnostico E Densitometria Ossea","phone":"(11) 3254-6800, (11) 3284-1544, (11) 3284-1544","working_hours":""}},"education":{},"experience":"","name":"Marcelo Tatit Sapienza","registration_number":"","salutation":"","services":"","speciality":"Especialista em Medicina Nuclear","subspecialities":""}},{"url":"http://www.doctoralia.com.br/medico/irene+shimura+endo-11871603","doctor": {"address":{"1":{"address":{"lat":-23.5591214,"lng":-46.652908,"locality":"01332-000","location":"01332-000 São Paulo, São Paulo SP","street":"Rua Itapeva, 366 8and Cj 83 (Bela Vista)"},"insurances":"","misc":"","name":"Uddo Unidade de Diagnostico E Densitometria Ossea","phone":"(11) 3254-6800, (11) 3284-1544, (11) 3284-1544","working_hours":""}},"education":{},"experience":"","name":"Irene Shimura Endo","registration_number":"","salutation":"","services":"","speciality":"Especialista em Medicina Nuclear","subspecialities":""}},{"url":"http://www.doctoralia.com.br/medico/guilherme+carvalho+c+neto-11871604","doctor": {"address":{"1":{"address":{"lat":-23.5591214,"lng":-46.652908,"locality":"01332-000","location":"01332-000 São Paulo, São Paulo SP","street":"Rua Itapeva, 366 8and Cj 83 (Bela Vista)"},"insurances":"","misc":"","name":"Uddo Unidade de Diagnostico E Densitometria Ossea","phone":"(11) 3254-6800, (11) 3284-1544, (11) 3284-1544","working_hours":""}},"education":{},"experience":"","name":"Guilherme Carvalho C Neto","registration_number":"","salutation":"","services":"","speciality":"Especialista em Medicina Nuclear","subspecialities":""}},{"url":"http://www.doctoralia.com.br/medico/marilia+martins+silveira+marone-11987027","doctor": {"address":{"1":{"address":{"lat":-23.5427318,"lng":-46.6489045,"locality":"01221-020","location":"01221-020 São Paulo, São Paulo SP","street":"R. Dr. Cesario Motta Jr, 112 (Vila Buarque)"},"insurances":"","misc":"","name":"Santa Casa de São Paulo Hospital Central","phone":"(11) 2176-7000","working_hours":""}},"education":{},"experience":"","name":"Marilia Martins Silveira Marone","registration_number":"","salutation":"","services":"","speciality":"Especialista em Medicina Nuclear","subspecialities":""}}]}