{"webData": [{"url":"http://www.doctoralia.com.br/medico/rodrigues+bressane+cruz+dra+camila-14482592","doctor": {"address":{"1":{"address":{"lat":-23.5939323,"lng":-46.6770605,"locality":"04537012","location":"04537012 São Paulo, São Paulo SP","street":"Rua Clodomiro Amazonas, 1099 (cj 72/73)"},"insurances":"Pacientes privados (sem plano de saúde)","misc":"","name":"Consultório","phone":"38490927, 30454612","working_hours":"16:00 às 20:00 hs"}},"education":{"1":{"degree":"Medicina","institute":"Universidade Federal de São Paulo- Unifesp","year":"2001"},"2":{"degree":"Curso de Especializacao em Medicina do Trabalho","institute":"Instituto Oscar Freire- FMUSP","year":"2002"},"3":{"degree":"Curso de Especializacao em Administracao Hospitalar","institute":"Fundacao Getulio Vargas- FGV","year":"2003"},"4":{"degree":"Curso de Especializacao em Acupuntura","institute":"Associacao Medica Brasileira de Acupuntura - AMBA","year":"2004"},"5":{"degree":"Residencia Medica em Medicina Preventiva e Social","institute":"Hospital das Clinicas - FMUSP","year":"2005"},"6":{"degree":"Título de Especialista em Acupuntura","institute":"Associação Médica Brasileira","year":"2006"},"7":{"degree":"Curso de Especializacao em Acupuntura Estetica","institute":"Hospital Sao Paulo- Unifesp","year":"2007"},"8":{"degree":"Titulo de Especialista em Medicina do Trabalho","institute":"Associacao Nacional de Medicina do Trabalho- ANAMT","year":"2010"},"9":{"degree":"Curso de Especialização Multiprofissional em Dor","institute":"Faculdade de Medicina da USP","year":"2013"}},"experience":"Dor Intratável, Dor Lombar, Fibromialgia, Síndrome Pré-Menstrual, Transtorno da Ansiedade, Transtornos Do Sono, Transtornos Mentais","name":"Camila Rodrigues Bressane Cruz","registration_number":"","salutation":"Dra","services":"Auriculoterapia, Estimulação Elétrica percutânea","speciality":"Acupunturista, Médico do trabalho","subspecialities":"Acupuntura Estética Corporal, Acupuntura Estética Facial, Acupuntura Médica"}},{"url":"http://www.doctoralia.com.br/medico/tiago+alves+de+castro-12065362","doctor": {"address":{"1":{"address":{"lat":-23.5368606,"lng":-46.5755205,"locality":"03066010","location":"03066010 São Paulo, São Paulo SP","street":"Rua Padre Antônio de Sá (Tatuapé)"},"insurances":"Pacientes privados (sem plano de saúde)","misc":"","name":"Consultório","phone":"(11) 981154999, (11) 961304999","working_hours":"Agendar"}},"education":{"1":{"degree":"Médico do Trabalho","institute":"Unoeste","year":"2009"},"2":{"degree":"Ortopedia e Traumatologia","institute":"Hospital Regional de Presidente Prudente","year":"2010"}},"experience":"","name":"Tiago Alves de Castro","picture":"http://photos.doctoralia.com/635597822449606804_2.jpg","registration_number":"","salutation":"","services":"Doenças Musculosqueléticas, Dor, Dor De Ombro, Dor Lombar","speciality":"Ortopedista - Traumatologista, Médico do trabalho","subspecialities":""}},{"url":"http://www.doctoralia.com.br/medico/maluf+da+costa+jose+antonio-14801417","doctor": {"address":{"1":{"address":{"lat":-23.5799623,"lng":-46.6417453,"locality":"04013043","location":"04013043 São Paulo, São Paulo SP","street":"Rua Cubatão, 929 cj 54 (Vl. Mariana)"},"insurances":"Pacientes privados (sem plano de saúde)","misc":"","name":"Consultório","phone":"1150842636, 1150842676","working_hours":"2ª, 4ª e 6ª - horário comercial"}},"education":{"1":{"degree":"Medicina do Trabalho","institute":"FUNDACENTRO","year":"1980"},"2":{"degree":"Direito","institute":"Universidade São Judas Tadeu","year":"1998"}},"experience":"","name":"José Antonio Maluf da Costa","picture":"http://photos.doctoralia.com/635521056951652290_2.jpg","registration_number":"","salutation":"Dr","services":"Tendinopatia","speciality":"Médico do trabalho","subspecialities":""}},{"url":"http://www.doctoralia.com.br/medico/11+9185-6471+e+11+9185-6472+e+11+8856-0751+juventino+jeremias+villarreal+torres-12138748","doctor": {"address":{"1":{"address":{"lat":-23.5505199,"lng":-46.633309399999,"locality":"05049970","location":"05049970 São Paulo, São Paulo SP","street":"Rua Catão, 72 - Cx. Postal 11687 - Vila Romana - São Paulo - SP - Brasil (Vila Romana)"},"insurances":"Pacientes privados (sem plano de saúde), Amil, Bradesco Saúde, Geap, Hapvida, Unimed, Allianz Saúde, Apas, Assefaz,  e 31 maisAssim, Banco Central, Blue Life, CABESP, Camed, Cassi, Cesp, Cooperativa de trabalho médico do Rio de Janeiro, Correios, Dix-Amico, Eletros-Saúde, Embratel, Forluz, Funcef, Gama Saúde, Golden Cross, Intermédica, Ipe Saúde, Itaú Seguros, Lincx, Marítima, Medial saude, Mediservice, Notre Dame, Omint, Petrobras, Porto Seguro, Saude Caixa, Sinam, Sul América Saúde, Unibanco Saúde","misc":"","name":"Consultório","phone":"11-9185-6471, 11-8856-0751","working_hours":"INTEGRAL"}},"education":{},"experience":"","name":"Juventino Jeremias Villarreal Torres (11) 9185-6471 E (11) 9185-6472 E (11) 8856-0751","picture":"http://photos.doctoralia.com/634469802186235495_1.jpg","registration_number":"","salutation":"Prof","services":"Eczema e dermatite atópica, Puberdade Precoce, Rinite Alérgica Perene","speciality":"Pediatra, Médico do trabalho","subspecialities":"Alergia e Imunologia Pediátrica, Medicina Pericial"}},{"url":"http://www.doctoralia.com.br/medico/natucci+rizzo+aldemir-10615377","doctor": {"address":{"1":{"address":{"lat":-23.5732547,"lng":-46.6393462,"locality":"01533-000","location":"01533-000 São Paulo, São Paulo SP","street":"R. Apeninos, 664 (cj 124) (Liberdade)"},"insurances":"Pacientes privados (sem plano de saúde), Amil, Bradesco Saúde, Allianz Saúde, Dix-Amico, Golden Cross, Medial saude","misc":"","name":"Consultório","phone":"(11) 3384-5819, (11) 3384-5820","working_hours":""}},"education":{},"experience":"","name":"Aldemir Natucci Rizzo","picture":"http://photos.doctoralia.com/V2635322461198592127_2.jpg","registration_number":"","salutation":"Dr","services":"","speciality":"Ginecologista, Médico do trabalho","subspecialities":""}},{"url":"http://www.doctoralia.com.br/medico/valdemiro+de+souza+lima+junior-10582507","doctor": {"address":{"1":{"address":{"lat":-23.5368617,"lng":-46.590176799999,"locality":"03014-000","location":"03014-000 São Paulo, São Paulo SP","street":"Celso Garcia, 2294"},"insurances":"Pacientes privados (sem plano de saúde), Sul América Saúde","misc":"","name":"Consultório","phone":"(11) 2799-3381","working_hours":""}},"education":{},"experience":"","name":"Valdemiro de Souza Lima Júnior","picture":"http://photos.doctoralia.com/635630789431063002_2.jpg","registration_number":"","salutation":"Dr","services":"","speciality":"Médico do trabalho","subspecialities":""}},{"url":"http://www.doctoralia.com.br/medico/carlos+frederico+vergueiro-10610918","doctor": {"address":{"1":{"address":{"lat":-23.6396389,"lng":-46.584713699999,"locality":"04186-220","location":"04186-220 São Paulo, São Paulo SP","street":"Av Abrahao Gonçalves Braga, 412 (Vila Livieiro)"},"insurances":"Pacientes privados (sem plano de saúde), Cassi","misc":"","name":"Consultório","phone":"(11) 2333-9156, (11) 8918-8187","working_hours":""}},"education":{},"experience":"","name":"Carlos Frederico Vergueiro","picture":"http://photos.doctoralia.com/635427142180220271_2.jpg","registration_number":"","salutation":"Dr","services":"","speciality":"Acupunturista, Médico do trabalho","subspecialities":""}},{"url":"http://www.doctoralia.com.br/medico/alexandre+alberto+aquino+de+andrade-12093070","doctor": {"address":{"1":{"address":{"lat":-23.4979792,"lng":-46.4434425,"locality":"08011-390","location":"08011-390 São Paulo, São Paulo SP","street":"Avenida Antonio Bernardo Silvestre - 121 (Sao Miguel Paulista)"},"insurances":"","misc":"","name":"Unexato Unidade Medica","phone":"(11) 2297-5863, (11) 6297-5863, (11) 6297-5863","working_hours":""}},"education":{},"experience":"","name":"Alexandre Alberto Aquino de Andrade","picture":"http://photos.doctoralia.com/635630789431063002_2.jpg","registration_number":"","salutation":"","services":"","speciality":"Médico do trabalho","subspecialities":""}},{"url":"http://www.doctoralia.com.br/medico/francisco+castilho+marcondes-12018596","doctor": {"address":{"1":{"address":{"lat":-23.6572847,"lng":-46.6537446,"locality":"04378-500","location":"04378-500 São Paulo, São Paulo SP","street":"Av. Santa Catarina, 2785 (Jabaquara)"},"insurances":"","misc":"","name":"Hospital e Maternidade Santa Marina","phone":"(11) 5013-1100","working_hours":""}},"education":{},"experience":"","name":"Francisco Castilho Marcondes","picture":"http://photos.doctoralia.com/635477086709856008_2.jpg","registration_number":"","salutation":"","services":"","speciality":"Médico do trabalho","subspecialities":""}},{"url":"http://www.doctoralia.com.br/medico/luiz+carlos+david-11962813","doctor": {"address":{"1":{"address":{"lat":-23.5837935,"lng":-46.6110737,"locality":"04262-000","location":"04262-000 São Paulo, São Paulo SP","street":"Av. Nazaré, 28, (Ipiranga)"},"insurances":"","misc":"","name":"Hospital Ipiranga","phone":"(11) 2067-7799","working_hours":""}},"education":{},"experience":"","name":"Luiz Carlos David","picture":"http://photos.doctoralia.com/635630789431063002_2.jpg","registration_number":"","salutation":"","services":"","speciality":"Médico do trabalho","subspecialities":""}},{"url":"http://www.doctoralia.com.br/medico/george+stojkow-10604110","doctor": {"address":{"1":{"address":{"lat":-23.5979617,"lng":-46.6806766,"locality":"04546-003","location":"04546-003 São Paulo, São Paulo SP","street":"Rua Casa do Ator, 764 (Vila Olímpia)"},"insurances":"Pacientes privados (sem plano de saúde), Unimed","misc":"","name":"Consultório","phone":"(11) 5096-0140","working_hours":""}},"education":{},"experience":"","name":"George Stojkow","picture":"http://photos.doctoralia.com/635630789431063002_2.jpg","registration_number":"","salutation":"Dr","services":"","speciality":"Médico do trabalho","subspecialities":""}},{"url":"http://www.doctoralia.com.br/medico/sonia+regina+lourenco+donegatti-11868662","doctor": {"address":{"1":{"address":{"lat":-23.5505199,"lng":-46.633309399999,"locality":"05001-000","location":"05001-000 São Paulo, São Paulo SP","street":"Avenida Francisco Matarazzo, 74 / Terreo (Perdizes)"},"insurances":"","misc":"","name":"Seconci","phone":"(11) 3664--5050","working_hours":""}},"education":{},"experience":"","name":"Sonia Regina Lourenco Donegatti","picture":"http://photos.doctoralia.com/635630789431063002_2.jpg","registration_number":"","salutation":"","services":"","speciality":"Médico do trabalho","subspecialities":""}},{"url":"http://www.doctoralia.com.br/medico/fernando+storte-11908029","doctor": {"address":{"1":{"address":{"lat":-23.6076115,"lng":-46.4785398,"locality":"03949-300","location":"03949-300 São Paulo, São Paulo SP","street":"Avenida Mateo Bei 3062 (Sao Mateus)"},"insurances":"","misc":"","name":"Pronto Saude For Life","phone":"(11) 2010-7432, (11) 6110-7432, (11) 6110-7432","working_hours":""}},"education":{},"experience":"","name":"Fernando Storte","picture":"http://photos.doctoralia.com/635630789431063002_2.jpg","registration_number":"","salutation":"","services":"","speciality":"Médico do trabalho","subspecialities":""}},{"url":"http://www.doctoralia.com.br/medico/jose+jackson+martins-11863766","doctor": {"address":{"1":{"address":{"lat":-23.5505199,"lng":-46.633309399999,"locality":"05001-000","location":"05001-000 São Paulo, São Paulo SP","street":"Avenida Francisco Matarazzo, 74 / Terreo (Perdizes)"},"insurances":"","misc":"","name":"Seconci","phone":"(11) 3664--5050","working_hours":""}},"education":{},"experience":"","name":"Jose Jackson Martins","picture":"http://photos.doctoralia.com/635630789431063002_2.jpg","registration_number":"","salutation":"","services":"","speciality":"Médico do trabalho","subspecialities":""}},{"url":"http://www.doctoralia.com.br/medico/wladimir+di+fiori-11868658","doctor": {"address":{"1":{"address":{"lat":-23.5505199,"lng":-46.633309399999,"locality":"05001-000","location":"05001-000 São Paulo, São Paulo SP","street":"Avenida Francisco Matarazzo, 74 / Terreo (Perdizes)"},"insurances":"","misc":"","name":"Seconci","phone":"(11) 3664--5050","working_hours":""}},"education":{},"experience":"","name":"Wladimir Di Fiori","picture":"http://photos.doctoralia.com/635630789431063002_2.jpg","registration_number":"","salutation":"","services":"","speciality":"Médico do trabalho","subspecialities":""}},{"url":"http://www.doctoralia.com.br/medico/celia+mariza+figueiredo+nakano-11962814","doctor": {"address":{"1":{"address":{"lat":-23.5837935,"lng":-46.6110737,"locality":"04262-000","location":"04262-000 São Paulo, São Paulo SP","street":"Av. Nazaré, 28, (Ipiranga)"},"insurances":"","misc":"","name":"Hospital Ipiranga","phone":"(11) 2067-7799","working_hours":""}},"education":{},"experience":"","name":"Celia Mariza Figueiredo Nakano","picture":"http://photos.doctoralia.com/635630789431063002_2.jpg","registration_number":"","salutation":"","services":"","speciality":"Médico do trabalho","subspecialities":""}},{"url":"http://www.doctoralia.com.br/medico/adriana+jorge+araujo+azevedo-11986998","doctor": {"address":{"1":{"address":{"lat":-23.5427318,"lng":-46.6489045,"locality":"01221-020","location":"01221-020 São Paulo, São Paulo SP","street":"R. Dr. Cesario Motta Jr, 112 (Vila Buarque)"},"insurances":"","misc":"","name":"Santa Casa de São Paulo Hospital Central","phone":"(11) 2176-7000","working_hours":""}},"education":{},"experience":"","name":"Adriana Jorge Araujo Azevedo","picture":"http://photos.doctoralia.com/635630789431063002_2.jpg","registration_number":"","salutation":"","services":"","speciality":"Médico do trabalho","subspecialities":""}},{"url":"http://www.doctoralia.com.br/medico/flavia+souza+e+silva+de+almeida-11987001","doctor": {"address":{"1":{"address":{"lat":-23.5427318,"lng":-46.6489045,"locality":"01221-020","location":"01221-020 São Paulo, São Paulo SP","street":"R. Dr. Cesario Motta Jr, 112 (Vila Buarque)"},"insurances":"","misc":"","name":"Santa Casa de São Paulo Hospital Central","phone":"(11) 2176-7000","working_hours":""}},"education":{},"experience":"","name":"Flavia Souza e Silva de Almeida","picture":"http://photos.doctoralia.com/635477086709856008_2.jpg","registration_number":"","salutation":"","services":"","speciality":"Médico do trabalho","subspecialities":""}},{"url":"http://www.doctoralia.com.br/medico/edson+navarrette-11863765","doctor": {"address":{"1":{"address":{"lat":-23.5505199,"lng":-46.633309399999,"locality":"05001-000","location":"05001-000 São Paulo, São Paulo SP","street":"Avenida Francisco Matarazzo, 74 / Terreo (Perdizes)"},"insurances":"","misc":"","name":"Seconci","phone":"(11) 3664--5050","working_hours":""}},"education":{},"experience":"","name":"Edson Navarrette","picture":"http://photos.doctoralia.com/635521056951652290_2.jpg","registration_number":"","salutation":"","services":"","speciality":"Médico do trabalho","subspecialities":""}},{"url":"http://www.doctoralia.com.br/medico/douglas+de+freitas+queiroz-11863767","doctor": {"address":{"1":{"address":{"lat":-23.5505199,"lng":-46.633309399999,"locality":"05001-000","location":"05001-000 São Paulo, São Paulo SP","street":"Avenida Francisco Matarazzo, 74 / Terreo (Perdizes)"},"insurances":"","misc":"","name":"Seconci","phone":"(11) 3664--5050","working_hours":""}},"education":{},"experience":"","name":"Douglas de Freitas Queiroz","picture":"http://photos.doctoralia.com/635630789431063002_2.jpg","registration_number":"","salutation":"","services":"","speciality":"Médico do trabalho","subspecialities":""}},{"url":"http://www.doctoralia.com.br/medico/gioacchino+vecchione-11868654","doctor": {"address":{"1":{"address":{"lat":-23.5505199,"lng":-46.633309399999,"locality":"05001-000","location":"05001-000 São Paulo, São Paulo SP","street":"Avenida Francisco Matarazzo, 74 / Terreo (Perdizes)"},"insurances":"","misc":"","name":"Seconci","phone":"(11) 3664--5050","working_hours":""}},"education":{},"experience":"","name":"Gioacchino Vecchione","picture":"http://photos.doctoralia.com/635630789431063002_2.jpg","registration_number":"","salutation":"","services":"","speciality":"Médico do trabalho","subspecialities":""}},{"url":"http://www.doctoralia.com.br/medico/emilia+mary+dos+santos+lino-11868656","doctor": {"address":{"1":{"address":{"lat":-23.5505199,"lng":-46.633309399999,"locality":"05001-000","location":"05001-000 São Paulo, São Paulo SP","street":"Avenida Francisco Matarazzo, 74 / Terreo (Perdizes)"},"insurances":"","misc":"","name":"Seconci","phone":"(11) 3664--5050","working_hours":""}},"education":{},"experience":"","name":"Emilia Mary dos Santos Lino","picture":"http://photos.doctoralia.com/635630789431063002_2.jpg","registration_number":"","salutation":"","services":"","speciality":"Médico do trabalho","subspecialities":""}},{"url":"http://www.doctoralia.com.br/medico/jose+gustavo+breda-11868657","doctor": {"address":{"1":{"address":{"lat":-23.5505199,"lng":-46.633309399999,"locality":"05001-000","location":"05001-000 São Paulo, São Paulo SP","street":"Avenida Francisco Matarazzo, 74 / Terreo (Perdizes)"},"insurances":"","misc":"","name":"Seconci","phone":"(11) 3664--5050","working_hours":""}},"education":{},"experience":"","name":"Jose Gustavo Breda","picture":"http://photos.doctoralia.com/635477086709856008_2.jpg","registration_number":"","salutation":"","services":"","speciality":"Médico do trabalho","subspecialities":""}},{"url":"http://www.doctoralia.com.br/medico/ana+neife+aith+ribeiro-11868663","doctor": {"address":{"1":{"address":{"lat":-23.5505199,"lng":-46.633309399999,"locality":"05001-000","location":"05001-000 São Paulo, São Paulo SP","street":"Avenida Francisco Matarazzo, 74 / Terreo (Perdizes)"},"insurances":"","misc":"","name":"Seconci","phone":"(11) 3664--5050","working_hours":""}},"education":{},"experience":"","name":"Ana Neife Aith Ribeiro","picture":"http://photos.doctoralia.com/635477086709856008_2.jpg","registration_number":"","salutation":"","services":"","speciality":"Médico do trabalho","subspecialities":""}},{"url":"http://www.doctoralia.com.br/medico/jamile+kassis+ward+leite-11869960","doctor": {"address":{"1":{"address":{"lat":-23.5839931,"lng":-46.6348025,"locality":"04110-000","location":"04110-000 São Paulo, São Paulo SP","street":"Rua Carlos Petit, 250  (Casa) (Vila Mariana)"},"insurances":"","misc":"","name":"Prevclin Serviços Médicos","phone":"(11) 5081-3044, (11) 5081-7831, (11) 5083-3810","working_hours":""}},"education":{},"experience":"","name":"Jamile Kassis Ward Leite","picture":"http://photos.doctoralia.com/635521056951652290_2.jpg","registration_number":"","salutation":"","services":"","speciality":"Médico do trabalho","subspecialities":""}},{"url":"http://www.doctoralia.com.br/medico/ivan+adolfo+miranda+quintana-11916666","doctor": {"address":{"1":{"address":{"lat":-23.5309944,"lng":-46.6528385,"locality":"01153-000","location":"01153-000 São Paulo, São Paulo SP","street":"Rua Vitorino Carmilo, 717 (Barra Funda)"},"insurances":"","misc":"","name":"Pronto Socorro Mun Doutor Alvaro Dino de Almeida","phone":"(11) 3825-3105","working_hours":""}},"education":{},"experience":"","name":"Ivan Adolfo Miranda Quintana","picture":"http://photos.doctoralia.com/635630789431063002_2.jpg","registration_number":"","salutation":"","services":"","speciality":"Médico do trabalho","subspecialities":""}},{"url":"http://www.doctoralia.com.br/medico/luiz+ricardo+gonzalez-11962815","doctor": {"address":{"1":{"address":{"lat":-23.5837935,"lng":-46.6110737,"locality":"04262-000","location":"04262-000 São Paulo, São Paulo SP","street":"Av. Nazaré, 28, (Ipiranga)"},"insurances":"","misc":"","name":"Hospital Ipiranga","phone":"(11) 2067-7799","working_hours":""}},"education":{},"experience":"","name":"Luiz Ricardo Gonzalez","picture":"http://photos.doctoralia.com/635521056951652290_2.jpg","registration_number":"","salutation":"","services":"","speciality":"Médico do trabalho","subspecialities":""}},{"url":"http://www.doctoralia.com.br/medico/joao+alfredo+guimaraes+neto-11986993","doctor": {"address":{"1":{"address":{"lat":-23.5427318,"lng":-46.6489045,"locality":"01221-020","location":"01221-020 São Paulo, São Paulo SP","street":"R. Dr. Cesario Motta Jr, 112 (Vila Buarque)"},"insurances":"","misc":"","name":"Santa Casa de São Paulo Hospital Central","phone":"(11) 2176-7000","working_hours":""}},"education":{},"experience":"","name":"Joao Alfredo Guimaraes Neto","picture":"http://photos.doctoralia.com/635630789431063002_2.jpg","registration_number":"","salutation":"","services":"","speciality":"Médico do trabalho","subspecialities":""}},{"url":"http://www.doctoralia.com.br/medico/gustavo+dos+santos+pereira+dutra-11987000","doctor": {"address":{"1":{"address":{"lat":-23.5427318,"lng":-46.6489045,"locality":"01221-020","location":"01221-020 São Paulo, São Paulo SP","street":"R. Dr. Cesario Motta Jr, 112 (Vila Buarque)"},"insurances":"","misc":"","name":"Santa Casa de São Paulo Hospital Central","phone":"(11) 2176-7000","working_hours":""}},"education":{},"experience":"","name":"Gustavo dos Santos Pereira Dutra","picture":"http://photos.doctoralia.com/635477086709856008_2.jpg","registration_number":"","salutation":"","services":"","speciality":"Médico do trabalho","subspecialities":""}},{"url":"http://www.doctoralia.com.br/medico/alvaro+antonio+gomes+moreira-11987002","doctor": {"address":{"1":{"address":{"lat":-23.5427318,"lng":-46.6489045,"locality":"01221-020","location":"01221-020 São Paulo, São Paulo SP","street":"R. Dr. Cesario Motta Jr, 112 (Vila Buarque)"},"insurances":"","misc":"","name":"Santa Casa de São Paulo Hospital Central","phone":"(11) 2176-7000","working_hours":""}},"education":{},"experience":"","name":"Alvaro Antonio Gomes Moreira","picture":"http://photos.doctoralia.com/635521056951652290_2.jpg","registration_number":"","salutation":"","services":"","speciality":"Médico do trabalho","subspecialities":""}},{"url":"http://www.doctoralia.com.br/medico/patricia+rigobelo+chaud-11987003","doctor": {"address":{"1":{"address":{"lat":-23.5427318,"lng":-46.6489045,"locality":"01221-020","location":"01221-020 São Paulo, São Paulo SP","street":"R. Dr. Cesario Motta Jr, 112 (Vila Buarque)"},"insurances":"","misc":"","name":"Santa Casa de São Paulo Hospital Central","phone":"(11) 2176-7000","working_hours":""}},"education":{},"experience":"","name":"Patricia Rigobelo Chaud","picture":"http://photos.doctoralia.com/635477086709856008_2.jpg","registration_number":"","salutation":"","services":"","speciality":"Médico do trabalho","subspecialities":""}},{"url":"http://www.doctoralia.com.br/medico/octavio+augusto+camilo+de+oliveira-11987004","doctor": {"address":{"1":{"address":{"lat":-23.5427318,"lng":-46.6489045,"locality":"01221-020","location":"01221-020 São Paulo, São Paulo SP","street":"R. Dr. Cesario Motta Jr, 112 (Vila Buarque)"},"insurances":"","misc":"","name":"Santa Casa de São Paulo Hospital Central","phone":"(11) 2176-7000","working_hours":""}},"education":{},"experience":"","name":"Octavio Augusto Camilo de Oliveira","picture":"http://photos.doctoralia.com/635521056951652290_2.jpg","registration_number":"","salutation":"","services":"","speciality":"Médico do trabalho","subspecialities":""}},{"url":"http://www.doctoralia.com.br/medico/maury+castellao+tavares-12087820","doctor": {"address":{"1":{"address":{"lat":-23.5566208,"lng":-46.6253464,"locality":"01518-020","location":"01518-020 São Paulo, São Paulo SP","street":"Rua Leopoldo Miguez, 327 (Cambuci)"},"insurances":"","misc":"","name":"Pam Varzea Do Carmo Nga 63","phone":"(11) 3385-7000","working_hours":""}},"education":{},"experience":"","name":"Maury Castellao Tavares","picture":"http://photos.doctoralia.com/635521056951652290_2.jpg","registration_number":"","salutation":"","services":"","speciality":"Médico do trabalho","subspecialities":""}},{"url":"http://www.doctoralia.com.br/medico/marco+antonio+brollo-11868655","doctor": {"address":{"1":{"address":{"lat":-23.5505199,"lng":-46.633309399999,"locality":"05001-000","location":"05001-000 São Paulo, São Paulo SP","street":"Avenida Francisco Matarazzo, 74 / Terreo (Perdizes)"},"insurances":"","misc":"","name":"Seconci","phone":"(11) 3664--5050","working_hours":""}},"education":{},"experience":"","name":"Marco Antonio Brollo","picture":"http://photos.doctoralia.com/635630789431063002_2.jpg","registration_number":"","salutation":"","services":"","speciality":"Médico do trabalho","subspecialities":""}},{"url":"http://www.doctoralia.com.br/medico/leila+quadrat+goulart-11868659","doctor": {"address":{"1":{"address":{"lat":-23.5505199,"lng":-46.633309399999,"locality":"05001-000","location":"05001-000 São Paulo, São Paulo SP","street":"Avenida Francisco Matarazzo, 74 / Terreo (Perdizes)"},"insurances":"","misc":"","name":"Seconci","phone":"(11) 3664--5050","working_hours":""}},"education":{},"experience":"","name":"Leila Quadrat Goulart","picture":"http://photos.doctoralia.com/635521056951652290_2.jpg","registration_number":"","salutation":"","services":"","speciality":"Médico do trabalho","subspecialities":""}},{"url":"http://www.doctoralia.com.br/medico/jose+jairo+martins-11868660","doctor": {"address":{"1":{"address":{"lat":-23.5505199,"lng":-46.633309399999,"locality":"05001-000","location":"05001-000 São Paulo, São Paulo SP","street":"Avenida Francisco Matarazzo, 74 / Terreo (Perdizes)"},"insurances":"","misc":"","name":"Seconci","phone":"(11) 3664--5050","working_hours":""}},"education":{},"experience":"","name":"Jose Jairo Martins","picture":"http://photos.doctoralia.com/635521056951652290_2.jpg","registration_number":"","salutation":"","services":"","speciality":"Médico do trabalho","subspecialities":""}},{"url":"http://www.doctoralia.com.br/medico/xiomara+miranda+salvetti-11868661","doctor": {"address":{"1":{"address":{"lat":-23.5505199,"lng":-46.633309399999,"locality":"05001-000","location":"05001-000 São Paulo, São Paulo SP","street":"Avenida Francisco Matarazzo, 74 / Terreo (Perdizes)"},"insurances":"","misc":"","name":"Seconci","phone":"(11) 3664--5050","working_hours":""}},"education":{},"experience":"","name":"Xiomara Miranda Salvetti","picture":"http://photos.doctoralia.com/635630789431063002_2.jpg","registration_number":"","salutation":"","services":"","speciality":"Médico do trabalho","subspecialities":""}},{"url":"http://www.doctoralia.com.br/medico/mauricy+aparecida+masini+busico-11868664","doctor": {"address":{"1":{"address":{"lat":-23.5505199,"lng":-46.633309399999,"locality":"05001-000","location":"05001-000 São Paulo, São Paulo SP","street":"Avenida Francisco Matarazzo, 74 / Terreo (Perdizes)"},"insurances":"","misc":"","name":"Seconci","phone":"(11) 3664--5050","working_hours":""}},"education":{},"experience":"","name":"Mauricy Aparecida Masini Busico","picture":"http://photos.doctoralia.com/635630789431063002_2.jpg","registration_number":"","salutation":"","services":"","speciality":"Médico do trabalho","subspecialities":""}},{"url":"http://www.doctoralia.com.br/medico/carlos+alberto+de+souza+coelho-11962812","doctor": {"address":{"1":{"address":{"lat":-23.5837935,"lng":-46.6110737,"locality":"04262-000","location":"04262-000 São Paulo, São Paulo SP","street":"Av. Nazaré, 28, (Ipiranga)"},"insurances":"","misc":"","name":"Hospital Ipiranga","phone":"(11) 2067-7799","working_hours":""}},"education":{},"experience":"","name":"Carlos Alberto de Souza Coelho","picture":"http://photos.doctoralia.com/635521056951652290_2.jpg","registration_number":"","salutation":"","services":"","speciality":"Médico do trabalho","subspecialities":""}},{"url":"http://www.doctoralia.com.br/medico/maria+do+socorro+diniz-11986994","doctor": {"address":{"1":{"address":{"lat":-23.5427318,"lng":-46.6489045,"locality":"01221-020","location":"01221-020 São Paulo, São Paulo SP","street":"R. Dr. Cesario Motta Jr, 112 (Vila Buarque)"},"insurances":"","misc":"","name":"Santa Casa de São Paulo Hospital Central","phone":"(11) 2176-7000","working_hours":""}},"education":{},"experience":"","name":"Maria do Socorro Diniz","picture":"http://photos.doctoralia.com/635630789431063002_2.jpg","registration_number":"","salutation":"","services":"","speciality":"Médico do trabalho","subspecialities":""}},{"url":"http://www.doctoralia.com.br/medico/orlando+jose+russi-11986995","doctor": {"address":{"1":{"address":{"lat":-23.5427318,"lng":-46.6489045,"locality":"01221-020","location":"01221-020 São Paulo, São Paulo SP","street":"R. Dr. Cesario Motta Jr, 112 (Vila Buarque)"},"insurances":"","misc":"","name":"Santa Casa de São Paulo Hospital Central","phone":"(11) 2176-7000","working_hours":""}},"education":{},"experience":"","name":"Orlando Jose Russi","picture":"http://photos.doctoralia.com/635521056951652290_2.jpg","registration_number":"","salutation":"","services":"","speciality":"Médico do trabalho","subspecialities":""}},{"url":"http://www.doctoralia.com.br/medico/debora+cristina+quevedo+ferraz-11986996","doctor": {"address":{"1":{"address":{"lat":-23.5427318,"lng":-46.6489045,"locality":"01221-020","location":"01221-020 São Paulo, São Paulo SP","street":"R. Dr. Cesario Motta Jr, 112 (Vila Buarque)"},"insurances":"","misc":"","name":"Santa Casa de São Paulo Hospital Central","phone":"(11) 2176-7000","working_hours":""}},"education":{},"experience":"","name":"Debora Cristina Quevedo Ferraz","picture":"http://photos.doctoralia.com/635630789431063002_2.jpg","registration_number":"","salutation":"","services":"","speciality":"Médico do trabalho","subspecialities":""}},{"url":"http://www.doctoralia.com.br/medico/wilson+jose+garcia+ferraz-11986997","doctor": {"address":{"1":{"address":{"lat":-23.5427318,"lng":-46.6489045,"locality":"01221-020","location":"01221-020 São Paulo, São Paulo SP","street":"R. Dr. Cesario Motta Jr, 112 (Vila Buarque)"},"insurances":"","misc":"","name":"Santa Casa de São Paulo Hospital Central","phone":"(11) 2176-7000","working_hours":""}},"education":{},"experience":"","name":"Wilson Jose Garcia Ferraz","picture":"http://photos.doctoralia.com/635630789431063002_2.jpg","registration_number":"","salutation":"","services":"","speciality":"Médico do trabalho","subspecialities":""}},{"url":"http://www.doctoralia.com.br/medico/patricia+tami+abe-11986999","doctor": {"address":{"1":{"address":{"lat":-23.5427318,"lng":-46.6489045,"locality":"01221-020","location":"01221-020 São Paulo, São Paulo SP","street":"R. Dr. Cesario Motta Jr, 112 (Vila Buarque)"},"insurances":"","misc":"","name":"Santa Casa de São Paulo Hospital Central","phone":"(11) 2176-7000","working_hours":""}},"education":{},"experience":"","name":"Patricia Tami Abe","picture":"http://photos.doctoralia.com/635630789431063002_2.jpg","registration_number":"","salutation":"","services":"","speciality":"Médico do trabalho","subspecialities":""}},{"url":"http://www.doctoralia.com.br/medico/luiz+martins+junior-12091258","doctor": {"address":{"1":{"address":{"lat":-23.530642,"lng":-46.5994896,"locality":"03021-040","location":"03021-040 São Paulo, São Paulo SP","street":"R. Jequitinhonha, 360\n (Belém)"},"insurances":"","misc":"","name":"PAM Maria Zélia","phone":"(11) 6291-3833, (11) 6291-3025","working_hours":""}},"education":{},"experience":"","name":"Luiz Martins Junior","picture":"http://photos.doctoralia.com/635477086709856008_2.jpg","registration_number":"","salutation":"","services":"","speciality":"Médico do trabalho","subspecialities":""}},{"url":"http://www.doctoralia.com.br/medico/alberto+soares+da+costa-10615282","doctor": {"address":{"1":{"address":{"lat":-23.6185568,"lng":-46.5739215,"locality":"09530-060","location":"09530-060 São Caetano do Sul, São Paulo SP","street":"Rua Conceição, 769 (Santo Antonio)"},"insurances":"Pacientes privados (sem plano de saúde), Unimed","misc":"","name":"Consultório","phone":"(11) 4229-6557","working_hours":""}},"education":{},"experience":"","name":"Alberto Soares da Costa","picture":"http://photos.doctoralia.com/635606397122518630_2.jpg","registration_number":"","salutation":"Dr","services":"","speciality":"Médico clínico, Médico do trabalho","subspecialities":""}},{"url":"http://www.doctoralia.com.br/medico/gessio+oliveira-11899993","doctor": {"address":{"1":{"address":{"lat":-23.6152527,"lng":-46.5745234,"locality":"09521-310","location":"09521-310 São Caetano do Sul, São Paulo SP","street":"Avenida Goias, 335 / 2 Andar Sala 22 (Centro)"},"insurances":"","misc":"","name":"Mestmedicina E Seguranca Do Trabalhosao Caetano Do Sul","phone":"(11) 4228-4602","working_hours":""}},"education":{},"experience":"","name":"Gessio Oliveira","picture":"http://photos.doctoralia.com/635521056951652290_2.jpg","registration_number":"","salutation":"","services":"","speciality":"Médico do trabalho","subspecialities":""}},{"url":"http://www.doctoralia.com.br/medico/amilton+sevilhano+casado+jr-11899997","doctor": {"address":{"1":{"address":{"lat":-23.6139734,"lng":-46.572562,"locality":"09510-101","location":"09510-101 São Caetano do Sul, São Paulo SP","street":"Rua Manoel Coelho, 500 / Sala 101 (Centro)"},"insurances":"","misc":"","name":"Ocupacional Saude Higseg E Med Do Trabalho Sc Do Sul","phone":"(11) 4224-2016","working_hours":""}},"education":{},"experience":"","name":"Amilton Sevilhano Casado Jr","picture":"http://photos.doctoralia.com/635521056951652290_2.jpg","registration_number":"","salutation":"","services":"","speciality":"Médico do trabalho","subspecialities":""}},{"url":"http://www.doctoralia.com.br/medico/osvaldo+sadao+kohatsu-12013371","doctor": {"address":{"1":{"address":{"lat":-23.706749,"lng":-46.6094434,"locality":"09980-150","location":"09980-150 Diadema, São Paulo SP","street":"Rua Jose Bonifacio, 1641 (Serraria)"},"insurances":"","misc":"","name":"Hospital Estadual de Diadema Hospital Serraria","phone":"(11) 3583-1400","working_hours":""}},"education":{},"experience":"","name":"Osvaldo Sadao Kohatsu","picture":"http://photos.doctoralia.com/635630789431063002_2.jpg","registration_number":"","salutation":"","services":"","speciality":"Médico do trabalho","subspecialities":""}},{"url":"http://www.doctoralia.com.br/medico/edna+aparecida+rosa-11889561","doctor": {"address":{"1":{"address":{"lat":-23.6904196,"lng":-46.627125199999,"locality":"09910-250","location":"09910-250 Diadema, São Paulo SP","street":"Rua Oriente Monti, 28 / 4 Andar (Centro)"},"insurances":"","misc":"","name":"Cerest Centro de Referencia Em Saude Do Trabalhador de Diadema","phone":"(11) 4053-5300","working_hours":""}},"education":{},"experience":"","name":"Edna Aparecida Rosa","picture":"http://photos.doctoralia.com/635630789431063002_2.jpg","registration_number":"","salutation":"","services":"","speciality":"Médico do trabalho","subspecialities":""}},{"url":"http://www.doctoralia.com.br/medico/artur+ferreira+modena-11889562","doctor": {"address":{"1":{"address":{"lat":-23.6904196,"lng":-46.627125199999,"locality":"09910-250","location":"09910-250 Diadema, São Paulo SP","street":"Rua Oriente Monti, 28 / 4 Andar (Centro)"},"insurances":"","misc":"","name":"Cerest Centro de Referencia Em Saude Do Trabalhador de Diadema","phone":"(11) 4053-5300","working_hours":""}},"education":{},"experience":"","name":"Artur Ferreira Modena","picture":"http://photos.doctoralia.com/635630789431063002_2.jpg","registration_number":"","salutation":"","services":"","speciality":"Médico do trabalho","subspecialities":""}},{"url":"http://www.doctoralia.com.br/medico/carlos+eduardo+martins-12001232","doctor": {"address":{"1":{"address":{"lat":-23.4657034,"lng":-46.5481983,"locality":"07051-000","location":"07051-000 Guarulhos, São Paulo SP","street":"Avenida Emilio Ribas, 1573 (Gopouva)"},"insurances":"","misc":"","name":"Complexo Hospitalar Padre Bento de Guarulhos","phone":"(11) 2463-5650","working_hours":""}},"education":{},"experience":"","name":"Carlos Eduardo Martins","picture":"http://photos.doctoralia.com/635630789431063002_2.jpg","registration_number":"","salutation":"","services":"","speciality":"Médico do trabalho","subspecialities":""}},{"url":"http://www.doctoralia.com.br/medico/jose+ferrer+de+carvalho+moreira-11890715","doctor": {"address":{"1":{"address":{"lat":-23.4542498,"lng":-46.5337925,"locality":"07115-000","location":"07115-000 Guarulhos, São Paulo SP","street":"Avenida Senador Salgado Filho, 427 (Centro)"},"insurances":"","misc":"","name":"Presmed","phone":"(11) 6463-6016","working_hours":""}},"education":{},"experience":"","name":"Jose Ferrer de Carvalho Moreira","picture":"http://photos.doctoralia.com/635521056951652290_2.jpg","registration_number":"","salutation":"","services":"","speciality":"Médico do trabalho","subspecialities":""}},{"url":"http://www.doctoralia.com.br/medico/osorobal+carneiro+de+oliveira-11890714","doctor": {"address":{"1":{"address":{"lat":-23.4542498,"lng":-46.5337925,"locality":"07115-000","location":"07115-000 Guarulhos, São Paulo SP","street":"Avenida Senador Salgado Filho, 427 (Centro)"},"insurances":"","misc":"","name":"Presmed","phone":"(11) 6463-6016","working_hours":""}},"education":{},"experience":"","name":"Osorobal Carneiro de Oliveira","picture":"http://photos.doctoralia.com/635630789431063002_2.jpg","registration_number":"","salutation":"","services":"","speciality":"Médico do trabalho","subspecialities":""}},{"url":"http://www.doctoralia.com.br/medico/louise+rossetti-11915365","doctor": {"address":{"1":{"address":{"lat":-23.4153225,"lng":-46.5079345,"locality":"07144-000","location":"07144-000 Guarulhos, São Paulo SP","street":"Avenida Silvestre Pires de Freitas, 50 (Jd Paraiso)"},"insurances":"","misc":"","name":"Policlinica Jardim Paraiso","phone":"(11) 6402-0775","working_hours":""}},"education":{},"experience":"","name":"Louise Rossetti","picture":"http://photos.doctoralia.com/635477086709856008_2.jpg","registration_number":"","salutation":"","services":"","speciality":"Médico do trabalho","subspecialities":""}},{"url":"http://www.doctoralia.com.br/medico/wilson+brasil+cifolillo-12023355","doctor": {"address":{"1":{"address":{"lat":-23.5327025,"lng":-46.784613,"locality":"06010-130","location":"06010-130 Osasco, São Paulo SP","street":"Avenida dos Autonomistas, 2505"},"insurances":"","misc":"","name":"Hospital Cruzeiro Do Sul","phone":"(11) 3606-9000, (11) 3683-1954, (11) 3688-1351","working_hours":""}},"education":{},"experience":"","name":"Wilson Brasil Cifolillo","picture":"http://photos.doctoralia.com/635630789431063002_2.jpg","registration_number":"","salutation":"","services":"","speciality":"Médico do trabalho","subspecialities":""}},{"url":"http://www.doctoralia.com.br/medico/vilton+raile-11901135","doctor": {"address":{"1":{"address":{"lat":-23.5325541,"lng":-46.7960277,"locality":"06112-010","location":"06112-010 Osasco, São Paulo SP","street":"Horacio Lafer, 410 (Km 18)"},"insurances":"","misc":"","name":"Cerest Centro de Referencia Em Saude Do Trabalhador Osasco","phone":"(11) 3685-1027","working_hours":""}},"education":{},"experience":"","name":"Vilton Raile","picture":"http://photos.doctoralia.com/635521056951652290_2.jpg","registration_number":"","salutation":"","services":"","speciality":"Médico do trabalho","subspecialities":""}},{"url":"http://www.doctoralia.com.br/medico/sergio+massaru+morita-11901136","doctor": {"address":{"1":{"address":{"lat":-23.5325541,"lng":-46.7960277,"locality":"06112-010","location":"06112-010 Osasco, São Paulo SP","street":"Horacio Lafer, 410 (Km 18)"},"insurances":"","misc":"","name":"Cerest Centro de Referencia Em Saude Do Trabalhador Osasco","phone":"(11) 3685-1027","working_hours":""}},"education":{},"experience":"","name":"Sergio Massaru Morita","picture":"http://photos.doctoralia.com/635521056951652290_2.jpg","registration_number":"","salutation":"","services":"","speciality":"Médico do trabalho","subspecialities":""}},{"url":"http://www.doctoralia.com.br/medico/domingos+luongo+filho-11954319","doctor": {"address":{"1":{"address":{"lat":-23.5263155,"lng":-46.7719467,"locality":"06216-240","location":"06216-240 Osasco, São Paulo SP","street":"Rua Ari Barroso, 355 (Presidente Altino)"},"insurances":"","misc":"","name":"Hospital Regional Doutor Vivaldo Martins Simoes","phone":"(11) 3683-3077","working_hours":""}},"education":{},"experience":"","name":"Domingos Luongo Filho","picture":"http://photos.doctoralia.com/635630789431063002_2.jpg","registration_number":"","salutation":"","services":"","speciality":"Médico do trabalho","subspecialities":""}},{"url":"http://www.doctoralia.com.br/medico/p+de+castro+alberto-12713491","doctor": {"address":{"1":{"address":{"lat":-22.9061161,"lng":-47.0582143,"locality":"13015-002","location":"13015-002 Campinas, São Paulo SP","street":"Rua Barão de Jaguara 1481 (11º andar, Cj 114, sala 02) (Centro)"},"insurances":"Pacientes privados (sem plano de saúde), Unimed","misc":"","name":"Consultório","phone":"(19) 3231-9780","working_hours":"Das 8 às 16 h"},"2":{"address":{"lat":-22.9061161,"lng":-47.0582143,"locality":"13015-002","location":"13015-002 Campinas, São Paulo SP","street":"Rua Barão de Jaguara 1481 (11º andar sala 114) (Centro)"},"insurances":"","misc":"","name":"Med Medicina do Trabalho - Centro Campinas","phone":"(19) 3231-9780","working_hours":""},"3":{"address":{"lat":-22.9020901,"lng":-47.0602677,"locality":"13015-002","location":"13015-002 Campinas, São Paulo SP","street":"Rua Barão de Jaguara, 1481 - 7° Andar Sala 78 (Centro)"},"insurances":"","misc":"","name":"Petra Medicina Do Trabalho","phone":"2511-3171, (19) 2511-3171","working_hours":""}},"education":{"1":{"degree":"Especialista em Ginecologia e Obstetrícia","institute":"FEBRASGO","year":"1977"}},"experience":"","name":"Alberto P","picture":"http://photos.doctoralia.com/635419699888550937_1.jpg","registration_number":"18405","salutation":"Dr","services":"","speciality":"Ginecologista, Médico do trabalho","subspecialities":""}},{"url":"http://www.doctoralia.com.br/medico/rafael+wesley+roberto-12071058","doctor": {"address":{"1":{"address":{"lat":-22.9267994,"lng":-47.078816,"locality":"13030-680","location":"13030-680 Campinas, São Paulo SP","street":"Rua João Felipe Xavier da Silva, 384"},"insurances":"","misc":"","name":"Consultório","phone":"(19) 3272-0489","working_hours":""}},"education":{},"experience":"","name":"Wesley Roberto Rafael","picture":"http://photos.doctoralia.com/635630789431063002_2.jpg","registration_number":"","salutation":"Dr","services":"","speciality":"Médico do trabalho","subspecialities":"Medicina Pericial"}},{"url":"http://www.doctoralia.com.br/medico/julio+da+silva+pinto-10597896","doctor": {"address":{"1":{"address":{"lat":-22.8989896,"lng":-47.0677388,"locality":"13020-450","location":"13020-450 Campinas, São Paulo SP","street":"Rua Bernardo Jose Sampaio, 339 - 3º Andar - Cj 34 (Vila Estadio)"},"insurances":"Pacientes privados (sem plano de saúde), Unimed","misc":"","name":"Consultório","phone":"(19) 3232-9971, (19) 3234-5433","working_hours":""}},"education":{},"experience":"","name":"Júlio da Silva Pinto","picture":"http://photos.doctoralia.com/635342455731991155_2.jpg","registration_number":"","salutation":"Dr","services":"","speciality":"Ginecologista, Médico do trabalho","subspecialities":""}},{"url":"http://www.doctoralia.com.br/medico/angelo+zanaga+trape-12004631","doctor": {"address":{"1":{"address":{"lat":-22.8883715,"lng":-47.0489805,"locality":"13024-500","location":"13024-500 Campinas, São Paulo SP","street":"Rua Vital Brasil, 251 (Barao Geraldo)"},"insurances":"","misc":"","name":"Hospital Das Clinicas Da Unicamp de Campinas","phone":"(19)3521-2121","working_hours":""}},"education":{},"experience":"","name":"Angelo Zanaga Trape","picture":"http://photos.doctoralia.com/635477086709856008_2.jpg","registration_number":"","salutation":"","services":"","speciality":"Médico do trabalho","subspecialities":""}}]}