{"webData": [{"url":"http://www.doctoralia.com.br/medico/arcari+de+araujo+rodrigo-12803384","doctor": {"address":{"1":{"address":{"lat":-23.5408347,"lng":-47.4513897,"locality":"18110210","location":"18110210 Votorantim, São Paulo SP","street":"AV.SÃO JOÃO, 260 (JD. ICATU)"},"insurances":"","misc":"","name":"Consultório","phone":"15 3243-8144","working_hours":"8:00 - 12:00 14:00 -18:00"}},"education":{"1":{"degree":"Medicina","institute":"Santa Casa de São Paulo","year":"1994"},"2":{"degree":"Oftalmologista","institute":"PUC/SP","year":"1998"},"3":{"degree":"Pós-graduação","institute":"Instituto Barraquer - Barcelona/Espanha","year":"2006"}},"experience":"","name":"Rodrigo Arcari de Araujo","picture":"http://photos.doctoralia.com/634946327936111458_1.jpg","registration_number":"84191","salutation":"Dr","services":"Catarata, Doenças Palpebrais, Pterígio","speciality":"Oftalmologista, Médico de tráfego","subspecialities":""}},{"url":"http://www.doctoralia.com.br/medico/canavezi+scarpa+fabricio-12068280","doctor": {"address":{"1":{"address":{"lat":-23.5138329,"lng":-47.46197,"locality":"18030-270","location":"18030-270 Sorocaba, São Paulo SP","street":"Av. Washington Luiz, 1832 (Jardim América)"},"insurances":"","misc":"","name":"Consultório","phone":"(15) 3217-7109","working_hours":"08:00-18:00h"},"2":{"address":{"lat":-23.504072,"lng":-47.474988499999,"locality":"18043-020","location":"18043-020 Sorocaba, São Paulo SP","street":"R. Anibal da Costa Dias, 34 (Vila Lucy)"},"insurances":"","misc":"","name":"Consultório","phone":"(15) 3321-5133","working_hours":"08:00-17:00h"}},"education":{},"experience":"","name":"Fabricio Canavezi Scarpa","picture":"http://photos.doctoralia.com/635477086709856008_2.jpg","registration_number":"","salutation":"Dr","services":"","speciality":"Médico do trabalho, Médico de tráfego","subspecialities":""}},{"url":"http://www.doctoralia.com.br/medico/octavio+de+oliveira+soares+junior-11891302","doctor": {"address":{"1":{"address":{"lat":-22.7080593,"lng":-46.7726654,"locality":"13900-470","location":"13900-470 Amparo, São Paulo SP","street":"Rua Comendador Guimaraes, 137 / Salas 1 e 2 (Centro)"},"insurances":"","misc":"","name":"Marques E Soares Servicos Medicos S S","phone":"(19) 3807-3477","working_hours":""}},"education":{},"experience":"","name":"Octavio de Oliveira Soares Junior","registration_number":"","salutation":"","services":"","speciality":"Médico de tráfego","subspecialities":""}},{"url":"http://www.doctoralia.com.br/medico/nobrega+de+almeida+mauricio-11943866","doctor": {"address":{"1":{"address":{"lat":-23.661914,"lng":-47.586496399999,"locality":"18160-000","location":"18160-000 Salto de Pirapora, São Paulo SP","street":"Rodovia Sao Leme dos Santos, S/N / Km 113 (Itinga)"},"insurances":"","misc":"","name":"Hospital Psiquiatrico Santa Cruz Salto de Pirapora","phone":"(15) 3292-1130","working_hours":""}},"education":{},"experience":"","name":"Mauricio Nobrega de Almeida","picture":"http://photos.doctoralia.com/634756677619252675_2.jpg","registration_number":"","salutation":"Dr","services":"","speciality":"Cirurgião Geral, Médico de tráfego","subspecialities":""}}]}