{"webData": [{"url":"http://www.doctoralia.com.br/medico/c+b+falcao+helio-14785493","doctor": {"address":{"1":{"address":{"lat":-23.5642721,"lng":-46.6412285,"locality":"01323-001","location":"01323-001 São Paulo, São Paulo SP","street":"R. Maestro Cardim, 377, cj.91 (Bela Vista)"},"insurances":"Pacientes privados (sem plano de saúde), Bradesco Saúde, Assefaz, Banco Central, CABESP, Cassi, Cesp, Correios, Embratel,  e 9 maisFuncef, Gama Saúde, Itaú Seguros, Omint, Petrobras, Saude Caixa, Sul América Saúde, Unibanco Saúde, CNEN","misc":"","name":"Consultório","phone":"2537-0477","working_hours":"seg. a sex. 10h-17h"}},"education":{"1":{"degree":"Medicina","institute":"Puc-Campinas","year":"1983"},"2":{"degree":"ResidencIa Cirurgia Geral","institute":"Hospital Servidor Publ. SP","year":"1985"},"3":{"degree":"Residencia Cirurgia Cardiovascular","institute":"Instituto Dante Pazzanese Cardiologia","year":"1989"}},"experience":"Angina Instável, Coartação Aórtica, Endocardite Bacteriana, Estenose Coronária","name":"Helio C","picture":"http://photos.doctoralia.com/V2634718631330575216_2.jpg","registration_number":"47059","salutation":"Dr","services":"Correcao Da Coarctacao Da Aorta, Endarterectomia Carotidiana, Implante De Protese Valvar, Infartectomia Ou Aneurismectomia","speciality":"Cirurgião Cardiovascular","subspecialities":""}},{"url":"http://www.doctoralia.com.br/medico/rolf+francisco+bub-10585835","doctor": {"address":{"1":{"address":{"lat":-23.5998959,"lng":-46.7161521,"locality":"05652-900","location":"05652-900 São Paulo, São Paulo SP","street":"Hospital Israelita Albert Einstein\nAv. Albert Einstein, 627 (Bloco A1 - Quarto Andar - Sala 411) (Morumbi)"},"insurances":"","misc":"","name":"Consultório","phone":"11 2151-3110, 11 3742-2863","working_hours":"12 - 18 h"},"2":{"address":{"lat":-23.5998959,"lng":-46.7161521,"locality":"05652-900","location":"05652-900 São Paulo, São Paulo SP","street":"Av. Albert Einstein, 627 (Morumbi)"},"insurances":"","misc":"","name":"Hospital Israelita Albert Einstein","phone":"(11) 2151-1233","working_hours":""}},"education":{},"experience":"","name":"Rolf Francisco Bub","picture":"http://photos.doctoralia.com/635185573388834498_2.jpg","registration_number":"","salutation":"Dr","services":"Angina Pectoris, Arritmia, Insuficiência Cardíaca Congestiva","speciality":"Cirurgião Cardiovascular, Cirurgião torácico","subspecialities":"Eletroestimulação, Patologia Aórtica"}},{"url":"http://www.doctoralia.com.br/medico/luiz+eduardo+villaca+leao-10580343","doctor": {"address":{"1":{"address":{"lat":-23.5981119,"lng":-46.6464514,"locality":"4039-002","location":"4039-002 São Paulo, São Paulo SP","street":"Pedro de Toledo, 980 - Cj. 74 (Vl. Mariana)"},"insurances":"Pacientes privados (sem plano de saúde), Unimed","misc":"","name":"Consultório","phone":"115-5739","working_hours":""}},"education":{},"experience":"","name":"Luiz Eduardo Villaça Leão","picture":"http://photos.doctoralia.com/635185573388834498_2.jpg","registration_number":"","salutation":"Dr","services":"Hiperidrose","speciality":"Cirurgião Cardiovascular, Cirurgião torácico","subspecialities":""}},{"url":"http://www.doctoralia.com.br/medico/maluf+miguel+angel-10590768","doctor": {"address":{"1":{"address":{"lat":-23.6012276,"lng":-46.661277299999,"locality":"4029-100","location":"4029-100 São Paulo, São Paulo SP","street":"Av Min. Gabriel de Rezende Passos, 500 Cj 1217 (Moema)"},"insurances":"Pacientes privados (sem plano de saúde), Unimed","misc":"","name":"Consultório","phone":"(11) 5052-6408, (11)5084-6155","working_hours":""}},"education":{},"experience":"","name":"Miguel Angel Maluf","picture":"http://photos.doctoralia.com/V2634718631330575216_2.jpg","registration_number":"","salutation":"Dr","services":"","speciality":"Cirurgião Cardiovascular, Cirurgião pediátrico","subspecialities":""}},{"url":"http://www.doctoralia.com.br/medico/paulo+marcio+sallum-10588829","doctor": {"address":{"1":{"address":{"lat":-23.5702326,"lng":-46.6477528,"locality":"18760-000","location":"18760-000 São Paulo, São Paulo SP","street":"Alameda Santos, 336 - Cj 92 / 9 Andar (Cerqueira Cesar)"},"insurances":"Pacientes privados (sem plano de saúde), Unimed","misc":"","name":"Consultório","phone":"","working_hours":""}},"education":{},"experience":"","name":"Paulo Marcio Sallum","picture":"http://photos.doctoralia.com/635185573388834498_2.jpg","registration_number":"","salutation":"Dr","services":"","speciality":"Cirurgião Cardiovascular, Cirurgião torácico","subspecialities":""}},{"url":"http://www.doctoralia.com.br/medico/noedir+antonio+groppo+stolf-10589721","doctor": {"address":{"1":{"address":{"lat":-23.5729351,"lng":-46.6420566,"locality":"03934-000","location":"03934-000 São Paulo, São Paulo SP","street":"Rua do Paraiso, 139 - Cj. 14/15 (Paraiso)"},"insurances":"Pacientes privados (sem plano de saúde), Cassi","misc":"","name":"Consultório","phone":"","working_hours":""}},"education":{},"experience":"","name":"Noedir Antonio Groppo Stolf","picture":"http://photos.doctoralia.com/635185573388834498_2.jpg","registration_number":"","salutation":"Dr","services":"","speciality":"Cirurgião Cardiovascular, Cirurgião torácico","subspecialities":""}},{"url":"http://www.doctoralia.com.br/medico/paulo+chaccur-10588428","doctor": {"address":{"1":{"address":{"lat":-23.5728648,"lng":-46.6438584,"locality":"4004-030","location":"4004-030 São Paulo, São Paulo SP","street":"Desemb. Eliseu Guilherme, 123/147 (Paraíso)"},"insurances":"Pacientes privados (sem plano de saúde), Unimed","misc":"","name":"Consultório","phone":"(11) 3887-6611","working_hours":""}},"education":{},"experience":"","name":"Paulo Chaccur","picture":"http://photos.doctoralia.com/V2634718631330575216_2.jpg","registration_number":"","salutation":"Dr","services":"","speciality":"Cirurgião Cardiovascular","subspecialities":""}},{"url":"http://www.doctoralia.com.br/medico/jose+pedro+esteves+dias-10598905","doctor": {"address":{"1":{"address":{"lat":-23.5370971,"lng":-46.6539832,"locality":"1232-001","location":"1232-001 São Paulo, São Paulo SP","street":"Barros, 275 - Sl. 33 (Higienópolis)"},"insurances":"Pacientes privados (sem plano de saúde), Unimed","misc":"","name":"Consultório","phone":"(11) 3667-7539","working_hours":""}},"education":{},"experience":"","name":"Jose Pedro Esteves Dias","picture":"http://photos.doctoralia.com/V2634718631330575216_2.jpg","registration_number":"","salutation":"Dr","services":"","speciality":"Cirurgião Cardiovascular","subspecialities":""}},{"url":"http://www.doctoralia.com.br/medico/alvaro+herbas+palomo-10614963","doctor": {"address":{"1":{"address":{"lat":-23.5778455,"lng":-46.6862682,"locality":"01452-000","location":"01452-000 São Paulo, São Paulo SP","street":"Avenida Brigadeiro Faria Lima, 2413 - 7º Andar (Jardim Paulistano)"},"insurances":"Pacientes privados (sem plano de saúde), Unimed","misc":"","name":"Consultório","phone":"","working_hours":""}},"education":{},"experience":"","name":"Alvaro Herbas Palomo","picture":"http://photos.doctoralia.com/V2634718631330575216_2.jpg","registration_number":"","salutation":"Dr","services":"","speciality":"Cirurgião Cardiovascular","subspecialities":""}},{"url":"http://www.doctoralia.com.br/medico/luiz+boro+puig-10596401","doctor": {"address":{"1":{"address":{"lat":-23.563135,"lng":-46.640851,"locality":"01323-001","location":"01323-001 São Paulo, São Paulo SP","street":"Rua Maestro Cardim, 560 - 1º Andarcj 15 (Liberdade)"},"insurances":"Pacientes privados (sem plano de saúde), Cassi","misc":"","name":"Consultório","phone":"","working_hours":""}},"education":{},"experience":"","name":"Luiz Boro Puig","picture":"http://photos.doctoralia.com/V2634718631330575216_2.jpg","registration_number":"","salutation":"Dr","services":"","speciality":"Cirurgião Cardiovascular","subspecialities":""}},{"url":"http://www.doctoralia.com.br/medico/marcos+fassheber+berlinck-10594126","doctor": {"address":{"1":{"address":{"lat":-23.5721051,"lng":-46.6419315,"locality":"01323-001","location":"01323-001 São Paulo, São Paulo SP","street":"Rua Mto Cardim, 1251 (Bela Vista)"},"insurances":"Pacientes privados (sem plano de saúde), Unimed","misc":"","name":"Consultório","phone":"(11) 3266-4218","working_hours":""}},"education":{},"experience":"","name":"Marcos Fassheber Berlinck","picture":"http://photos.doctoralia.com/V2634718631330575216_2.jpg","registration_number":"","salutation":"Dr","services":"","speciality":"Cirurgião Cardiovascular","subspecialities":""}},{"url":"http://www.doctoralia.com.br/medico/enoch+brandao+de+souza+meira-10606213","doctor": {"address":{"1":{"address":{"lat":-23.5602304,"lng":-46.6533578,"locality":"01332-000","location":"01332-000 São Paulo, São Paulo SP","street":"Rua Itapeva, 490 - Cj 113 (Bela Vista)"},"insurances":"Pacientes privados (sem plano de saúde), Geap","misc":"","name":"Consultório","phone":"(11) 288-5020","working_hours":""}},"education":{},"experience":"","name":"Enoch Brandao de Souza Meira","picture":"http://photos.doctoralia.com/V2634718631330575216_2.jpg","registration_number":"","salutation":"Dr","services":"","speciality":"Cirurgião Cardiovascular","subspecialities":""}},{"url":"http://www.doctoralia.com.br/medico/joao+nelson+rodrigues+branco-10600508","doctor": {"address":{"1":{"address":{"lat":-23.5967972,"lng":-46.6464715,"locality":"04038-031","location":"04038-031 São Paulo, São Paulo SP","street":"Rua Borges Lagoa, 1080 - 7 a (Vila Clementino)"},"insurances":"Pacientes privados (sem plano de saúde), Unimed","misc":"","name":"Consultório","phone":"(11) 5574-6611","working_hours":""}},"education":{},"experience":"","name":"João Nelson Rodrigues Branco","picture":"http://photos.doctoralia.com/V2634718631330575216_2.jpg","registration_number":"","salutation":"Dr","services":"","speciality":"Cirurgião Cardiovascular","subspecialities":""}},{"url":"http://www.doctoralia.com.br/medico/jose+ernesto+succi-10599419","doctor": {"address":{"1":{"address":{"lat":-23.5980898,"lng":-46.6464497,"locality":"4039-002","location":"4039-002 São Paulo, São Paulo SP","street":"Pedro de Toledo, 980 (Vl. Clementino)"},"insurances":"Pacientes privados (sem plano de saúde), Unimed","misc":"","name":"Consultório","phone":"(11) 5573-9539","working_hours":""}},"education":{},"experience":"","name":"Jose Ernesto Succi","picture":"http://photos.doctoralia.com/635185573388834498_2.jpg","registration_number":"","salutation":"Dr","services":"","speciality":"Cirurgião Cardiovascular, Cirurgião torácico","subspecialities":""}},{"url":"http://www.doctoralia.com.br/medico/patricia+matsunaga-11898151","doctor": {"address":{"1":{"address":{"lat":-23.6085413,"lng":-46.6666986,"locality":"04029-200","location":"04029-200 São Paulo, São Paulo SP","street":"Avenida Ibirapuera, 2907 / Cj 720 (Moema)"},"insurances":"","misc":"","name":"Mpr Angiologia E Cirurgia Vascular","phone":"1150939994, (11) 5041-4648","working_hours":""}},"education":{},"experience":"","name":"Patricia Matsunaga","picture":"http://photos.doctoralia.com/V2634318105003959558_2.jpg","registration_number":"","salutation":"","services":"","speciality":"Cirurgião Cardiovascular, Cirurgião Vascular","subspecialities":""}},{"url":"http://www.doctoralia.com.br/medico/moacir+de+mello+porciuncula-11943589","doctor": {"address":{"1":{"address":{"lat":-23.6154149,"lng":-46.6941847,"locality":"04583-100","location":"04583-100 São Paulo, São Paulo SP","street":"Rua Jurubatuba, 461 (Vila Cordeiro)"},"insurances":"","misc":"","name":"Premier Residence Hospital","phone":"(11) 5090-5000","working_hours":""}},"education":{},"experience":"","name":"Moacir de Mello Porciuncula","picture":"http://photos.doctoralia.com/V2634718631330575216_2.jpg","registration_number":"","salutation":"","services":"","speciality":"Cirurgião Cardiovascular","subspecialities":""}},{"url":"http://www.doctoralia.com.br/medico/leonardo+chadad+maklouf-11880824","doctor": {"address":{"1":{"address":{"lat":-23.5680342,"lng":-46.6207423,"locality":"01540-000","location":"01540-000 São Paulo, São Paulo SP","street":"Rua Herminio Lemos, 385 (Cambuci)"},"insurances":"","misc":"","name":"Santamalia Saude Cambuci","phone":"(11) 3278-1000","working_hours":""}},"education":{},"experience":"","name":"Leonardo Chadad Maklouf","picture":"http://photos.doctoralia.com/V2634718631330575216_2.jpg","registration_number":"","salutation":"","services":"","speciality":"Cirurgião Cardiovascular","subspecialities":""}},{"url":"http://www.doctoralia.com.br/medico/camilo+abdulmassih+neto-12040541","doctor": {"address":{"1":{"address":{"lat":-23.5739514,"lng":-46.644102,"locality":"04.005-90","location":"04.005-90 São Paulo, São Paulo SP","street":"Rua Abílio Soares, 250 \n (Paraíso)"},"insurances":"","misc":"","name":"Hcor - Hospital Do Coração","phone":"(11) 3053.6611","working_hours":""}},"education":{},"experience":"","name":"Camilo Abdulmassih Neto","picture":"http://photos.doctoralia.com/V2634718631330575216_2.jpg","registration_number":"","salutation":"","services":"","speciality":"Cirurgião Cardiovascular","subspecialities":""}},{"url":"http://www.doctoralia.com.br/medico/luciano+de+figueiredo+aguiar-12018464","doctor": {"address":{"1":{"address":{"lat":-23.6572847,"lng":-46.6537446,"locality":"04378-500","location":"04378-500 São Paulo, São Paulo SP","street":"Av. Santa Catarina, 2785 (Jabaquara)"},"insurances":"","misc":"","name":"Hospital e Maternidade Santa Marina","phone":"(11) 5013-1100","working_hours":""}},"education":{},"experience":"","name":"Luciano de Figueiredo Aguiar","picture":"http://photos.doctoralia.com/V2634718631330575216_2.jpg","registration_number":"","salutation":"","services":"","speciality":"Cirurgião Cardiovascular","subspecialities":""}},{"url":"http://www.doctoralia.com.br/medico/jose+honorio+de+almeida+palma+da+fonseca-12018466","doctor": {"address":{"1":{"address":{"lat":-23.6572847,"lng":-46.6537446,"locality":"04378-500","location":"04378-500 São Paulo, São Paulo SP","street":"Av. Santa Catarina, 2785 (Jabaquara)"},"insurances":"","misc":"","name":"Hospital e Maternidade Santa Marina","phone":"(11) 5013-1100","working_hours":""}},"education":{},"experience":"","name":"Jose Honorio de Almeida Palma da Fonseca","picture":"http://photos.doctoralia.com/V2634718631330575216_2.jpg","registration_number":"","salutation":"","services":"","speciality":"Cirurgião Cardiovascular","subspecialities":""}},{"url":"http://www.doctoralia.com.br/medico/carlos+alberto+aparecido+razaboni-12096368","doctor": {"address":{"1":{"address":{"lat":-23.5394467,"lng":-46.6614498,"locality":"01232-010","location":"01232-010 São Paulo, São Paulo SP","street":"Rua Conselheiro Brotero, 1486 (Santa Cecilia)"},"insurances":"","misc":"","name":"Servicos Medicos de Pronto Socorro","phone":"(11) 3826-3834","working_hours":""}},"education":{},"experience":"","name":"Carlos Alberto Aparecido Razaboni","picture":"http://photos.doctoralia.com/V2634718631330575216_2.jpg","registration_number":"","salutation":"","services":"","speciality":"Cirurgião Cardiovascular","subspecialities":""}},{"url":"http://www.doctoralia.com.br/medico/ayrton+bertini+junior-12018471","doctor": {"address":{"1":{"address":{"lat":-23.6572847,"lng":-46.6537446,"locality":"04378-500","location":"04378-500 São Paulo, São Paulo SP","street":"Av. Santa Catarina, 2785 (Jabaquara)"},"insurances":"","misc":"","name":"Hospital e Maternidade Santa Marina","phone":"(11) 5013-1100","working_hours":""}},"education":{},"experience":"","name":"Ayrton Bertini Junior","picture":"http://photos.doctoralia.com/V2634718631330575216_2.jpg","registration_number":"","salutation":"","services":"","speciality":"Cirurgião Cardiovascular","subspecialities":""}},{"url":"http://www.doctoralia.com.br/medico/glaucio+furlanetto-11986376","doctor": {"address":{"1":{"address":{"lat":-23.5427318,"lng":-46.6489045,"locality":"01221-020","location":"01221-020 São Paulo, São Paulo SP","street":"R. Dr. Cesario Motta Jr, 112 (Vila Buarque)"},"insurances":"","misc":"","name":"Santa Casa de São Paulo Hospital Central","phone":"","working_hours":""}},"education":{},"experience":"","name":"Glaucio Furlanetto","registration_number":"","salutation":"","services":"","speciality":"Cirurgião Cardiovascular","subspecialities":""}},{"url":"http://www.doctoralia.com.br/medico/joao+nelson+rodrigues+branco-12018463","doctor": {"address":{"1":{"address":{"lat":-23.6572847,"lng":-46.6537446,"locality":"04378-500","location":"04378-500 São Paulo, São Paulo SP","street":"Av. Santa Catarina, 2785 (Jabaquara)"},"insurances":"","misc":"","name":"Hospital e Maternidade Santa Marina","phone":"","working_hours":""}},"education":{},"experience":"","name":"Joao Nelson Rodrigues Branco","registration_number":"","salutation":"","services":"","speciality":"Cirurgião Cardiovascular","subspecialities":""}},{"url":"http://www.doctoralia.com.br/medico/marcio+fernando+signorelli-12091216","doctor": {"address":{"1":{"address":{"lat":-23.530642,"lng":-46.5994896,"locality":"03021-040","location":"03021-040 São Paulo, São Paulo SP","street":"R. Jequitinhonha, 360\n (Belém)"},"insurances":"","misc":"","name":"PAM Maria Zélia","phone":"(11) 6291-3833, (11) 6291-3025","working_hours":""}},"education":{},"experience":"","name":"Marcio Fernando Signorelli","picture":"http://photos.doctoralia.com/V2634718631330575216_2.jpg","registration_number":"","salutation":"","services":"","speciality":"Cirurgião Cardiovascular","subspecialities":""}},{"url":"http://www.doctoralia.com.br/medico/carla+tanamati-10611474","doctor": {"address":{"1":{"address":{"lat":-23.5569354,"lng":-46.668461099999,"locality":"54080-000","location":"54080-000 São Paulo, São Paulo SP","street":"Av. Dr. Eneas de Carvalho Aguiar, 44 - Bloco 2 -2o Andar"},"insurances":"Pacientes privados (sem plano de saúde), Notre Dame","misc":"","name":"Consultório","phone":"(11) 3069-5089","working_hours":""}},"education":{},"experience":"","name":"Carla Tanamati","picture":"http://photos.doctoralia.com/V2634718631330575216_2.jpg","registration_number":"","salutation":"Dra","services":"","speciality":"Cirurgião Cardiovascular","subspecialities":""}},{"url":"http://www.doctoralia.com.br/medico/barbato+heraldo+antonio-11898462","doctor": {"address":{"1":{"address":{"lat":-23.552608,"lng":-46.6507684,"locality":"01307-001","location":"01307-001 São Paulo, São Paulo SP","street":"Rua Frei Caneca, 351 (Bela Vista)"},"insurances":"","misc":"","name":"Untr Unidade de Nefrologia Dialise E Transplante Renal","phone":"(11) 3255-5404","working_hours":""},"2":{"address":{"lat":-23.9659619,"lng":-46.3865609,"locality":"11310-400","location":"11310-400 São Vicente, São Paulo SP","street":"Rua XV de Novembro, 411 (Centro)"},"insurances":"","misc":"","name":"Nefrocare Sao Vicente","phone":"(13) 3466-6323","working_hours":""}},"education":{},"experience":"","name":"Heraldo Antonio Barbato","picture":"http://photos.doctoralia.com/V2634718631330575216_2.jpg","registration_number":"","salutation":"Dr","services":"","speciality":"Cirurgião Cardiovascular, Cirurgião Vascular","subspecialities":""}},{"url":"http://www.doctoralia.com.br/medico/sergio+goldman-10584500","doctor": {"address":{"1":{"address":{"lat":-23.5796834,"lng":-46.6740941,"locality":"04530-051","location":"04530-051 São Paulo, São Paulo SP","street":"Rua Itacema, 398 - ou N.o 396 (Itaim Bibi)"},"insurances":"Pacientes privados (sem plano de saúde), Unimed","misc":"","name":"Consultório","phone":"","working_hours":""}},"education":{},"experience":"","name":"Sergio Goldman","picture":"http://photos.doctoralia.com/V2634718631330575216_2.jpg","registration_number":"","salutation":"Dr","services":"","speciality":"Cirurgião Cardiovascular","subspecialities":""}},{"url":"http://www.doctoralia.com.br/medico/enio+buffolo-12018462","doctor": {"address":{"1":{"address":{"lat":-23.6572847,"lng":-46.6537446,"locality":"04378-500","location":"04378-500 São Paulo, São Paulo SP","street":"Av. Santa Catarina, 2785 (Jabaquara)"},"insurances":"","misc":"","name":"Hospital e Maternidade Santa Marina","phone":"(11) 5013-1100","working_hours":""}},"education":{},"experience":"","name":"Enio Buffolo","picture":"http://photos.doctoralia.com/V2634718631330575216_2.jpg","registration_number":"","salutation":"","services":"","speciality":"Cirurgião Cardiovascular","subspecialities":""}},{"url":"http://www.doctoralia.com.br/medico/marcos+eduardo+takatu-12093080","doctor": {"address":{"1":{"address":{"lat":-23.5672635,"lng":-46.5545333,"locality":"03359-000","location":"03359-000 São Paulo, São Paulo SP","street":"Rua Dona Vitoria Speers - 553 (Vila Formosa)"},"insurances":"","misc":"","name":"Umefis Unidade Medica E Fisioterapica","phone":"(11) 2674-4431, (11) 6674-4431, (11) 6674-4431","working_hours":""}},"education":{},"experience":"","name":"Marcos Eduardo Takatu","picture":"http://photos.doctoralia.com/V2634718631330575216_2.jpg","registration_number":"","salutation":"","services":"","speciality":"Cirurgião Cardiovascular","subspecialities":""}},{"url":"http://www.doctoralia.com.br/medico/hamilton+arataque-11907350","doctor": {"address":{"1":{"address":{"lat":-23.4341087,"lng":-46.7198023,"locality":"02938-000","location":"02938-000 São Paulo, São Paulo SP","street":"Av. Raimundo Pereira de Magalhães, 12367 (Parada de Taipas)"},"insurances":"","misc":"","name":"Previna","phone":"(11) 3973-2000","working_hours":""}},"education":{},"experience":"","name":"Hamilton Arataque","picture":"http://photos.doctoralia.com/V2634718631330575216_2.jpg","registration_number":"","salutation":"","services":"","speciality":"Cirurgião Cardiovascular","subspecialities":""}},{"url":"http://www.doctoralia.com.br/medico/daniel+bartholo+de+hyppolito-11986380","doctor": {"address":{"1":{"address":{"lat":-23.5427318,"lng":-46.6489045,"locality":"01221-020","location":"01221-020 São Paulo, São Paulo SP","street":"R. Dr. Cesario Motta Jr, 112 (Vila Buarque)"},"insurances":"","misc":"","name":"Santa Casa de São Paulo Hospital Central","phone":"(11) 2176-7000","working_hours":""}},"education":{},"experience":"","name":"Daniel Bartholo de Hyppolito","picture":"http://photos.doctoralia.com/V2634718631330575216_2.jpg","registration_number":"","salutation":"","services":"","speciality":"Cirurgião Cardiovascular","subspecialities":""}},{"url":"http://www.doctoralia.com.br/medico/enoch+brandao+souza+meira-10606214","doctor": {"address":{"1":{"address":{"lat":-23.5602304,"lng":-46.6533578,"locality":"01332-000","location":"01332-000 São Paulo, São Paulo SP","street":"Rua Itapeva, 490 - Cj. 113 (Bela Vista)"},"insurances":"Pacientes privados (sem plano de saúde), Cassi","misc":"","name":"Consultório","phone":"","working_hours":""}},"education":{},"experience":"","name":"Enoch Brandao Souza Meira","picture":"http://photos.doctoralia.com/V2634718631330575216_2.jpg","registration_number":"","salutation":"Dr","services":"","speciality":"Cirurgião Cardiovascular","subspecialities":""}},{"url":"http://www.doctoralia.com.br/medico/malat+hassan-12784977","doctor": {"address":{"1":{"address":{"lat":-23.5731612,"lng":-46.6436393,"locality":"04004030","location":"04004030 São Paulo, São Paulo SP","street":"Rua desembargador Eliseu Guilherme 147 (Paraíso)"},"insurances":"","misc":"","name":"Consultório","phone":"30536611, 30536601","working_hours":""}},"education":{},"experience":"","name":"Hassan Malat","picture":"http://photos.doctoralia.com/V2634718631330575216_2.jpg","registration_number":"108027","salutation":"Dr","services":"","speciality":"Cirurgião Cardiovascular","subspecialities":""}},{"url":"http://www.doctoralia.com.br/medico/daniela+simionato+simoes+mathias+da+costa-11962627","doctor": {"address":{"1":{"address":{"lat":-23.5837935,"lng":-46.6110737,"locality":"04262-000","location":"04262-000 São Paulo, São Paulo SP","street":"Av. Nazaré, 28, (Ipiranga)"},"insurances":"","misc":"","name":"Hospital Ipiranga","phone":"(11) 2067-7799","working_hours":""}},"education":{},"experience":"","name":"Daniela Simionato Simoes Mathias da Costa","picture":"http://photos.doctoralia.com/V2634718631330575216_2.jpg","registration_number":"","salutation":"","services":"","speciality":"Cirurgião Cardiovascular","subspecialities":""}},{"url":"http://www.doctoralia.com.br/medico/sylvio+matheus+de+aquino+gandra-11986374","doctor": {"address":{"1":{"address":{"lat":-23.5427318,"lng":-46.6489045,"locality":"01221-020","location":"01221-020 São Paulo, São Paulo SP","street":"R. Dr. Cesario Motta Jr, 112 (Vila Buarque)"},"insurances":"","misc":"","name":"Santa Casa de São Paulo Hospital Central","phone":"(11) 2176-7000","working_hours":""}},"education":{},"experience":"","name":"Sylvio Matheus de Aquino Gandra","picture":"http://photos.doctoralia.com/V2634718631330575216_2.jpg","registration_number":"","salutation":"","services":"","speciality":"Cirurgião Cardiovascular","subspecialities":""}},{"url":"http://www.doctoralia.com.br/medico/eduardo+gregorio+chamlian-11986379","doctor": {"address":{"1":{"address":{"lat":-23.5427318,"lng":-46.6489045,"locality":"01221-020","location":"01221-020 São Paulo, São Paulo SP","street":"R. Dr. Cesario Motta Jr, 112 (Vila Buarque)"},"insurances":"","misc":"","name":"Santa Casa de São Paulo Hospital Central","phone":"(11) 2176-7000","working_hours":""}},"education":{},"experience":"","name":"Eduardo Gregorio Chamlian","picture":"http://photos.doctoralia.com/V2634718631330575216_2.jpg","registration_number":"","salutation":"","services":"","speciality":"Cirurgião Cardiovascular","subspecialities":""}},{"url":"http://www.doctoralia.com.br/medico/carlos+alberto+teles-12018465","doctor": {"address":{"1":{"address":{"lat":-23.6572847,"lng":-46.6537446,"locality":"04378-500","location":"04378-500 São Paulo, São Paulo SP","street":"Av. Santa Catarina, 2785 (Jabaquara)"},"insurances":"","misc":"","name":"Hospital e Maternidade Santa Marina","phone":"(11) 5013-1100","working_hours":""}},"education":{},"experience":"","name":"Carlos Alberto Teles","picture":"http://photos.doctoralia.com/V2634718631330575216_2.jpg","registration_number":"","salutation":"","services":"","speciality":"Cirurgião Cardiovascular","subspecialities":""}},{"url":"http://www.doctoralia.com.br/medico/felipe+nasser-12018467","doctor": {"address":{"1":{"address":{"lat":-23.6572847,"lng":-46.6537446,"locality":"04378-500","location":"04378-500 São Paulo, São Paulo SP","street":"Av. Santa Catarina, 2785 (Jabaquara)"},"insurances":"","misc":"","name":"Hospital e Maternidade Santa Marina","phone":"(11) 5013-1100","working_hours":""}},"education":{},"experience":"","name":"Felipe Nasser","picture":"http://photos.doctoralia.com/V2634718631330575216_2.jpg","registration_number":"","salutation":"","services":"","speciality":"Cirurgião Cardiovascular","subspecialities":""}},{"url":"http://www.doctoralia.com.br/medico/marcelo+calil+burihan-12018469","doctor": {"address":{"1":{"address":{"lat":-23.6572847,"lng":-46.6537446,"locality":"04378-500","location":"04378-500 São Paulo, São Paulo SP","street":"Av. Santa Catarina, 2785 (Jabaquara)"},"insurances":"","misc":"","name":"Hospital e Maternidade Santa Marina","phone":"(11) 5013-1100","working_hours":""}},"education":{},"experience":"","name":"Marcelo Calil Burihan","picture":"http://photos.doctoralia.com/V2634718631330575216_2.jpg","registration_number":"","salutation":"","services":"","speciality":"Cirurgião Cardiovascular","subspecialities":""}},{"url":"http://www.doctoralia.com.br/medico/charles+edouard+zurstrassen-12018472","doctor": {"address":{"1":{"address":{"lat":-23.6572847,"lng":-46.6537446,"locality":"04378-500","location":"04378-500 São Paulo, São Paulo SP","street":"Av. Santa Catarina, 2785 (Jabaquara)"},"insurances":"","misc":"","name":"Hospital e Maternidade Santa Marina","phone":"(11) 5013-1100","working_hours":""}},"education":{},"experience":"","name":"Charles Edouard Zurstrassen","picture":"http://photos.doctoralia.com/V2634718631330575216_2.jpg","registration_number":"","salutation":"","services":"","speciality":"Cirurgião Cardiovascular","subspecialities":""}},{"url":"http://www.doctoralia.com.br/medico/marcelo+melro+mendonca-11870899","doctor": {"address":{"1":{"address":{"lat":-23.5762722,"lng":-46.550151,"locality":"03374-000","location":"03374-000 São Paulo, São Paulo SP","street":"Avenida Sapopemba 4083 1o Andar (Sapopemba)"},"insurances":"","misc":"","name":"Leste Cor Centro Medico","phone":"(11) 2211-1919, (11) 2916-0302, (11) 2916-0302","working_hours":""}},"education":{},"experience":"","name":"Marcelo Melro Mendonca","picture":"http://photos.doctoralia.com/V2634718631330575216_2.jpg","registration_number":"","salutation":"","services":"","speciality":"Cirurgião Cardiovascular","subspecialities":""}},{"url":"http://www.doctoralia.com.br/medico/jose+fernando+teixeira+de+sousa-11880813","doctor": {"address":{"1":{"address":{"lat":-23.5505199,"lng":-46.633309399999,"locality":"04122-000","location":"04122-000 São Paulo, São Paulo SP","street":"Rua Santa Cruz, 398 / Terreo (Vila Afonso Celso)"},"insurances":"","misc":"","name":"Oxigenio Hiperbarico Vila Mariana","phone":"(11) 5549-6041","working_hours":""}},"education":{},"experience":"","name":"Jose Fernando Teixeira de Sousa","picture":"http://photos.doctoralia.com/V2634718631330575216_2.jpg","registration_number":"","salutation":"","services":"","speciality":"Cirurgião Cardiovascular","subspecialities":""}},{"url":"http://www.doctoralia.com.br/medico/patricia+abrao-11880823","doctor": {"address":{"1":{"address":{"lat":-23.5680342,"lng":-46.6207423,"locality":"01540-000","location":"01540-000 São Paulo, São Paulo SP","street":"Rua Herminio Lemos, 385 (Cambuci)"},"insurances":"","misc":"","name":"Santamalia Saude Cambuci","phone":"(11) 3278-1000","working_hours":""}},"education":{},"experience":"","name":"Patricia Abrao","picture":"http://photos.doctoralia.com/V2634718631330575216_2.jpg","registration_number":"","salutation":"","services":"","speciality":"Cirurgião Cardiovascular","subspecialities":""}},{"url":"http://www.doctoralia.com.br/medico/marcelo+giordono-11898206","doctor": {"address":{"1":{"address":{"lat":-23.5270935,"lng":-46.7015578,"locality":"05051-020","location":"05051-020 São Paulo, São Paulo SP","street":"R Manoel Jacinto,, 206 (Vl Sonia)"},"insurances":"","misc":"","name":"Medserv Unidade de Dialise","phone":"(11) 3502-4001","working_hours":""}},"education":{},"experience":"","name":"Marcelo Giordono","picture":"http://photos.doctoralia.com/V2634718631330575216_2.jpg","registration_number":"","salutation":"","services":"","speciality":"Cirurgião Cardiovascular","subspecialities":""}},{"url":"http://www.doctoralia.com.br/medico/tammuz+fattak-11923394","doctor": {"address":{"1":{"address":{"lat":-23.5655034,"lng":-46.6501717,"locality":"01403-001","location":"01403-001 São Paulo, São Paulo SP","street":"Al. Joaquim Eugenio de Lima, 383 (Jardim Paulista)"},"insurances":"","misc":"","name":"Pro Matre Paulista","phone":"(11) 3269-2233","working_hours":""}},"education":{},"experience":"","name":"Tammuz Fattak","picture":"http://photos.doctoralia.com/V2634718631330575216_2.jpg","registration_number":"","salutation":"","services":"","speciality":"Cirurgião Cardiovascular","subspecialities":""}},{"url":"http://www.doctoralia.com.br/medico/valter+furlan-11962625","doctor": {"address":{"1":{"address":{"lat":-23.5837935,"lng":-46.6110737,"locality":"04262-000","location":"04262-000 São Paulo, São Paulo SP","street":"Av. Nazaré, 28, (Ipiranga)"},"insurances":"","misc":"","name":"Hospital Ipiranga","phone":"(11) 2067-7799","working_hours":""}},"education":{},"experience":"","name":"Valter Furlan","picture":"http://photos.doctoralia.com/V2634718631330575216_2.jpg","registration_number":"","salutation":"","services":"","speciality":"Cirurgião Cardiovascular","subspecialities":""}},{"url":"http://www.doctoralia.com.br/medico/joaquim+storani+neto-11962626","doctor": {"address":{"1":{"address":{"lat":-23.5837935,"lng":-46.6110737,"locality":"04262-000","location":"04262-000 São Paulo, São Paulo SP","street":"Av. Nazaré, 28, (Ipiranga)"},"insurances":"","misc":"","name":"Hospital Ipiranga","phone":"(11) 2067-7799","working_hours":""}},"education":{},"experience":"","name":"Joaquim Storani Neto","picture":"http://photos.doctoralia.com/V2634718631330575216_2.jpg","registration_number":"","salutation":"","services":"","speciality":"Cirurgião Cardiovascular","subspecialities":""}},{"url":"http://www.doctoralia.com.br/medico/jorge+michel+ribeira-11962628","doctor": {"address":{"1":{"address":{"lat":-23.5837935,"lng":-46.6110737,"locality":"04262-000","location":"04262-000 São Paulo, São Paulo SP","street":"Av. Nazaré, 28, (Ipiranga)"},"insurances":"","misc":"","name":"Hospital Ipiranga","phone":"(11) 2067-7799","working_hours":""}},"education":{},"experience":"","name":"Jorge Michel Ribeira","picture":"http://photos.doctoralia.com/V2634718631330575216_2.jpg","registration_number":"","salutation":"","services":"","speciality":"Cirurgião Cardiovascular","subspecialities":""}},{"url":"http://www.doctoralia.com.br/medico/luiz+cesar+guarita+souza-11986375","doctor": {"address":{"1":{"address":{"lat":-23.5427318,"lng":-46.6489045,"locality":"01221-020","location":"01221-020 São Paulo, São Paulo SP","street":"R. Dr. Cesario Motta Jr, 112 (Vila Buarque)"},"insurances":"","misc":"","name":"Santa Casa de São Paulo Hospital Central","phone":"(11) 2176-7000","working_hours":""}},"education":{},"experience":"","name":"Luiz Cesar Guarita Souza","picture":"http://photos.doctoralia.com/V2634718631330575216_2.jpg","registration_number":"","salutation":"","services":"","speciality":"Cirurgião Cardiovascular","subspecialities":""}},{"url":"http://www.doctoralia.com.br/medico/valquiria+pelisser+campagnucci-11986377","doctor": {"address":{"1":{"address":{"lat":-23.5427318,"lng":-46.6489045,"locality":"01221-020","location":"01221-020 São Paulo, São Paulo SP","street":"R. Dr. Cesario Motta Jr, 112 (Vila Buarque)"},"insurances":"","misc":"","name":"Santa Casa de São Paulo Hospital Central","phone":"(11) 2176-7000","working_hours":""}},"education":{},"experience":"","name":"Valquiria Pelisser Campagnucci","picture":"http://photos.doctoralia.com/V2634718631330575216_2.jpg","registration_number":"","salutation":"","services":"","speciality":"Cirurgião Cardiovascular","subspecialities":""}},{"url":"http://www.doctoralia.com.br/medico/wilson+lopes+pereira-11986378","doctor": {"address":{"1":{"address":{"lat":-23.5427318,"lng":-46.6489045,"locality":"01221-020","location":"01221-020 São Paulo, São Paulo SP","street":"R. Dr. Cesario Motta Jr, 112 (Vila Buarque)"},"insurances":"","misc":"","name":"Santa Casa de São Paulo Hospital Central","phone":"(11) 2176-7000","working_hours":""}},"education":{},"experience":"","name":"Wilson Lopes Pereira","picture":"http://photos.doctoralia.com/V2634718631330575216_2.jpg","registration_number":"","salutation":"","services":"","speciality":"Cirurgião Cardiovascular","subspecialities":""}},{"url":"http://www.doctoralia.com.br/medico/orlando+da+costa+barros-12018470","doctor": {"address":{"1":{"address":{"lat":-23.6572847,"lng":-46.6537446,"locality":"04378-500","location":"04378-500 São Paulo, São Paulo SP","street":"Av. Santa Catarina, 2785 (Jabaquara)"},"insurances":"","misc":"","name":"Hospital e Maternidade Santa Marina","phone":"(11) 5013-1100","working_hours":""}},"education":{},"experience":"","name":"Orlando da Costa Barros","picture":"http://photos.doctoralia.com/V2634718631330575216_2.jpg","registration_number":"","salutation":"","services":"","speciality":"Cirurgião Cardiovascular","subspecialities":""}},{"url":"http://www.doctoralia.com.br/medico/raul+ignacio+rojas+martinez-12018474","doctor": {"address":{"1":{"address":{"lat":-23.6572847,"lng":-46.6537446,"locality":"04378-500","location":"04378-500 São Paulo, São Paulo SP","street":"Av. Santa Catarina, 2785 (Jabaquara)"},"insurances":"","misc":"","name":"Hospital e Maternidade Santa Marina","phone":"(11) 5013-1100","working_hours":""}},"education":{},"experience":"","name":"Raul Ignacio Rojas Martinez","picture":"http://photos.doctoralia.com/V2634718631330575216_2.jpg","registration_number":"","salutation":"","services":"","speciality":"Cirurgião Cardiovascular","subspecialities":""}},{"url":"http://www.doctoralia.com.br/medico/dino+fecci+colli+junior-12087778","doctor": {"address":{"1":{"address":{"lat":-23.5566208,"lng":-46.6253464,"locality":"01518-020","location":"01518-020 São Paulo, São Paulo SP","street":"Rua Leopoldo Miguez, 327 (Cambuci)"},"insurances":"","misc":"","name":"Pam Varzea Do Carmo Nga 63","phone":"(11) 3385-7000","working_hours":""}},"education":{},"experience":"","name":"Dino Fecci Colli Junior","picture":"http://photos.doctoralia.com/V2634718631330575216_2.jpg","registration_number":"","salutation":"","services":"","speciality":"Cirurgião Cardiovascular","subspecialities":""}},{"url":"http://www.doctoralia.com.br/medico/carlos+trincado+simon-11866159","doctor": {"address":{"1":{"address":{"lat":-23.6244485,"lng":-46.5578212,"locality":"09540-500","location":"09540-500 São Caetano do Sul, São Paulo SP","street":"Avenida Lemos Monteiro - 636 (Olimpico)"},"insurances":"","misc":"","name":"Cesc Centro de Especialidades de S C Do Sul","phone":"","working_hours":""}},"education":{},"experience":"","name":"Carlos Trincado Simon","picture":"http://photos.doctoralia.com/V2634718631330575216_2.jpg","registration_number":"","salutation":"","services":"","speciality":"Cirurgião Cardiovascular","subspecialities":""}},{"url":"http://www.doctoralia.com.br/medico/gustavo+fernandes+carneiro-12058193","doctor": {"address":{"1":{"address":{"lat":-23.6857965,"lng":-46.6264464,"locality":"09911-070","location":"09911-070 Diadema, São Paulo SP","street":"Rua São Jorge, 98, (Centro)"},"insurances":"","misc":"","name":"Hospital São Lucas de Diadema","phone":"(11) 2178-2266","working_hours":""}},"education":{},"experience":"","name":"Gustavo Fernandes Carneiro","picture":"http://photos.doctoralia.com/V2634718631330575216_2.jpg","registration_number":"","salutation":"","services":"","speciality":"Cirurgião Cardiovascular","subspecialities":""}},{"url":"http://www.doctoralia.com.br/medico/rubens+minillo-11870399","doctor": {"address":{"1":{"address":{"lat":-23.4796801,"lng":-46.5503736,"locality":"07041-020","location":"07041-020 Guarulhos, São Paulo SP","street":"Rua Maria Candida Pereira, 200 (Itapegica)"},"insurances":"","misc":"","name":"Indocor","phone":"(11) 6421-5633","working_hours":""},"2":{"address":{"lat":-23.4811238,"lng":-46.5481467,"locality":"07041-020","location":"07041-020 Guarulhos, São Paulo SP","street":"Rua Maria Candida Pereira, 770 (Itapegica)"},"insurances":"","misc":"","name":"Hospital Stela Maris","phone":"(11) 6421-4855","working_hours":""}},"education":{},"experience":"","name":"Rubens Minillo","picture":"http://photos.doctoralia.com/635367056994231345_2.jpg","registration_number":"","salutation":"","services":"","speciality":"Cardiologista, Cirurgião Cardiovascular","subspecialities":""}},{"url":"http://www.doctoralia.com.br/medico/athanase+christos+dantas-11958161","doctor": {"address":{"1":{"address":{"lat":-23.4811238,"lng":-46.5481467,"locality":"07041-020","location":"07041-020 Guarulhos, São Paulo SP","street":"Rua Maria Candida Pereira, 770 (Itapegica)"},"insurances":"","misc":"","name":"Hospital Stela Maris","phone":"(11) 6421-4855","working_hours":""}},"education":{},"experience":"","name":"Athanase Christos Dantas","picture":"http://photos.doctoralia.com/V2634718631330575216_2.jpg","registration_number":"","salutation":"","services":"","speciality":"Cirurgião Cardiovascular","subspecialities":""}},{"url":"http://www.doctoralia.com.br/medico/karlos+seitti+ilha+kian-11864039","doctor": {"address":{"1":{"address":{"lat":-23.4474163,"lng":-46.5132558,"locality":"07195-010","location":"07195-010 Guarulhos, São Paulo SP","street":"Rua Arminda de Lima, 378 (Vila Progresso)"},"insurances":"","misc":"","name":"Masterclin","phone":"(11) 6408-6752","working_hours":""},"2":{"address":{"lat":-23.4811238,"lng":-46.5481467,"locality":"07041-020","location":"07041-020 Guarulhos, São Paulo SP","street":"Rua Maria Candida Pereira, 770 (Itapegica)"},"insurances":"","misc":"","name":"Hospital Stela Maris","phone":"(11) 6421-4855","working_hours":""}},"education":{},"experience":"","name":"Karlos Seitti Ilha Kian","picture":"http://photos.doctoralia.com/V2634718631330575216_2.jpg","registration_number":"","salutation":"","services":"","speciality":"Cirurgião Cardiovascular","subspecialities":""}},{"url":"http://www.doctoralia.com.br/medico/durvalino+da+silva+nascimento+junior-12019476","doctor": {"address":{"1":{"address":{"lat":-23.4616641,"lng":-46.5152168,"locality":"07197-000","location":"07197-000 Guarulhos, São Paulo SP","street":"R. Mariana Ubaldina do Espírito Santo, 140 (Macedo)"},"insurances":"","misc":"","name":"Hospital Bom Clima Guarulhos","phone":"(11) 2472-4200","working_hours":""}},"education":{},"experience":"","name":"Durvalino da Silva Nascimento Junior","picture":"http://photos.doctoralia.com/V2634718631330575216_2.jpg","registration_number":"","salutation":"","services":"","speciality":"Cirurgião Cardiovascular","subspecialities":""}},{"url":"http://www.doctoralia.com.br/medico/luiz+fernando+de+lucca-11965684","doctor": {"address":{"1":{"address":{"lat":-23.5367867,"lng":-46.7768173,"locality":"06016-010","location":"06016-010 Osasco, São Paulo SP","street":"Rua Padre Damaso, 100 (Centro)"},"insurances":"","misc":"","name":"Hospital e Maternidade Montreal","phone":"(11) 3651-9000, (11) 3651-9124","working_hours":""}},"education":{},"experience":"","name":"Luiz Fernando de Lucca","picture":"http://photos.doctoralia.com/V2634718631330575216_2.jpg","registration_number":"","salutation":"","services":"","speciality":"Cirurgião Cardiovascular","subspecialities":""}},{"url":"http://www.doctoralia.com.br/medico/silvana+farias-11871055","doctor": {"address":{"1":{"address":{"lat":-23.5341037,"lng":-46.7808748,"locality":"06016-040","location":"06016-040 Osasco, São Paulo SP","street":"R General Bitencourt, 196 - 3 Andar Sala 31 (Centro)"},"insurances":"","misc":"","name":"Clinica Vascular Aloisio E Silvana","phone":"(11) 4228-2727","working_hours":""}},"education":{},"experience":"","name":"Silvana Farias","picture":"http://photos.doctoralia.com/V2634718631330575216_2.jpg","registration_number":"","salutation":"","services":"","speciality":"Cirurgião Cardiovascular","subspecialities":""}},{"url":"http://www.doctoralia.com.br/medico/ruben+horacio+igarzabal-11865480","doctor": {"address":{"1":{"address":{"lat":-23.5394696,"lng":-46.7738229,"locality":"06018-090","location":"06018-090 Osasco, São Paulo SP","street":"R. Narcisio Sturlini, 62 (Jd Bussocaba)"},"insurances":"","misc":"","name":"Centro Médico Integrado de Osasco","phone":"(11) 3684-1006, (11) 3688-1144","working_hours":""}},"education":{},"experience":"","name":"Ruben Horacio Igarzabal","picture":"http://photos.doctoralia.com/V2634718631330575216_2.jpg","registration_number":"","salutation":"","services":"","speciality":"Cirurgião Cardiovascular","subspecialities":""}},{"url":"http://www.doctoralia.com.br/medico/hyong+chun+kim-11965685","doctor": {"address":{"1":{"address":{"lat":-23.5367867,"lng":-46.7768173,"locality":"06016-010","location":"06016-010 Osasco, São Paulo SP","street":"Rua Padre Damaso, 100 (Centro)"},"insurances":"","misc":"","name":"Hospital e Maternidade Montreal","phone":"(11) 3651-9000, (11) 3651-9124","working_hours":""}},"education":{},"experience":"","name":"Hyong Chun Kim","picture":"http://photos.doctoralia.com/V2634718631330575216_2.jpg","registration_number":"","salutation":"","services":"","speciality":"Cirurgião Cardiovascular","subspecialities":""}},{"url":"http://www.doctoralia.com.br/medico/rodrigues+ana+paula-11950974","doctor": {"address":{"1":{"address":{"lat":-23.6539042,"lng":-46.5368604,"locality":"09090-521","location":"09090-521 Santo André, São Paulo SP","street":"RUA catequese 255 edificio HORUS sala 53 (Jardim)"},"insurances":"","misc":"","name":"Consultório","phone":"(11)4432-0289","working_hours":"8;00-18;00 2-6F"},"2":{"address":{"lat":-23.6541912,"lng":-46.5318544,"locality":"09090521","location":"09090521 Santo André, São Paulo SP","street":"Rua Catequese 255 sala 81 e 83 (jardim)"},"insurances":"","misc":"","name":"Conceptus Ultrassonografia","phone":"44389044","working_hours":""}},"education":{"1":{"degree":"Faculdadae de medicina do ABC","institute":"FMABC","year":"1997"},"2":{"degree":"ANGIOLOGIA E CIR VASCULAR","institute":"FAC MEDICINA DO ABC","year":"2001"},"3":{"degree":"LINFOLOGIA","institute":"PROF HENRIQUE GUEDES- STA CASA DE SP","year":"2003"}},"experience":"Doenças Linfáticas, Flebite, Linfedema, Varizes","name":"Ana Paula Rodrigues","picture":"http://photos.doctoralia.com/V2635457325859653618_2.jpg","registration_number":"","salutation":"Dra","services":"Ligadura Simples Da Safena Interna E/Ou Externa, Ligadura Simples De Veias Varicosas, Tratamento Cirurgico De Varizes Da Safena Externa Unilateral","speciality":"Cirurgião Cardiovascular, Cirurgião Vascular","subspecialities":"Diagnóstico Vascular Não-Invasivo, Flebologia, Linfologia"}},{"url":"http://www.doctoralia.com.br/medico/tatiana+sawabini-12051975","doctor": {"address":{"1":{"address":{"lat":-23.6676361,"lng":-46.5320763,"locality":"09020-110","location":"09020-110 Santo André, São Paulo SP","street":"Rua Coronel Fernando Prestes, 1177 (Vila Dora)"},"insurances":"","misc":"","name":"Hospital e Maternidade Brasil S A","phone":"(11) 2127-6451, (11) 2127-6452","working_hours":""}},"education":{},"experience":"","name":"Tatiana Sawabini","picture":"http://photos.doctoralia.com/V2634718631330575216_2.jpg","registration_number":"","salutation":"","services":"","speciality":"Cirurgião Cardiovascular","subspecialities":""}},{"url":"http://www.doctoralia.com.br/medico/joao+roberto+breda-11950964","doctor": {"address":{"1":{"address":{"lat":-23.6718847,"lng":-46.5347617,"locality":"09190-615","location":"09190-615 Santo André, São Paulo SP","street":"Rua Henrique Calderazzo, 321 (Paraiso)"},"insurances":"","misc":"","name":"Hospital Estadual Mario Covas de Santo Andre","phone":"(11) 2829-5000","working_hours":""}},"education":{},"experience":"","name":"Joao Roberto Breda","picture":"http://photos.doctoralia.com/V2634718631330575216_2.jpg","registration_number":"","salutation":"","services":"","speciality":"Cirurgião Cardiovascular","subspecialities":""}},{"url":"http://www.doctoralia.com.br/medico/vanderley+da+silva+paula-11960117","doctor": {"address":{"1":{"address":{"lat":-23.6541859,"lng":-46.5329475,"locality":"09080-903","location":"09080-903 Santo André, São Paulo SP","street":"Avenida Dom Pedro Ii 125 12 A Sl 121 (Jardim)"},"insurances":"","misc":"","name":"V A Clinica de Angiologia E Cirurgia Vascular","phone":"(11) 4992-3287","working_hours":""},"2":{"address":{"lat":-23.6302458,"lng":-46.5218867,"locality":"09240-410","location":"09240-410 Santo André, São Paulo SP","street":"Avenida Alfredo Maluf, 430 (Jd Santo Antonio)"},"insurances":"","misc":"","name":"Hospital Bartira","phone":"(11) 4996-6666","working_hours":""}},"education":{},"experience":"","name":"Vanderley da Silva Paula","picture":"http://photos.doctoralia.com/V2634718631330575216_2.jpg","registration_number":"","salutation":"","services":"","speciality":"Cirurgião Cardiovascular","subspecialities":""}},{"url":"http://www.doctoralia.com.br/medico/dias+freire+lucas+marcelo-11866482","doctor": {"address":{"1":{"address":{"lat":-22.9176396,"lng":-47.059334,"locality":"13023-902","location":"13023-902 Campinas, São Paulo SP","street":"Rua Engenheiro Monlevade, 206\n (Ponte Preta)"},"insurances":"","misc":"","name":"Angiograph S/S","phone":"(19) 3232-7104, (19) 3231-1516","working_hours":""},"2":{"address":{"lat":-23.207946,"lng":-45.9010205,"locality":"12245-280","location":"12245-280 São José dos Campos, São Paulo SP","street":"Av. Heittor Villa Lobos, 1961 (Jardim Sao Dimas)"},"insurances":"","misc":"","name":"Hospital Materno Infantil Antoninho Da Rocha Marmo","phone":"(12) 3797-0777","working_hours":""},"3":{"address":{"lat":-23.1988249,"lng":-45.8917374,"locality":"12243-001","location":"12243-001 São José dos Campos, São Paulo SP","street":"Av. Dr. Adhemar de Barros, 530 (Vila Ady Ana)"},"insurances":"","misc":"","name":"Hospital Policlin","phone":"(12) 3921-9800","working_hours":""},"4":{"address":{"lat":-22.8883715,"lng":-47.0489805,"locality":"13024-500","location":"13024-500 Campinas, São Paulo SP","street":"Rua Vital Brasil, 251 (Barao Geraldo)"},"insurances":"","misc":"","name":"Hospital Das Clinicas Da Unicamp de Campinas","phone":"(19)3521-2121","working_hours":""},"5":{"address":{"lat":-23.2835873,"lng":-45.939386,"locality":"12311-200","location":"12311-200 Jacareí, São Paulo SP","street":"R. Ernesto Duarte, 70 (Parque California)"},"insurances":"","misc":"","name":"Hospital e Maternidade São Francisco Assis","phone":"(12) 3954-2400, (12) 3954-2418","working_hours":""}},"education":{},"experience":"","name":"Lucas Marcelo Dias Freire","picture":"http://photos.doctoralia.com/635309106796793182_2.jpg","registration_number":"","salutation":"Dr","services":"","speciality":"Angiologista, Cirurgião Cardiovascular","subspecialities":""}},{"url":"http://www.doctoralia.com.br/medico/antonio+silvio+oliveira+prudencio-11905853","doctor": {"address":{"1":{"address":{"lat":-22.8946619,"lng":-47.0537852,"locality":"13025-000","location":"13025-000 Campinas, São Paulo SP","street":"R Coronel Quirino, 1483"},"insurances":"","misc":"","name":"Symco Day Hospital","phone":"(19) 3255-6764","working_hours":""}},"education":{},"experience":"","name":"Antonio Silvio Oliveira Prudencio","picture":"http://photos.doctoralia.com/V2634718631330575216_2.jpg","registration_number":"","salutation":"","services":"","speciality":"Cirurgião Cardiovascular","subspecialities":""}},{"url":"http://www.doctoralia.com.br/medico/mauricio+marson+lopes-12054119","doctor": {"address":{"1":{"address":{"lat":-22.9048924,"lng":-47.0686293,"locality":"13013-160","location":"13013-160 Campinas, São Paulo SP","street":"Avenida Andrade Neves, 402 (Botafogo)"},"insurances":"","misc":"","name":"Hospital Vera Cruz S A","phone":"(19) 3234-3101, (19) 3734-3000, (19) 3734-3002","working_hours":""}},"education":{},"experience":"","name":"Mauricio Marson Lopes","picture":"http://photos.doctoralia.com/V2634718631330575216_2.jpg","registration_number":"","salutation":"","services":"","speciality":"Cirurgião Cardiovascular","subspecialities":""}},{"url":"http://www.doctoralia.com.br/medico/ana+terezinha+guillaumon-12021480","doctor": {"address":{"1":{"address":{"lat":-22.9067295,"lng":-47.0551605,"locality":"13015-240","location":"13015-240 Campinas, São Paulo SP","street":"Praça Dr Toffoli, 28, (Bosque)"},"insurances":"","misc":"","name":"Casa de Saúde Campinas","phone":"(19) 3736-3400","working_hours":""}},"education":{},"experience":"","name":"Ana Terezinha Guillaumon","picture":"http://photos.doctoralia.com/V2634718631330575216_2.jpg","registration_number":"","salutation":"","services":"","speciality":"Cirurgião Cardiovascular","subspecialities":""}}]}