{"webData": [{"url":"http://www.doctoralia.com.br/medico/fracini+wagner-11901208","doctor": {"address":{"1":{"address":{"lat":-23.4877076,"lng":-46.6522657,"locality":"02464300","location":"02464300 São Paulo, São Paulo SP","street":"Avenida Imirim, 2184 (Imirim)"},"insurances":"Pacientes privados (sem plano de saúde), Gama Saúde, Alvorecer, Ameno, Ameplan, Clinesp, Cruz Azul, Economus, Global,  e 5 maisJequiti, Medianeiras, Medisanitas, Nipomed, Trasmontano","misc":"","name":"Consultório","phone":"22082244, 972585060","working_hours":"marcar com a secretária"},"2":{"address":{"lat":-23.4877076,"lng":-46.6522657,"locality":"02464300","location":"02464300 São Paulo, São Paulo SP","street":"Av. Imirim, 2184 - Imirim SP"},"insurances":"","misc":"","name":"Doutorpop Clínica de Especialidades","phone":"(11) 2208-2244","working_hours":""}},"education":{"1":{"degree":"ESPECIALISTA EM CIRURGIA GERAL","institute":"USP","year":"1985"},"2":{"degree":"ESPECIALISTA EM CIRURGIA DIGESTÓRIA","institute":"USP","year":"1987"},"3":{"degree":"MEMBRO ASSOCIADO","institute":"FEDERAÇÃO BRASILEIRA DE GASTROENTEROLOGIA","year":"2012"}},"experience":"","name":"Wagner Fracini","picture":"http://photos.doctoralia.com/635519461849440349_1.jpg","registration_number":"48340","salutation":"","services":"Primeira consulta Coloproctologia, Retorno de consultas Coloproctologia, Consulta domiciliar Coloproctologia, Primeira consulta Gastroenterologia, Retorno de consultas Gastroenterologia, Consulta domiciliar Gastroenterologia, Ligadura Simples De Veias Varicosas, Retossigmoidoscopia, Excisao De Lesao Anal, Excisao De Papila Hemorroidaria, Excisao De Tumor Retal Per Anus, Fistulectomia anal, Hemorroidectomia, Incisao E Drenagem De Abscesso Anal, Tratamento Cirurgico Do Prolapso Anal Mucoso, Sigmoidoscopia: exame do reto e sigmóide , Retossigmoidoscopia Com Fulguracao De Polipos","speciality":"Coloproctologista, Gastroenterologista","subspecialities":""}},{"url":"http://www.doctoralia.com.br/medico/schmidt+cardozo+wilton-12001199","doctor": {"address":{"1":{"address":{"lat":-23.6497257,"lng":-46.7083878,"locality":"07012-010","location":"07012-010 São Paulo, São Paulo SP","street":"rua cerqueira cesar 206 (centro)"},"insurances":"","misc":"","name":"Consultório","phone":"11-24404592, 11-24751078","working_hours":"800 as 2000"},"2":{"address":{"lat":-23.4657034,"lng":-46.5481983,"locality":"07051-000","location":"07051-000 Guarulhos, São Paulo SP","street":"Avenida Emilio Ribas, 1573 (Gopouva)"},"insurances":"","misc":"","name":"Complexo Hospitalar Padre Bento de Guarulhos","phone":"(11) 2463-5650","working_hours":""}},"education":{},"experience":"","name":"Wilton Schmidt Cardozo","picture":"http://photos.doctoralia.com/635248868558301025_2.jpg","registration_number":"","salutation":"Dr","services":"Doença De Crohn","speciality":"Coloproctologista, Gastroenterologista","subspecialities":""}},{"url":"http://www.doctoralia.com.br/medico/romero+prete+patricia-14461283","doctor": {"address":{"1":{"address":{"lat":-23.5814784,"lng":-46.667871299999,"locality":"01433-010","location":"01433-010 São Paulo, São Paulo SP","street":"Rua General Mena Barreto , n°756 - Jardim Paulista\nSão Paulo - SP (Jardim Paulista)"},"insurances":"Pacientes privados (sem plano de saúde)","misc":"","name":"Consultório","phone":"11-38851365, 11-38876571","working_hours":""},"2":{"address":{"lat":-23.5669896,"lng":-46.643432399999,"locality":"01321-001","location":"01321-001 São Paulo, São Paulo SP","street":"Rua Martiniano de Carvalho , n°927\nBela  Vista - SP (Bela Vista)"},"insurances":"Pacientes privados (sem plano de saúde)","misc":"","name":"Pró - Gastro","phone":"11-32513822, 11-32693822","working_hours":""}},"education":{"1":{"degree":"Cirurgia Geral","institute":"Santa Casa de Misericórdia De Ribeirão Preto","year":"2010"},"2":{"degree":"Coloproctologia","institute":"Hospita Beneficência Portuguesa De São Paulo","year":"2012"}},"experience":"","name":"Patricia Romero Prete","picture":"http://photos.doctoralia.com/V2635453954082642807_2.jpg","registration_number":"","salutation":"Dra","services":"Câncer colorretal, Doença De Crohn, Doenças Retais, Hemorróidas","speciality":"Coloproctologista","subspecialities":""}},{"url":"http://www.doctoralia.com.br/medico/carlos+alexandre+rachid-10611128","doctor": {"address":{"1":{"address":{"lat":-23.5731208,"lng":-46.6579658,"locality":"01425-000","location":"01425-000 São Paulo, São Paulo SP","street":"Rua Guarara, 234 (Jardim Paulista)"},"insurances":"Pacientes privados (sem plano de saúde), Cassi","misc":"","name":"Consultório","phone":"(11) 3885-9372","working_hours":""}},"education":{},"experience":"","name":"Carlos Alexandre Rachid","picture":"http://photos.doctoralia.com/V2635453954082642807_2.jpg","registration_number":"","salutation":"Dr","services":"","speciality":"Coloproctologista, Gastroenterologista","subspecialities":""}},{"url":"http://www.doctoralia.com.br/medico/zacarias+nadir-10590181","doctor": {"address":{"1":{"address":{"lat":-23.5482884,"lng":-46.6556986,"locality":"01239-000","location":"01239-000 São Paulo, São Paulo SP","street":"Rua Sabará, 566 (cj 51) (Higienópolis)"},"insurances":"Pacientes privados (sem plano de saúde), Unimed","misc":"","name":"Consultório","phone":"(11) 3259-8081","working_hours":""}},"education":{},"experience":"","name":"Nadir Zacarias","picture":"http://photos.doctoralia.com/635248868558301025_2.jpg","registration_number":"","salutation":"Dr","services":"","speciality":"Coloproctologista, Gastroenterologista","subspecialities":""}},{"url":"http://www.doctoralia.com.br/medico/lages+das+merces+roberta-12804925","doctor": {"address":{"1":{"address":{"lat":-23.5690762,"lng":-46.6611181,"locality":"01406-000","location":"01406-000 São Paulo, São Paulo SP","street":"Av. 9 de Julho, 3384 (1ºAndar) (Jardim Paulista)"},"insurances":"","misc":"","name":"Consultório","phone":"(11) 3287 3599, (11) 3287 3760","working_hours":"Seg-Sex - 9h-18h"}},"education":{},"experience":"","name":"Roberta Lages das Mercês","picture":"http://photos.doctoralia.com/V2635453954082642807_2.jpg","registration_number":"112457","salutation":"Dra","services":"","speciality":"Coloproctologista","subspecialities":""}},{"url":"http://www.doctoralia.com.br/medico/carlos+alberto+marussi-10611041","doctor": {"address":{"1":{"address":{"lat":-23.6040343,"lng":-46.6402331,"locality":"4043-350","location":"4043-350 São Paulo, São Paulo SP","street":"Luis Goes, 1297 (Saúde)"},"insurances":"Pacientes privados (sem plano de saúde), Unimed","misc":"","name":"Consultório","phone":"112-2760","working_hours":""}},"education":{},"experience":"","name":"Carlos Alberto Marussi","picture":"http://photos.doctoralia.com/635248868558301025_2.jpg","registration_number":"","salutation":"Dr","services":"","speciality":"Coloproctologista, Gastroenterologista","subspecialities":""}},{"url":"http://www.doctoralia.com.br/medico/plazas+monteiro+elisangela-14811873","doctor": {"address":{"1":{"address":{"lat":-23.5741677,"lng":-46.6404123,"locality":"04101-000","location":"04101-000 São Paulo, São Paulo SP","street":"Rua Vergueiro, 1353 cj 407 - Torre Norte (Paraíso)"},"insurances":"Pacientes privados (sem plano de saúde)","misc":"","name":"Consultório","phone":"(11)2309-4008, (11)2309-4009","working_hours":""}},"education":{},"experience":"","name":"Elisangela Plazas Monteiro","picture":"http://photos.doctoralia.com/V2635453954082642807_2.jpg","registration_number":"","salutation":"Dra","services":"Câncer colorretal, Colite Ulcerosa, Doença De Crohn, Hemorróidas","speciality":"Coloproctologista","subspecialities":""}},{"url":"http://www.doctoralia.com.br/medico/jose+rickerson+duarte+macedo-10598456","doctor": {"address":{"1":{"address":{"lat":-23.6191492,"lng":-46.6704934,"locality":"04614-014","location":"04614-014 São Paulo, São Paulo SP","street":"Rua Demostenes, 1036 (Campo Belo)"},"insurances":"Pacientes privados (sem plano de saúde), Cassi","misc":"","name":"Consultório","phone":"","working_hours":""}},"education":{},"experience":"","name":"Jose Rickerson Duarte Macedo","picture":"http://photos.doctoralia.com/V2635453954082642807_2.jpg","registration_number":"","salutation":"Dr","services":"","speciality":"Coloproctologista","subspecialities":""}},{"url":"http://www.doctoralia.com.br/medico/eduardo+pereira+moyses+auada-10606941","doctor": {"address":{"1":{"address":{"lat":-23.6042594,"lng":-46.6613713,"locality":"04075-000","location":"04075-000 São Paulo, São Paulo SP","street":"Al Irae, 620 - Sala 102 (Moema)"},"insurances":"Pacientes privados (sem plano de saúde), Geap","misc":"","name":"Consultório","phone":"(11) 5051-0222","working_hours":""}},"education":{},"experience":"","name":"Eduardo Pereira Moyses Auada","picture":"http://photos.doctoralia.com/V2635453954082642807_2.jpg","registration_number":"","salutation":"Dr","services":"","speciality":"Coloproctologista","subspecialities":""}},{"url":"http://www.doctoralia.com.br/medico/roberto+hiroshi+ieiri-10586383","doctor": {"address":{"1":{"address":{"lat":-23.5573029,"lng":-46.6575263,"locality":"01307-002","location":"01307-002 São Paulo, São Paulo SP","street":"Rua Frei Caneca, 1212 - Cj. 262º Andar (Consolacao)"},"insurances":"Pacientes privados (sem plano de saúde), Cassi","misc":"","name":"Consultório","phone":"(11) 3289-2129","working_hours":""}},"education":{},"experience":"","name":"Roberto Hiroshi Ieiri","picture":"http://photos.doctoralia.com/V2635453954082642807_2.jpg","registration_number":"","salutation":"Dr","services":"","speciality":"Coloproctologista","subspecialities":""}},{"url":"http://www.doctoralia.com.br/medico/renato+caram+saad-10587231","doctor": {"address":{"1":{"address":{"lat":-23.5567714,"lng":-46.6549247,"locality":"01308-050","location":"01308-050 São Paulo, São Paulo SP","street":"Rua Barata Ribeiro, 490 (Cj 42)"},"insurances":"Pacientes privados (sem plano de saúde), Cassi, Gama Saúde, Mediservice","misc":"","name":"Clínica Saad","phone":"(11) 3123-5656","working_hours":""}},"education":{},"experience":"","name":"Renato Caram Saad","picture":"http://photos.doctoralia.com/V2635453954082642807_2.jpg","registration_number":"","salutation":"Dr","services":"","speciality":"Coloproctologista","subspecialities":""}},{"url":"http://www.doctoralia.com.br/medico/henrique+boruchowski-10602741","doctor": {"address":{"1":{"address":{"lat":-23.5409979,"lng":-46.6557186,"locality":"01228-000","location":"01228-000 São Paulo, São Paulo SP","street":"Av. Angelica, 916 - 7º Andar Cj. 706 (Santa Cecilia)"},"insurances":"Pacientes privados (sem plano de saúde), Cassi","misc":"","name":"Consultório","phone":"","working_hours":""}},"education":{},"experience":"","name":"Henrique Boruchowski","picture":"http://photos.doctoralia.com/V2635453954082642807_2.jpg","registration_number":"","salutation":"Dr","services":"","speciality":"Coloproctologista","subspecialities":""}},{"url":"http://www.doctoralia.com.br/medico/jorge+alberto+ortiz-11987764","doctor": {"address":{"1":{"address":{"lat":-23.5427318,"lng":-46.6489045,"locality":"01221-020","location":"01221-020 São Paulo, São Paulo SP","street":"R. Dr. Cesario Motta Jr, 112 (Vila Buarque)"},"insurances":"","misc":"","name":"Santa Casa de São Paulo Hospital Central","phone":"(11) 2176-7000","working_hours":""}},"education":{},"experience":"","name":"Jorge Alberto Ortiz","picture":"http://photos.doctoralia.com/V2635453954082642807_2.jpg","registration_number":"","salutation":"","services":"","speciality":"Coloproctologista","subspecialities":""}},{"url":"http://www.doctoralia.com.br/medico/antonio+mizuaki+sera-12087875","doctor": {"address":{"1":{"address":{"lat":-23.5566208,"lng":-46.6253464,"locality":"01518-020","location":"01518-020 São Paulo, São Paulo SP","street":"Rua Leopoldo Miguez, 327 (Cambuci)"},"insurances":"","misc":"","name":"Pam Varzea Do Carmo Nga 63","phone":"(11) 3385-7000","working_hours":""}},"education":{},"experience":"","name":"Antonio Mizuaki Sera","picture":"http://photos.doctoralia.com/V2635453954082642807_2.jpg","registration_number":"","salutation":"","services":"","speciality":"Coloproctologista","subspecialities":""}},{"url":"http://www.doctoralia.com.br/medico/glauce+naomi+takara-12090270","doctor": {"address":{"1":{"address":{"lat":-23.5518862,"lng":-46.6301201,"locality":"01019-900","location":"01019-900 São Paulo, São Paulo SP","street":"Rua do Carmo, 171 (Centro)"},"insurances":"","misc":"","name":"Sindicato Dos Metalurgicos","phone":"(11) 3115-4066","working_hours":""}},"education":{},"experience":"","name":"Glauce Naomi Takara","picture":"http://photos.doctoralia.com/V2635453954082642807_2.jpg","registration_number":"","salutation":"","services":"","speciality":"Coloproctologista","subspecialities":""}},{"url":"http://www.doctoralia.com.br/medico/tassara+chaves+katia+maria-11956499","doctor": {"address":{"1":{"address":{"lat":-23.5612294,"lng":-46.6783443,"locality":"05413-000","location":"05413-000 São Paulo, São Paulo SP","street":"R. Lisboa, 316"},"insurances":"","misc":"","name":"Consultório","phone":"(11) 3064-4552","working_hours":""}},"education":{},"experience":"","name":"Katia Maria Tassara Chaves","picture":"http://photos.doctoralia.com/V2635453954082642807_2.jpg","registration_number":"","salutation":"Dra","services":"","speciality":"Coloproctologista","subspecialities":""}},{"url":"http://www.doctoralia.com.br/medico/elcio+armando+s+ambrosio-12096370","doctor": {"address":{"1":{"address":{"lat":-23.5394467,"lng":-46.6614498,"locality":"01232-010","location":"01232-010 São Paulo, São Paulo SP","street":"Rua Conselheiro Brotero, 1486 (Santa Cecilia)"},"insurances":"","misc":"","name":"Servicos Medicos de Pronto Socorro","phone":"(11) 3826-3834","working_hours":""}},"education":{},"experience":"","name":"Elcio Armando S Ambrosio","picture":"http://photos.doctoralia.com/V2635453954082642807_2.jpg","registration_number":"","salutation":"","services":"","speciality":"Coloproctologista","subspecialities":""}},{"url":"http://www.doctoralia.com.br/medico/sergio+massimo+amedeo+domenico+lucchesi-11924139","doctor": {"address":{"1":{"address":{"lat":-23.5655034,"lng":-46.6501717,"locality":"01403-001","location":"01403-001 São Paulo, São Paulo SP","street":"Al. Joaquim Eugenio de Lima, 383 (Jardim Paulista)"},"insurances":"","misc":"","name":"Pro Matre Paulista","phone":"(11) 3269-2233","working_hours":""}},"education":{},"experience":"","name":"Sergio Massimo Amedeo Domenico Lucchesi","picture":"http://photos.doctoralia.com/V2635453954082642807_2.jpg","registration_number":"","salutation":"","services":"","speciality":"Coloproctologista","subspecialities":""}},{"url":"http://www.doctoralia.com.br/medico/felipe+augusto+ceballos+melo-11987765","doctor": {"address":{"1":{"address":{"lat":-23.5427318,"lng":-46.6489045,"locality":"01221-020","location":"01221-020 São Paulo, São Paulo SP","street":"R. Dr. Cesario Motta Jr, 112 (Vila Buarque)"},"insurances":"","misc":"","name":"Santa Casa de São Paulo Hospital Central","phone":"(11) 2176-7000","working_hours":""}},"education":{},"experience":"","name":"Felipe Augusto Ceballos Melo","picture":"http://photos.doctoralia.com/V2635453954082642807_2.jpg","registration_number":"","salutation":"","services":"","speciality":"Coloproctologista","subspecialities":""}},{"url":"http://www.doctoralia.com.br/medico/jose+mandia+neto-11987767","doctor": {"address":{"1":{"address":{"lat":-23.5427318,"lng":-46.6489045,"locality":"01221-020","location":"01221-020 São Paulo, São Paulo SP","street":"R. Dr. Cesario Motta Jr, 112 (Vila Buarque)"},"insurances":"","misc":"","name":"Santa Casa de São Paulo Hospital Central","phone":"(11) 2176-7000","working_hours":""}},"education":{},"experience":"","name":"Jose Mandia Neto","picture":"http://photos.doctoralia.com/V2635453954082642807_2.jpg","registration_number":"","salutation":"","services":"","speciality":"Coloproctologista","subspecialities":""}},{"url":"http://www.doctoralia.com.br/medico/carlos+frederico+sparapan+marques-12087876","doctor": {"address":{"1":{"address":{"lat":-23.5566208,"lng":-46.6253464,"locality":"01518-020","location":"01518-020 São Paulo, São Paulo SP","street":"Rua Leopoldo Miguez, 327 (Cambuci)"},"insurances":"","misc":"","name":"Pam Varzea Do Carmo Nga 63","phone":"(11) 3385-7000","working_hours":""}},"education":{},"experience":"","name":"Carlos Frederico Sparapan Marques","picture":"http://photos.doctoralia.com/V2635453954082642807_2.jpg","registration_number":"","salutation":"","services":"","speciality":"Coloproctologista","subspecialities":""}}]}