{"webData": [{"url":"http://www.doctoralia.com.br/medico/bixofis+eliane-11987013","doctor": {"address":{"1":{"address":{"lat":-23.5990432,"lng":-46.637768,"locality":"04038-040","location":"04038-040 São Paulo, São Paulo SP","street":"Rua Tenente Gomes Ribeiro, 212, cj. 12 (Aclimação, Ipiranga, Saúde, Moóca, Moema,Paraiso, Tatuapé) (Vila Mariana)"},"insurances":"Pacientes privados (sem plano de saúde)","misc":"","name":"Consultório","phone":"50839964, 996678392","working_hours":"segunda a sexta das 13:00 as 21:00"},"2":{"address":{"lat":-23.5537093,"lng":-46.7088347,"locality":"01229000","location":"01229000 São Paulo, São Paulo SP","street":"Rua Dr. Veiga Filho,350 cj.106, (Paulista, Pacaembu, Perdizes, Consolação, Campos Eliseos,  Alto de Pinheiros (Higienópolis)"},"insurances":"Pacientes privados (sem plano de saúde)","misc":"","name":"Consultório","phone":"36619502","working_hours":""}},"education":{"1":{"degree":"MEDICINA","institute":"FCM SANTA CASA DE SÃO PAULO","year":"1990"},"2":{"degree":"PEDIATRIA","institute":"SOCIEDADE BRASILEIRA DE PEDIATRIA","year":"1993"},"3":{"degree":"TERAPIA INTENSIVA PEDIATRICA","institute":"AMIB","year":"2001"},"4":{"degree":"HOMEOPATIA","institute":"APH","year":"2003"},"5":{"degree":"NUTROLOGIA","institute":"ABRAN","year":"2013"}},"experience":"","name":"Eliane Bixofis","picture":"http://photos.doctoralia.com/V2635315645633971170_2.jpg","registration_number":"","salutation":"Dra","services":"Alergia a medicamentos, Alergia alimentar e reações cruzadas, Deficiências Nutricionais, Obesidade, Transtorno de Déficit de Atenção com Hiperatividade (TDAH), Transtornos Da Nutrição Infantil, Transtornos De Alimentação Na Infância, Transtornos de Ansiedade","speciality":"Pediatra, Homeopata","subspecialities":"Homeopatía Pediátrica, Nutrologia Pediátrica"}},{"url":"http://www.doctoralia.com.br/medico/salgado+mangolini+fabio-14097751","doctor": {"address":{"1":{"address":{"lat":-23.5757407,"lng":-46.6394594,"locality":"04104020","location":"04104020 São Paulo, São Paulo SP","street":"Rua Apeninos 930, conjunto 74. (Paraíso)"},"insurances":"Pacientes privados (sem plano de saúde), Lincx, Marítima, Omint, Sabesprev","misc":"","name":"Consultório","phone":"2373.2137, 2373.2139","working_hours":""}},"education":{"1":{"degree":"Título de Especialista em Homeopatia","institute":"AMB/AMHB","year":"2001"}},"experience":"","name":"Fabio Salgado Mangolini","picture":"http://photos.doctoralia.com/635326599213618754_1.jpg","registration_number":"","salutation":"Dr","services":"Asma, Depressão, Doenças Reumáticas, Transtorno De Pânico","speciality":"Homeopata","subspecialities":"Homeopatía Pediátrica"}},{"url":"http://www.doctoralia.com.br/medico/andalaft+argene+mariza-14787553","doctor": {"address":{"1":{"address":{"lat":-23.5963523,"lng":-46.6372867,"locality":"04037000","location":"04037000 São Paulo, São Paulo SP","street":"Rua Dr.Diogo de Faria 55 cj: 43/44 (Vila Clementino)"},"insurances":"Pacientes privados (sem plano de saúde)","misc":"","name":"Consultório","phone":"1150830553, 1150896333","working_hours":"10:30 às 17 horas"}},"education":{"1":{"degree":"Pediatria Homeopoatia","institute":"Associação Paulista de Homeopatia","year":"1983"},"2":{"degree":"Especialização em Homeopatia","institute":"Associação Paulista de Homeopoatia","year":"1984"}},"experience":"","name":"Argene Mariza Andalaft","picture":"http://photos.doctoralia.com/635622954846375238_2.jpg","registration_number":"","salutation":"Dra","services":"Obstrução Nasal, Rinite, Sinusite, Transtornos De Alimentação Na Infância","speciality":"Pediatra, Homeopata","subspecialities":""}},{"url":"http://www.doctoralia.com.br/medico/golfette+de+paula+cortes+eliana-14326299","doctor": {"address":{"1":{"address":{"lat":-23.5373656,"lng":-46.5888692,"locality":"03014020","location":"03014020 São Paulo, São Paulo SP","street":"Praça Major Guilherme Rudge, 91 (belém)"},"insurances":"Pacientes privados (sem plano de saúde), Bradesco Saúde, Metrus","misc":"","name":"Consultório","phone":"1122923237","working_hours":"15:00 às 18:00"}},"education":{"1":{"degree":"Título de especialista em Pediatria","institute":"USP","year":"1988"},"2":{"degree":"Título de especialista em Homeopatia","institute":"IBEHE","year":"1998"}},"experience":"","name":"Eliana Golfette de Paula Côrtes","picture":"http://photos.doctoralia.com/635622954846375238_2.jpg","registration_number":"","salutation":"Dra","services":"","speciality":"Pediatra, Homeopata","subspecialities":"Medicina do Adolescente"}},{"url":"http://www.doctoralia.com.br/medico/tatiana+montes+naked-12035414","doctor": {"address":{"1":{"address":{"lat":-23.5529159,"lng":-46.7203269,"locality":"05465-070","location":"05465-070 São Paulo, São Paulo SP","street":"Rua General Furtado do Nascimento, 740 cj 17 (Alto de Pinheiros)"},"insurances":"Pacientes privados (sem plano de saúde)","misc":"","name":"Consultório","phone":"(11) 3021-2110, (11)999354113","working_hours":""}},"education":{"1":{"degree":"Titulo Especialista em Pediatria","institute":"Sociedade Brasileira de Pediatria","year":"2003"},"2":{"degree":"Titulo Especialista Neonatologia","institute":"Sociedade Brasileira de Pediatria","year":"2004"},"3":{"degree":"Pos Graduação em Homeoptia","institute":"FACIS","year":"2008"}},"experience":"","name":"Tatiana Montes Naked","picture":"http://photos.doctoralia.com/635622954846375238_2.jpg","registration_number":"","salutation":"","services":"Doenças da infância, Doenças Do Prematuro, Doenças Do Recém-Nascido, Transtornos Globais Do Desenvolvimento Infantil","speciality":"Pediatra, Homeopata","subspecialities":"Neonatologia"}},{"url":"http://www.doctoralia.com.br/medico/rosana+do+patrocinio+strohl-10585160","doctor": {"address":{"1":{"address":{"lat":-23.5341037,"lng":-46.7808748,"locality":"6016-040","location":"6016-040 Osasco, São Paulo SP","street":"General Bittencourt, 196 - Sl. 31 (Centro)"},"insurances":"Pacientes privados (sem plano de saúde), Amil, Bradesco Saúde, Unimed, CABESP, Cassi, Porto Seguro","misc":"","name":"Consultório","phone":"11-36838170","working_hours":""},"2":{"address":{"lat":-23.5271588,"lng":-46.7332452,"locality":"05303-020","location":"05303-020 São Paulo, São Paulo SP","street":"Rua Tripoli, 153 (Vila Leopoldina)"},"insurances":"Pacientes privados (sem plano de saúde), Unimed","misc":"","name":"Consultório","phone":"11 3831 5544","working_hours":""}},"education":{},"experience":"","name":"Rosana do Patrocínio Strohl","picture":"http://photos.doctoralia.com/634668312135146966_2.jpg","registration_number":"","salutation":"Dra","services":"Obstrução Nasal, Ronco, Sinusite","speciality":"Otorrinolaringologista, Homeopata","subspecialities":""}},{"url":"http://www.doctoralia.com.br/medico/jordao+correa+neto-10600251","doctor": {"address":{"1":{"address":{"lat":-23.5316769,"lng":-46.663360999999,"locality":"01156-040","location":"01156-040 São Paulo, São Paulo SP","street":"Largo Padre Pericles, 145 - Cj.12 (Barra Funda)"},"insurances":"Pacientes privados (sem plano de saúde), Geap","misc":"","name":"Consultório","phone":"(11) 3667-7649","working_hours":""}},"education":{},"experience":"","name":"Jordao Correa Neto","picture":"http://photos.doctoralia.com/635622954846375238_2.jpg","registration_number":"","salutation":"Dr","services":"","speciality":"Pediatra, Homeopata","subspecialities":""}},{"url":"http://www.doctoralia.com.br/medico/heloisa+helena+de+macedo-10602679","doctor": {"address":{"1":{"address":{"lat":-23.55938,"lng":-46.6590269,"locality":"01311-300","location":"01311-300 São Paulo, São Paulo SP","street":"Av Paulista, 2001 - Conj 1412 (Bela Vista)"},"insurances":"Pacientes privados (sem plano de saúde), Cassi","misc":"","name":"Consultório","phone":"(11) 3266-8452","working_hours":""}},"education":{},"experience":"","name":"Heloisa Helena de Macedo","picture":"http://photos.doctoralia.com/V2635127073073650838_2.jpg","registration_number":"","salutation":"Dra","services":"","speciality":"Otorrinolaringologista, Homeopata","subspecialities":""}},{"url":"http://www.doctoralia.com.br/medico/isis+dulce+pezzuol-10601931","doctor": {"address":{"1":{"address":{"lat":-23.5837426,"lng":-46.6709514,"locality":"4534-010","location":"4534-010 São Paulo, São Paulo SP","street":"Joaquim Floriano, 101 - Cj. 909 (Itaim Bibi)"},"insurances":"Pacientes privados (sem plano de saúde), Unimed","misc":"","name":"Consultório","phone":"113-1676","working_hours":""}},"education":{},"experience":"","name":"Isis Dulce Pezzuol","picture":"http://photos.doctoralia.com/635622954846375238_2.jpg","registration_number":"","salutation":"Dr","services":"","speciality":"Pediatra, Homeopata","subspecialities":""}},{"url":"http://www.doctoralia.com.br/medico/nelson+douglas+ejzenbaum-10589912","doctor": {"address":{"1":{"address":{"lat":-23.500065,"lng":-46.6256171,"locality":"2010-820","location":"2010-820 São Paulo, São Paulo SP","street":"Voluntários da Pátria, 2296"},"insurances":"Pacientes privados (sem plano de saúde), Unimed","misc":"","name":"Consultório","phone":"(11) 6979-4956, (11) 6283-4463","working_hours":""}},"education":{},"experience":"","name":"Nelson Douglas Ejzenbaum","picture":"http://photos.doctoralia.com/635622954846375238_2.jpg","registration_number":"","salutation":"Dr","services":"","speciality":"Pediatra, Homeopata","subspecialities":""}},{"url":"http://www.doctoralia.com.br/medico/cecilia+helena+busko-10610302","doctor": {"address":{"1":{"address":{"lat":-23.5495475,"lng":-46.6798507,"locality":"1255-000","location":"1255-000 São Paulo, São Paulo SP","street":"Dr. Arnaldo, 1700 (Sumaré)"},"insurances":"Pacientes privados (sem plano de saúde), Unimed","misc":"","name":"Consultório","phone":"(11) 3673-8834","working_hours":""}},"education":{},"experience":"","name":"Cecília Helena Busko","picture":"http://photos.doctoralia.com/635622954846375238_2.jpg","registration_number":"","salutation":"Dra","services":"Rinite","speciality":"Homeopata","subspecialities":""}},{"url":"http://www.doctoralia.com.br/medico/adelia+sarah+akerman+sadetsky-10579168","doctor": {"address":{"1":{"address":{"lat":-23.5680255,"lng":-46.563559,"locality":"4002-030","location":"4002-030 São Paulo, São Paulo SP","street":"Teixeira da Silva, 34 (Paraíso)"},"insurances":"Pacientes privados (sem plano de saúde), Unimed","misc":"","name":"Consultório","phone":"(11) 3289-9299","working_hours":""}},"education":{},"experience":"","name":"Adelia Sarah Akerman Sadetsky","picture":"http://photos.doctoralia.com/635622954846375238_2.jpg","registration_number":"","salutation":"Dr","services":"","speciality":"Pediatra, Homeopata","subspecialities":""}},{"url":"http://www.doctoralia.com.br/medico/eliane+eiger+wagner-10606739","doctor": {"address":{"1":{"address":{"lat":-23.5026014,"lng":-46.6314238,"locality":"02013-001","location":"02013-001 São Paulo, São Paulo SP","street":"Rua Dr. Cesar, 530 - 2.And.Cj.203"},"insurances":"","misc":"","name":"Clin Eiger Wagner","phone":"(11) 2977-8317","working_hours":""}},"education":{},"experience":"","name":"Eliane Eiger Wagner","picture":"http://photos.doctoralia.com/635622954846375238_2.jpg","registration_number":"","salutation":"Dra","services":"","speciality":"Pediatra, Homeopata","subspecialities":""}},{"url":"http://www.doctoralia.com.br/medico/di+thomazo+norberto-10589738","doctor": {"address":{"1":{"address":{"lat":-23.5337939,"lng":-46.5756001,"locality":"03081-010","location":"03081-010 São Paulo, São Paulo SP","street":"Rua Margarida de Lima, 04 (Tatuape)"},"insurances":"Pacientes privados (sem plano de saúde), Cassi","misc":"","name":"Consultório","phone":"(11) 2294-3404","working_hours":""}},"education":{},"experience":"","name":"Norberto Di Thomazo","picture":"http://photos.doctoralia.com/635622954846375238_2.jpg","registration_number":"","salutation":"Dr","services":"","speciality":"Homeopata","subspecialities":""}},{"url":"http://www.doctoralia.com.br/medico/paulo+gerencer+netto-10588555","doctor": {"address":{"1":{"address":{"lat":-23.6773922,"lng":-46.7643941,"locality":"05863-050","location":"05863-050 São Paulo, São Paulo SP","street":"Rua Domingos de Morais, 2747 - Cj. 63 (Vila Mariana)"},"insurances":"Pacientes privados (sem plano de saúde), Cassi","misc":"","name":"Consultório","phone":"(11) 5575-8104","working_hours":""}},"education":{},"experience":"","name":"Paulo Gerencer Netto","picture":"http://photos.doctoralia.com/635622954846375238_2.jpg","registration_number":"","salutation":"Dr","services":"","speciality":"Homeopata","subspecialities":""}},{"url":"http://www.doctoralia.com.br/medico/rubens+dolce+filho-10585398","doctor": {"address":{"1":{"address":{"lat":-23.5985974,"lng":-46.637652,"locality":"04038-040","location":"04038-040 São Paulo, São Paulo SP","street":"R. Ten. Gomes Ribeiro, 182 (cj 32) (Vila Mariana)"},"insurances":"Pacientes privados (sem plano de saúde), Unimed","misc":"","name":"Consultório","phone":"(11) 5575-8799","working_hours":""}},"education":{},"experience":"","name":"Rubens Dolce Filho","picture":"http://photos.doctoralia.com/635622954846375238_2.jpg","registration_number":"","salutation":"Dr","services":"","speciality":"Homeopata","subspecialities":""}},{"url":"http://www.doctoralia.com.br/medico/volga+ide+marques+dos+santos-10581692","doctor": {"address":{"1":{"address":{"lat":-23.5664352,"lng":-46.6396819,"locality":"4101-300","location":"4101-300 São Paulo, São Paulo SP","street":"Vergueiro, 3185 - Cj. 32"},"insurances":"Pacientes privados (sem plano de saúde), Unimed","misc":"","name":"Consultório","phone":"(11) 5573-1971","working_hours":""}},"education":{},"experience":"","name":"Volga Ide Marques dos Santos","picture":"http://photos.doctoralia.com/635622954846375238_2.jpg","registration_number":"","salutation":"Dr","services":"","speciality":"Homeopata","subspecialities":""}},{"url":"http://www.doctoralia.com.br/medico/maria+do+perpetuo+socorro+de+lima+carvalho-10592595","doctor": {"address":{"1":{"address":{"lat":-23.4961208,"lng":-46.6322766,"locality":"02020-000","location":"02020-000 São Paulo, São Paulo SP","street":"R Marechal Hermes da Fonseca, 458 (Santana)"},"insurances":"Pacientes privados (sem plano de saúde), Geap","misc":"","name":"Consultório","phone":"(11) 6959-6744","working_hours":""}},"education":{},"experience":"","name":"Maria do Perpetuo Socorro de Lima Carvalho","picture":"http://photos.doctoralia.com/635622954846375238_2.jpg","registration_number":"","salutation":"Dra","services":"","speciality":"Homeopata","subspecialities":""}},{"url":"http://www.doctoralia.com.br/medico/dora+luiza+uzam+castro+correia-10607930","doctor": {"address":{"1":{"address":{"lat":-23.6205437,"lng":-46.6381492,"locality":"04302-000","location":"04302-000 São Paulo, São Paulo SP","street":"Rua Apotribu, 149 (Saude)"},"insurances":"Pacientes privados (sem plano de saúde), Cassi","misc":"","name":"Consultório","phone":"(11) 5583-2767","working_hours":""}},"education":{},"experience":"","name":"Dora Luiza Uzam Castro Correia","picture":"http://photos.doctoralia.com/635622954846375238_2.jpg","registration_number":"","salutation":"Dra","services":"","speciality":"Homeopata","subspecialities":""}},{"url":"http://www.doctoralia.com.br/medico/afra+humberto+peixeiro-10616061","doctor": {"address":{"1":{"address":{"locality":"5006-000","location":"5006-000 São Paulo, São Paulo SP","street":"Itapicurú, 369 - Cj. 910 (Perdizes)"},"insurances":"Pacientes privados (sem plano de saúde), Unimed","misc":"","name":"Consultório","phone":"113-8712","working_hours":""},"2":{"address":{"lat":-23.5446782,"lng":-46.6386066,"locality":"01037-000","location":"01037-000 São Paulo, São Paulo SP","street":"Rua Conselheiro Crispiniano, 20 (Centro)"},"insurances":"","misc":"","name":"Pam Centro Nga 55","phone":"(11) 3106-8528","working_hours":""}},"education":{},"experience":"","name":"Afra Humberto Peixeiro","picture":"http://photos.doctoralia.com/635622954846375238_2.jpg","registration_number":"","salutation":"Dr","services":"","speciality":"Homeopata","subspecialities":""}},{"url":"http://www.doctoralia.com.br/medico/bearzi+gustavo-10603351","doctor": {"address":{"1":{"address":{"lat":-23.6202733,"lng":-46.672168799999,"locality":"04616-002","location":"04616-002 São Paulo, São Paulo SP","street":"Rua Pascal, 959 (Campo Belo)"},"insurances":"Pacientes privados (sem plano de saúde), Unimed","misc":"","name":"Consultório","phone":"(11) 5535-3529, (11) 5041-4007","working_hours":""}},"education":{},"experience":"","name":"Gustavo Bearzi","picture":"http://photos.doctoralia.com/635622954846375238_2.jpg","registration_number":"","salutation":"Dr","services":"","speciality":"Homeopata","subspecialities":""}},{"url":"http://www.doctoralia.com.br/medico/onofre+garcia+guerra-10589445","doctor": {"address":{"1":{"address":{"lat":-23.568108,"lng":-46.6437544,"locality":"01327-010","location":"01327-010 São Paulo, São Paulo SP","street":"Pc Amadeu Amaral, 47 - Conj 102 (B Vista)"},"insurances":"Pacientes privados (sem plano de saúde), Geap","misc":"","name":"Consultório","phone":"(11) 3285-3671","working_hours":""}},"education":{},"experience":"","name":"Onofre Garcia Guerra","picture":"http://photos.doctoralia.com/635622954846375238_2.jpg","registration_number":"","salutation":"Dr","services":"","speciality":"Homeopata","subspecialities":""}},{"url":"http://www.doctoralia.com.br/medico/yechiel+moises+chencinski-10581224","doctor": {"address":{"1":{"address":{"lat":-23.558802,"lng":-46.651678999999,"locality":"01332-000","location":"01332-000 São Paulo, São Paulo SP","street":"Rua Itapeva, 240 - 18 Andar Cj 1807 (Bela Vista)"},"insurances":"Pacientes privados (sem plano de saúde), Unimed","misc":"","name":"Consultório","phone":"","working_hours":""}},"education":{},"experience":"","name":"Yechiel Moises Chencinski","picture":"http://photos.doctoralia.com/635622954846375238_2.jpg","registration_number":"","salutation":"Dr","services":"","speciality":"Homeopata","subspecialities":""}},{"url":"http://www.doctoralia.com.br/medico/liliana+teresinha+martucci+lara-10596874","doctor": {"address":{"1":{"address":{"lat":-23.5076451,"lng":-46.6255429,"locality":"2033-000","location":"2033-000 São Paulo, São Paulo SP","street":"Gen. Ataliba Leonel, 93 - Cj. 38 (Santana)"},"insurances":"Pacientes privados (sem plano de saúde), Unimed","misc":"","name":"Consultório","phone":"116-2210","working_hours":""}},"education":{},"experience":"","name":"Liliana Teresinha Martucci Lara","picture":"http://photos.doctoralia.com/634568373959347675_2.jpg","registration_number":"","salutation":"Dra","services":"","speciality":"Infectologista, Homeopata","subspecialities":""}},{"url":"http://www.doctoralia.com.br/medico/cyro+scala+de+almeida-10609116","doctor": {"address":{"1":{"address":{"lat":-23.5077086,"lng":-46.625563799999,"locality":"2033-000","location":"2033-000 São Paulo, São Paulo SP","street":"General Ataliba Leonel, 93 (Santana)"},"insurances":"Pacientes privados (sem plano de saúde), Unimed","misc":"","name":"Consultório","phone":"116-2237","working_hours":""}},"education":{},"experience":"","name":"Cyro Scala de Almeida","picture":"http://photos.doctoralia.com/635622954846375238_2.jpg","registration_number":"","salutation":"Dr","services":"","speciality":"Pediatra, Homeopata","subspecialities":""}},{"url":"http://www.doctoralia.com.br/medico/deucelia+maria+britto+silverio-10608226","doctor": {"address":{"1":{"address":{"lat":-23.5389349,"lng":-46.6770106,"locality":"5016-000","location":"5016-000 São Paulo, São Paulo SP","street":"Campevas, 511 (Perdizes)"},"insurances":"Pacientes privados (sem plano de saúde), Unimed","misc":"","name":"Consultório","phone":"(11) 3864-0309","working_hours":""}},"education":{},"experience":"","name":"Deucélia Maria Britto Silvério","picture":"http://photos.doctoralia.com/635622954846375238_2.jpg","registration_number":"","salutation":"Dr","services":"","speciality":"Pediatra, Homeopata","subspecialities":""}},{"url":"http://www.doctoralia.com.br/medico/llompart+sacchi+pablo+martin-12710333","doctor": {"address":{"1":{"address":{"lat":-23.6137142,"lng":-46.624278399999,"locality":"04142-082","location":"04142-082 São Paulo, São Paulo SP","street":"Avenida Bosque da Saude , 1514 (vila da saude)"},"insurances":"","misc":"","name":"Consultório","phone":"11-55942726","working_hours":"ver"}},"education":{},"experience":"","name":"Pablo Martin Llompart Sacchi","picture":"http://photos.doctoralia.com/V2635457994129641617_2.jpg","registration_number":"","salutation":"Dr","services":"","speciality":"Homeopata, Intensivista","subspecialities":""}},{"url":"http://www.doctoralia.com.br/medico/denise+maria+frussa-12087840","doctor": {"address":{"1":{"address":{"lat":-23.5446782,"lng":-46.6386066,"locality":"01037-000","location":"01037-000 São Paulo, São Paulo SP","street":"Rua Conselheiro Crispiniano, 20 (Centro)"},"insurances":"","misc":"","name":"Pam Centro Nga 55","phone":"(11) 3106-8528","working_hours":""},"2":{"address":{"lat":-23.5566208,"lng":-46.6253464,"locality":"01518-020","location":"01518-020 São Paulo, São Paulo SP","street":"Rua Leopoldo Miguez, 327 (Cambuci)"},"insurances":"","misc":"","name":"Pam Varzea Do Carmo Nga 63","phone":"(11) 3385-7000","working_hours":""}},"education":{},"experience":"","name":"Denise Maria Frussa","picture":"http://photos.doctoralia.com/635622954846375238_2.jpg","registration_number":"","salutation":"","services":"","speciality":"Homeopata","subspecialities":""}},{"url":"http://www.doctoralia.com.br/medico/rubens+jose+de+lara+nunes-10585411","doctor": {"address":{"1":{"address":{"lat":-23.5594909,"lng":-46.6878131,"locality":"5432-040","location":"5432-040 São Paulo, São Paulo SP","street":"Padre João Gonçalves, 152 (Pinheiros)"},"insurances":"Pacientes privados (sem plano de saúde), Unimed","misc":"","name":"Consultório","phone":"113-0315","working_hours":""}},"education":{},"experience":"","name":"Rubens Jose de Lara Nunes","picture":"http://photos.doctoralia.com/635622954846375238_2.jpg","registration_number":"","salutation":"Dr","services":"","speciality":"Homeopata","subspecialities":""}},{"url":"http://www.doctoralia.com.br/medico/luiza+naomi+ishikawa+nakaie-10595256","doctor": {"address":{"1":{"address":{"lat":-23.6130809,"lng":-46.6193057,"locality":"4142-082","location":"4142-082 São Paulo, São Paulo SP","street":"Bosque da Saúde, 2020 (Saúde)"},"insurances":"Pacientes privados (sem plano de saúde), Unimed","misc":"","name":"Consultório","phone":"115-0627","working_hours":""}},"education":{},"experience":"","name":"Luiza Naomi Ishikawa Nakaie","picture":"http://photos.doctoralia.com/635622954846375238_2.jpg","registration_number":"","salutation":"Dra","services":"","speciality":"Homeopata","subspecialities":""}},{"url":"http://www.doctoralia.com.br/medico/sueli+binstock-10583312","doctor": {"address":{"1":{"address":{"lat":-23.5246834,"lng":-46.7080872,"locality":"5073-010","location":"5073-010 São Paulo, São Paulo SP","street":"Barão de Jundiaí, 344 (Lapa)"},"insurances":"Pacientes privados (sem plano de saúde), Unimed","misc":"","name":"Consultório","phone":"(11) 3833-9807","working_hours":""}},"education":{},"experience":"","name":"Sueli Binstock","picture":"http://photos.doctoralia.com/635622954846375238_2.jpg","registration_number":"","salutation":"Dra","services":"","speciality":"Homeopata","subspecialities":""}},{"url":"http://www.doctoralia.com.br/medico/jose+luis+roizenbruch-10599173","doctor": {"address":{"1":{"address":{"lat":-23.4988823,"lng":-46.4008929,"locality":"8110-320","location":"8110-320 São Paulo, São Paulo SP","street":"Barena, 611 (Itaim Paulista)"},"insurances":"Pacientes privados (sem plano de saúde), Unimed","misc":"","name":"Consultório","phone":"116-5620","working_hours":""}},"education":{},"experience":"","name":"Jose Luis Roizenbruch","picture":"http://photos.doctoralia.com/635622954846375238_2.jpg","registration_number":"","salutation":"Dr","services":"","speciality":"Homeopata","subspecialities":""}},{"url":"http://www.doctoralia.com.br/medico/lira+alves+joselma-12710398","doctor": {"address":{"1":{"address":{"lat":-23.5872014,"lng":-46.630209099999,"locality":"04111-081","location":"04111-081 São Paulo, São Paulo SP","street":"Rua Dona Brigida , 694 (Vila Mariana)"},"insurances":"","misc":"","name":"Consultório","phone":"(11) 5539-1165, (11) 4508-1165","working_hours":""}},"education":{},"experience":"","name":"Joselma Lira Alves","picture":"http://photos.doctoralia.com/635622954846375238_2.jpg","registration_number":"","salutation":"Dra","services":"","speciality":"Homeopata","subspecialities":""}},{"url":"http://www.doctoralia.com.br/medico/telma+de+cassia+dos+santos+nery-10583171","doctor": {"address":{"1":{"address":{"locality":"2013-000","location":"2013-000 São Paulo, São Paulo SP","street":"Dr. Cesar, 62 - 1º And. (Santana)"},"insurances":"Pacientes privados (sem plano de saúde), Unimed","misc":"","name":"Consultório","phone":"116-9768","working_hours":""}},"education":{},"experience":"","name":"Telma de Cassia dos Santos Nery","picture":"http://photos.doctoralia.com/635622954846375238_2.jpg","registration_number":"","salutation":"Dra","services":"","speciality":"Homeopata","subspecialities":""}},{"url":"http://www.doctoralia.com.br/medico/raquel+de+souza+poppe-10588153","doctor": {"address":{"1":{"address":{"lat":-23.5236206,"lng":-46.706697,"locality":"05077-130","location":"05077-130 São Paulo, São Paulo SP","street":"Rua Albion, 229 - 3º Andar Cj 31 (Lapa)"},"insurances":"Pacientes privados (sem plano de saúde), Cassi","misc":"","name":"Consultório","phone":"(11) 3832-7654","working_hours":""}},"education":{},"experience":"","name":"Raquel de Souza Poppe","picture":"http://photos.doctoralia.com/635622954846375238_2.jpg","registration_number":"","salutation":"Dra","services":"","speciality":"Homeopata","subspecialities":""}},{"url":"http://www.doctoralia.com.br/medico/luiz+gonzaga+pereira+de+souza+filho-10595533","doctor": {"address":{"1":{"address":{"lat":-23.5576122,"lng":-46.6496879,"locality":"01330-000","location":"01330-000 São Paulo, São Paulo SP","street":"R Rocha, 167 - Sala 11 (Bela Vista)"},"insurances":"Pacientes privados (sem plano de saúde), Geap","misc":"","name":"Consultório","phone":"","working_hours":""}},"education":{},"experience":"","name":"Luiz Gonzaga Pereira de Souza Filho","picture":"http://photos.doctoralia.com/635622954846375238_2.jpg","registration_number":"","salutation":"Dr","services":"","speciality":"Homeopata","subspecialities":""}},{"url":"http://www.doctoralia.com.br/medico/leonardo+schwartzman-10597144","doctor": {"address":{"1":{"address":{"lat":-23.7217424,"lng":-46.6406298,"locality":"04477-380","location":"04477-380 São Paulo, São Paulo SP","street":"Rua Helena, 218 - Sala 1007 10º Andar (Vila Olimpia)"},"insurances":"Pacientes privados (sem plano de saúde), Cassi","misc":"","name":"Consultório","phone":"","working_hours":""}},"education":{},"experience":"","name":"Leonardo Schwartzman","picture":"http://photos.doctoralia.com/635622954846375238_2.jpg","registration_number":"","salutation":"Dr","services":"","speciality":"Homeopata","subspecialities":""}},{"url":"http://www.doctoralia.com.br/medico/enara+terezinha+castilhos-10606098","doctor": {"address":{"1":{"address":{"lat":-23.6205437,"lng":-46.6381492,"locality":"04302-000","location":"04302-000 São Paulo, São Paulo SP","street":"Rua Apotribu, 149 (Saúde)"},"insurances":"Pacientes privados (sem plano de saúde), Cassi","misc":"","name":"Consultório","phone":"(11) 5594-2436","working_hours":""}},"education":{},"experience":"","name":"Enara Terezinha Castilhos","picture":"http://photos.doctoralia.com/635622954846375238_2.jpg","registration_number":"","salutation":"Dr","services":"","speciality":"Homeopata","subspecialities":""}},{"url":"http://www.doctoralia.com.br/medico/amalia+izabel+mandia+fazia-10614492","doctor": {"address":{"1":{"address":{"lat":-23.5515588,"lng":-46.6350203,"locality":"12210-170","location":"12210-170 São Paulo, São Paulo SP","street":"Pc Doutor Joao Mendes, 39 - 3º Andar (Centro)"},"insurances":"Pacientes privados (sem plano de saúde), Unimed","misc":"","name":"Consultório","phone":"","working_hours":""}},"education":{},"experience":"","name":"Amalia Izabel Mandia Fazia","picture":"http://photos.doctoralia.com/635622954846375238_2.jpg","registration_number":"","salutation":"Dr","services":"","speciality":"Homeopata","subspecialities":""}},{"url":"http://www.doctoralia.com.br/medico/arakawa+dra+lilian+kiyomura+arakawa-14822009","doctor": {"address":{"1":{"address":{"lat":-23.5505199,"lng":-46.633309399999,"locality":"03227140","location":"03227140 São Paulo, São Paulo SP","street":"Rua Pedro Nolasco da Cunha nº363"},"insurances":"","misc":"","name":"Movimento Corporal Ltda","phone":"01123418030","working_hours":""}},"education":{},"experience":"","name":"Dra Lilian Kiyomura Arakawa Arakawa","picture":"http://photos.doctoralia.com/635622954846375238_2.jpg","registration_number":"","salutation":"Dra","services":"","speciality":"Homeopata","subspecialities":"Homeopatía Pediátrica"}},{"url":"http://www.doctoralia.com.br/medico/antonio+francisco+marques-11898189","doctor": {"address":{"1":{"address":{"lat":-23.4904407,"lng":-46.628451,"locality":"02404-060","location":"02404-060 São Paulo, São Paulo SP","street":"Rua Antonio Pereira de Souza, 240 (Santana)"},"insurances":"","misc":"","name":"Marques E Cordeiro Medicos Associados","phone":"(11) 6959-7846","working_hours":""}},"education":{},"experience":"","name":"Antonio Francisco Marques","picture":"http://photos.doctoralia.com/635622954846375238_2.jpg","registration_number":"","salutation":"","services":"","speciality":"Homeopata","subspecialities":""}},{"url":"http://www.doctoralia.com.br/medico/bellucco+wagner-11988159","doctor": {"address":{"1":{"address":{"lat":-23.5876726,"lng":-46.606190299999,"locality":"04204-001","location":"04204-001 São Paulo, São Paulo SP","street":"R. Costa Aguiar, 1549 (Ipiranga)"},"insurances":"","misc":"","name":"Consultório","phone":"(11) 2061-4726","working_hours":""}},"education":{},"experience":"","name":"Wagner Bellucco","picture":"http://photos.doctoralia.com/635622954846375238_2.jpg","registration_number":"","salutation":"","services":"","speciality":"Homeopata","subspecialities":""}},{"url":"http://www.doctoralia.com.br/medico/hitomi+arimori+kuroiwa-11898033","doctor": {"address":{"1":{"address":{"lat":-23.6130809,"lng":-46.6193057,"locality":"04142-082","location":"04142-082 São Paulo, São Paulo SP","street":"Av. Bosque da Saúde, 2020 (Saúde)"},"insurances":"","misc":"","name":"Consultório","phone":"(11) 5062-7806","working_hours":""},"2":{"address":{"lat":-23.5973567,"lng":-46.6238618,"locality":"04121-100","location":"04121-100 São Paulo, São Paulo SP","street":"Rua Joao Batistussi, 55 (Conj dos Bancarios)"},"insurances":"","misc":"","name":"Ubs Bosque Saude","phone":"(11) 5571-2682","working_hours":""}},"education":{},"experience":"","name":"Hitomi Arimori Kuroiwa","picture":"http://photos.doctoralia.com/635622954846375238_2.jpg","registration_number":"","salutation":"","services":"","speciality":"Homeopata","subspecialities":""}},{"url":"http://www.doctoralia.com.br/medico/olga+elena+fenjves+jovelevith-12087959","doctor": {"address":{"1":{"address":{"lat":-23.522593,"lng":-46.7011176,"locality":"05050-090","location":"05050-090 São Paulo, São Paulo SP","street":"Rua Roma, 466 (Lapa)"},"insurances":"","misc":"","name":"Pam Lapa Nga 50","phone":"(11) 3873-2355","working_hours":""}},"education":{},"experience":"","name":"Olga Elena Fenjves Jovelevith","picture":"http://photos.doctoralia.com/635622954846375238_2.jpg","registration_number":"","salutation":"","services":"","speciality":"Homeopata","subspecialities":""}},{"url":"http://www.doctoralia.com.br/medico/sidney+luiz+gonsalves-10584246","doctor": {"address":{"1":{"address":{"lat":-23.5981119,"lng":-46.6464514,"locality":"4039-002","location":"4039-002 São Paulo, São Paulo SP","street":"Pedro de Toledo, 980 - Cj. 74 (Vl. Mariana)"},"insurances":"","misc":"","name":"Consultório","phone":"115-5739","working_hours":""}},"education":{},"experience":"","name":"Sidney Luiz Gonsalves","picture":"http://photos.doctoralia.com/635622954846375238_2.jpg","registration_number":"","salutation":"Dr","services":"","speciality":"Homeopata","subspecialities":""}},{"url":"http://www.doctoralia.com.br/medico/takeyama+eduardo-12138765","doctor": {"address":{"1":{"address":{"lat":-23.546784,"lng":-46.6731531,"locality":"01251001","location":"01251001 São Paulo, São Paulo SP","street":"Rua Cardoso de Almeida 1991 (Perdizes)"},"insurances":"","misc":"","name":"Clínica Médica Dermatológica Belle Santé","phone":"36751211, 36754991","working_hours":""}},"education":{},"experience":"","name":"Eduardo Takeyama","picture":"http://photos.doctoralia.com/635622954846375238_2.jpg","registration_number":"","salutation":"Dr","services":"","speciality":"Homeopata","subspecialities":""}},{"url":"http://www.doctoralia.com.br/medico/amelia+kiyoko+matsuo-11898030","doctor": {"address":{"1":{"address":{"lat":-23.5973567,"lng":-46.6238618,"locality":"04121-100","location":"04121-100 São Paulo, São Paulo SP","street":"Rua Joao Batistussi, 55 (Conj dos Bancarios)"},"insurances":"","misc":"","name":"Ubs Bosque Saude","phone":"(11) 5571-2682","working_hours":""}},"education":{},"experience":"","name":"Amelia Kiyoko Matsuo","picture":"http://photos.doctoralia.com/635622954846375238_2.jpg","registration_number":"","salutation":"","services":"","speciality":"Homeopata","subspecialities":""}},{"url":"http://www.doctoralia.com.br/medico/marcia+folco-11898032","doctor": {"address":{"1":{"address":{"lat":-23.5973567,"lng":-46.6238618,"locality":"04121-100","location":"04121-100 São Paulo, São Paulo SP","street":"Rua Joao Batistussi, 55 (Conj dos Bancarios)"},"insurances":"","misc":"","name":"Ubs Bosque Saude","phone":"(11) 5571-2682","working_hours":""}},"education":{},"experience":"","name":"Marcia Folco","picture":"http://photos.doctoralia.com/635622954846375238_2.jpg","registration_number":"","salutation":"","services":"","speciality":"Homeopata","subspecialities":""}},{"url":"http://www.doctoralia.com.br/medico/benedito+cassio+seganti+siegl-11898031","doctor": {"address":{"1":{"address":{"lat":-23.5973567,"lng":-46.6238618,"locality":"04121-100","location":"04121-100 São Paulo, São Paulo SP","street":"Rua Joao Batistussi, 55 (Conj dos Bancarios)"},"insurances":"","misc":"","name":"Ubs Bosque Saude","phone":"(11) 5571-2682","working_hours":""}},"education":{},"experience":"","name":"Benedito Cassio Seganti Siegl","picture":"http://photos.doctoralia.com/635622954846375238_2.jpg","registration_number":"","salutation":"","services":"","speciality":"Homeopata","subspecialities":""}},{"url":"http://www.doctoralia.com.br/medico/eduardo+nishimiya+takeyama-12087839","doctor": {"address":{"1":{"address":{"lat":-23.5566208,"lng":-46.6253464,"locality":"01518-020","location":"01518-020 São Paulo, São Paulo SP","street":"Rua Leopoldo Miguez, 327 (Cambuci)"},"insurances":"","misc":"","name":"Pam Varzea Do Carmo Nga 63","phone":"(11) 3385-7000","working_hours":""}},"education":{},"experience":"","name":"Eduardo Nishimiya Takeyama","picture":"http://photos.doctoralia.com/635622954846375238_2.jpg","registration_number":"","salutation":"","services":"","speciality":"Homeopata","subspecialities":""}},{"url":"http://www.doctoralia.com.br/medico/silvana+shibuya-11898034","doctor": {"address":{"1":{"address":{"lat":-23.5973567,"lng":-46.6238618,"locality":"04121-100","location":"04121-100 São Paulo, São Paulo SP","street":"Rua Joao Batistussi, 55 (Conj dos Bancarios)"},"insurances":"","misc":"","name":"Ubs Bosque Saude","phone":"(11) 5571-2682","working_hours":""}},"education":{},"experience":"","name":"Silvana Shibuya","picture":"http://photos.doctoralia.com/635622954846375238_2.jpg","registration_number":"","salutation":"","services":"","speciality":"Homeopata","subspecialities":""}},{"url":"http://www.doctoralia.com.br/medico/carneiro+claudia-12109902","doctor": {"address":{"1":{"address":{"lat":-23.6142235,"lng":-46.5719444,"locality":"09510040","location":"09510040 São Caetano do Sul, São Paulo SP","street":"Rua Carlos de Campos 88 (Centro)"},"insurances":"Pacientes privados (sem plano de saúde), Unimed","misc":"","name":"Consultório","phone":"1142281558, 1142267222","working_hours":"Variado"}},"education":{},"experience":"","name":"Claudia Carneiro","picture":"http://photos.doctoralia.com/635311873557881415_1.jpg","registration_number":"78981","salutation":"Dra","services":"","speciality":"Pediatra, Homeopata","subspecialities":"Medicina Intensiva Pediátrica"}},{"url":"http://www.doctoralia.com.br/medico/gisela+trembucy+garcia-11869521","doctor": {"address":{"1":{"address":{"lat":-23.6153654,"lng":-46.5694486,"locality":"09520-070","location":"09520-070 São Caetano do Sul, São Paulo SP","street":"Rua Amazonas - 521 9 And Cj 97 (Centro)"},"insurances":"","misc":"","name":"Gtg Clinica Homeopaticasao Caetano Do Sul","phone":"(11) 4224-1088","working_hours":""}},"education":{},"experience":"","name":"Gisela Trembucy Garcia","picture":"http://photos.doctoralia.com/635622954846375238_2.jpg","registration_number":"","salutation":"","services":"","speciality":"Homeopata","subspecialities":""}},{"url":"http://www.doctoralia.com.br/medico/maria+de+lurdes+coelho+m+de+figueiredo-10592502","doctor": {"address":{"1":{"address":{"lat":-23.4634803,"lng":-46.533412,"locality":"07094-050","location":"07094-050 Guarulhos, São Paulo SP","street":"Rua Maria Sieglinde, 109 (Centro)"},"insurances":"Pacientes privados (sem plano de saúde)","misc":"","name":"Consultório","phone":"(11) 6409-3344","working_hours":""}},"education":{},"experience":"","name":"Maria de Lurdes Coelho M de Figueiredo","picture":"http://photos.doctoralia.com/635622954846375238_2.jpg","registration_number":"","salutation":"Dra","services":"","speciality":"Homeopata","subspecialities":"Homeopatía Pediátrica"}},{"url":"http://www.doctoralia.com.br/medico/loutfi+leila-12109703","doctor": {"address":{"1":{"address":{"lat":-23.4559036,"lng":-46.53915,"locality":"0709320","location":"0709320 Guarulhos, São Paulo SP","street":"Rua Silvio Maia 111, centro Gaurulhos (Centro)"},"insurances":"","misc":"","name":"Consultório","phone":"11 24680655, 11 24094967","working_hours":"09:00 às 18:00"}},"education":{},"experience":"","name":"Leila Loutfi","picture":"http://photos.doctoralia.com/635622954846375238_2.jpg","registration_number":"","salutation":"Dra","services":"","speciality":"Geriatra, Homeopata","subspecialities":""}},{"url":"http://www.doctoralia.com.br/medico/mesquita+junior+alvaro-10614977","doctor": {"address":{"1":{"address":{"lat":-23.4569315,"lng":-46.5314811,"locality":"07111-000","location":"07111-000 Guarulhos, São Paulo SP","street":"Av. Paulo Faccini, 1849 (Jd Maia)"},"insurances":"","misc":"","name":"Consultório","phone":"(11) 2440-3344, (11) 2463-3301","working_hours":"10:00 as 17:00"}},"education":{},"experience":"","name":"Alvaro Mesquita Junior","picture":"http://photos.doctoralia.com/635622954846375238_2.jpg","registration_number":"","salutation":"Dr","services":"","speciality":"Pediatra, Homeopata","subspecialities":""}},{"url":"http://www.doctoralia.com.br/medico/maria+de+lurdes+coelho+monteiro+de+figueiredo-12106306","doctor": {"address":{"1":{"address":{"lat":-23.4634803,"lng":-46.533412,"locality":"07094-050","location":"07094-050 Guarulhos, São Paulo SP","street":"Rua Maria Sieglinde, 109 (Centro)"},"insurances":"","misc":"","name":"Uniclin","phone":"(11) 6409-3344","working_hours":""}},"education":{},"experience":"","name":"Maria de Lurdes Coelho Monteiro de Figueiredo","picture":"http://photos.doctoralia.com/635622954846375238_2.jpg","registration_number":"","salutation":"","services":"","speciality":"Homeopata","subspecialities":""}},{"url":"http://www.doctoralia.com.br/medico/jorge+neto+jose-12197824","doctor": {"address":{"1":{"address":{"lat":-23.5323972,"lng":-46.7792176,"locality":"06093-030","location":"06093-030 Osasco, São Paulo SP","street":"Rua Lanciotto Viviani, 154 (Centro)"},"insurances":"","misc":"","name":"Consultório","phone":"(11) 3683-2662","working_hours":""}},"education":{"1":{"degree":"Mestrado em Alergologia/Imunologia","institute":"USP/ Universidade de São Paulo","year":"1985"}},"experience":"","name":"José Jorge Neto","picture":"http://photos.doctoralia.com/V2635303564239640332_2.jpg","registration_number":"24175","salutation":"Dr","services":"","speciality":"Alergista, Homeopata","subspecialities":""}},{"url":"http://www.doctoralia.com.br/medico/rafael+emanuel+gualter+karelisky-10587316","doctor": {"address":{"1":{"address":{"lat":-23.5340481,"lng":-46.7741652,"locality":"06010-090","location":"06010-090 Osasco, São Paulo SP","street":"Praça Padroeira do Brasil, 74"},"insurances":"Pacientes privados (sem plano de saúde), Amil, Bradesco Saúde, Unimed, Cassi, Lincx, Porto Seguro","misc":"","name":"Consultório","phone":"(11) 3681-2402","working_hours":""},"2":{"address":{"lat":-23.5338031,"lng":-46.7738561,"locality":"06010-090","location":"06010-090 Osasco, São Paulo SP","street":"Praça Padroeira do Brasil, 49 (Centro)"},"insurances":"","misc":"","name":"Homeopatia Integrada","phone":"(11) 3683-6435, (11) 3685-4171, (11) 3685-4171","working_hours":""}},"education":{},"experience":"","name":"Rafael Emanuel Gualter Karelisky","picture":"http://photos.doctoralia.com/635622954846375238_2.jpg","registration_number":"","salutation":"Dr","services":"","speciality":"Homeopata","subspecialities":""}},{"url":"http://www.doctoralia.com.br/medico/da+silva+pereira+sandolia-12093280","doctor": {"address":{"1":{"address":{"lat":-23.6363949,"lng":-46.5329568,"locality":"09210-610","location":"09210-610 Santo André, São Paulo SP","street":"Alameda Martins Fontes, 240 (Santa Terezinha)"},"insurances":"","misc":"","name":"Centro Médico Neo Clínic","phone":"(11) 4976-1310, (11) 4509-4765","working_hours":""}},"education":{},"experience":"","name":"Sandolia da Silva Pereira","picture":"http://photos.doctoralia.com/635564212892806326_2.jpg","registration_number":"","salutation":"Dra","services":"Asma","speciality":"Pediatra, Homeopata","subspecialities":"Homeopatía Pediátrica"}},{"url":"http://www.doctoralia.com.br/medico/gatti+celso+luiz-10609955","doctor": {"address":{"1":{"address":{"lat":-23.6598292,"lng":-46.5340207,"locality":"09040-240","location":"09040-240 Santo André, São Paulo SP","street":"R. Laura, 181 (Bela Vista)"},"insurances":"Pacientes privados (sem plano de saúde), Geap","misc":"","name":"Consultório","phone":"(11) 4433-6455","working_hours":""}},"education":{},"experience":"","name":"Celso Luiz Gatti","picture":"http://photos.doctoralia.com/635622954846375238_2.jpg","registration_number":"","salutation":"Dr","services":"","speciality":"Gastroenterologista, Homeopata","subspecialities":""}},{"url":"http://www.doctoralia.com.br/medico/ribeiro+pintao+francisco+carlos-11900900","doctor": {"address":{"1":{"address":{"lat":-23.6639831,"lng":-46.5363686,"locality":"09040-280","location":"09040-280 Santo André, São Paulo SP","street":"R. do Bosque, 317 (Vila Bastos)"},"insurances":"","misc":"","name":"Consultório","phone":"(11) 4994-1188, (11) 4994-5379","working_hours":""}},"education":{},"experience":"","name":"Francisco Carlos Ribeiro Pintão","picture":"http://photos.doctoralia.com/635574050747753471_2.jpg","registration_number":"","salutation":"","services":"","speciality":"Acupunturista, Homeopata","subspecialities":""}},{"url":"http://www.doctoralia.com.br/medico/pisani+fabio-14810664","doctor": {"address":{"1":{"address":{"lat":-22.8933561,"lng":-47.0556217,"locality":"13024-040","location":"13024-040 Campinas, São Paulo SP","street":"Rua Doutor Vieira Bueno (Cambuí)"},"insurances":"Pacientes privados (sem plano de saúde)","misc":"","name":"Consultório","phone":"32544012","working_hours":"9:00 as 11:00 e das 15:00 as 18:00"},"2":{"address":{"lat":-22.8937097,"lng":-47.0557536,"locality":"13024-040","location":"13024-040 Campinas, São Paulo SP","street":"R Dr Vieira Bueno, 142 - S (Cambui)"},"insurances":"Pacientes privados (sem plano de saúde), Unimed","misc":"","name":"Consultório","phone":"(19) 3254-4012","working_hours":""}},"education":{"1":{"degree":"Homeopatia","institute":"AMHB","year":"1990"},"2":{"degree":"acupuntura","institute":"CBA","year":"1993"}},"experience":"","name":"Fabio Pisani","picture":"http://photos.doctoralia.com/635566250118506252_1.jpg","registration_number":"43711","salutation":"Dr","services":"Depressão, Estresse, Insônia, Síndrome Pré-Menstrual","speciality":"Acupunturista, Homeopata","subspecialities":""}},{"url":"http://www.doctoralia.com.br/medico/cavassani+pimentel+eloisa-14814445","doctor": {"address":{"1":{"address":{"lat":-22.9085538,"lng":-47.0550709,"locality":"13015-311","location":"13015-311 Campinas, São Paulo SP","street":"R. Duque de Caxias, 642 (sala 11) (Centro)"},"insurances":"","misc":"","name":"Consultório","phone":"(19) 3234-0357, (19) 91207311","working_hours":""},"2":{"address":{"lat":-22.9085538,"lng":-47.0550709,"locality":"13015311","location":"13015311 Campinas, São Paulo SP","street":"Rua Duque de Caxias, n 642, sala 11 (Centro)"},"insurances":"Pacientes privados (sem plano de saúde), Unimed, Petrobras, Saude Caixa, AFPESP","misc":"","name":"Consultório","phone":"1932340357, 19991207311","working_hours":""}},"education":{"1":{"degree":"Médica","institute":"UNICAMP","year":"1988"}},"experience":"","name":"Eloísa Cavassani Pimentel","picture":"http://photos.doctoralia.com/V2635181594552504796_2.jpg","registration_number":"63573","salutation":"Dra","services":"Auriculoterapia","speciality":"Acupunturista, Homeopata","subspecialities":"Acupuntura Médica, Auriculopuntura"}}]}