{"webData": [{"url":"http://www.doctoralia.com.br/medico/maria+de+mendonca+rodas+paula-12761554","doctor": {"address":{"1":{"address":{"lat":-23.5505199,"lng":-46.633309399999,"locality":"08265380","location":"08265380 São Paulo / Sp, Alagoas AL","street":"Hospital Santa Marcelina (Itaquera)"},"insurances":"","misc":"","name":"Consultório","phone":"11959247991","working_hours":""},"2":{"address":{"lat":-23.5909331,"lng":-46.6725913,"locality":"04535-100","location":"04535-100 São Paulo, São Paulo SP","street":"Hospital Municipal de Barueri (Centro)"},"insurances":"","misc":"","name":"Consultório","phone":"11959247991","working_hours":""}},"education":{"1":{"degree":"ESPECIALIZAÇÃO EM MEDICINA INTENSIVA","institute":"AMIB","year":"2011"},"2":{"degree":"Especialista em Medicina Intensiva","institute":"Amib","year":"2013"}},"experience":"","name":"Paula Maria de Mendonça Rodas","picture":"http://photos.doctoralia.com/635472590753051279_1.jpg","registration_number":"","salutation":"Dra","services":"","speciality":"Intensivista","subspecialities":"Cuidados Críticos"}},{"url":"http://www.doctoralia.com.br/medico/endrigo+emanuel+giordani-10606099","doctor": {"address":{"1":{"address":{"lat":-23.5849308,"lng":-46.6371068,"locality":"04010-100","location":"04010-100 São Paulo, São Paulo SP","street":"R. Domingos de Morais, 956 (Vila Mariana)"},"insurances":"Pacientes privados (sem plano de saúde), Cassi","misc":"","name":"Consultório","phone":"(11) 8635-3195","working_hours":""},"2":{"address":{"lat":-23.6572847,"lng":-46.6537446,"locality":"04378-500","location":"04378-500 São Paulo, São Paulo SP","street":"Av. Santa Catarina, 2785 (Jabaquara)"},"insurances":"","misc":"","name":"Hospital e Maternidade Santa Marina","phone":"(11) 5013-1100","working_hours":""}},"education":{},"experience":"","name":"Endrigo Emanuel Giordani","picture":"http://photos.doctoralia.com/V2635457994129641617_2.jpg","registration_number":"","salutation":"Dr","services":"","speciality":"Intensivista","subspecialities":""}},{"url":"http://www.doctoralia.com.br/medico/rafael+lois+greco-12011304","doctor": {"address":{"1":{"address":{"lat":-23.5427318,"lng":-46.6489045,"locality":"01221-020","location":"01221-020 São Paulo, São Paulo SP","street":"R. Dr. Cesario Motta Jr, 112 (Vila Buarque)"},"insurances":"","misc":"","name":"Santa Casa de São Paulo Hospital Central","phone":"(11) 2176-7000","working_hours":""},"2":{"address":{"lat":-23.5427295,"lng":-46.6512088,"locality":"01238-010","location":"01238-010 São Paulo, São Paulo SP","street":"Rua Dona Veridiana, 311 (Vila Buarque)"},"insurances":"","misc":"","name":"Santa Casa de São Paulo Hospital Santa Isabel","phone":"(11) 2176-7702","working_hours":""}},"education":{},"experience":"","name":"Rafael Lois Greco","picture":"http://photos.doctoralia.com/V2635457994129641617_2.jpg","registration_number":"","salutation":"","services":"","speciality":"Médico clínico, Intensivista","subspecialities":""}},{"url":"http://www.doctoralia.com.br/medico/maykyol+avaroma+melgar-10590653","doctor": {"address":{"1":{"address":{"lat":-23.5694145,"lng":-46.5856243,"locality":"04104-000","location":"04104-000 São Paulo, São Paulo SP","street":"Rua Terenas, 161 (Mooca)"},"insurances":"Pacientes privados (sem plano de saúde), Cassi","misc":"","name":"Consultório","phone":"(11) 2029-7222","working_hours":""}},"education":{},"experience":"","name":"Maykyol Avaroma Melgar","picture":"http://photos.doctoralia.com/V2635457994129641617_2.jpg","registration_number":"","salutation":"Dr","services":"","speciality":"Médico clínico, Intensivista","subspecialities":""}},{"url":"http://www.doctoralia.com.br/medico/luiz+ricardo+dalbelles-12011316","doctor": {"address":{"1":{"address":{"lat":-23.5427295,"lng":-46.6512088,"locality":"01238-010","location":"01238-010 São Paulo, São Paulo SP","street":"Rua Dona Veridiana, 311 (Vila Buarque)"},"insurances":"","misc":"","name":"Santa Casa de São Paulo Hospital Santa Isabel","phone":"(11) 2176-7702","working_hours":""}},"education":{},"experience":"","name":"Luiz Ricardo Dalbelles","picture":"http://photos.doctoralia.com/V2635457994129641617_2.jpg","registration_number":"","salutation":"","services":"","speciality":"Intensivista","subspecialities":""}},{"url":"http://www.doctoralia.com.br/medico/ricardo+del+manto-12011292","doctor": {"address":{"1":{"address":{"lat":-23.5427295,"lng":-46.6512088,"locality":"01238-010","location":"01238-010 São Paulo, São Paulo SP","street":"Rua Dona Veridiana, 311 (Vila Buarque)"},"insurances":"","misc":"","name":"Santa Casa de São Paulo Hospital Santa Isabel","phone":"(11) 2176-7702","working_hours":""}},"education":{},"experience":"","name":"Ricardo Del Manto","picture":"http://photos.doctoralia.com/V2635457994129641617_2.jpg","registration_number":"","salutation":"","services":"","speciality":"Intensivista","subspecialities":""}},{"url":"http://www.doctoralia.com.br/medico/livia+ribeiro+fernandes-11962834","doctor": {"address":{"1":{"address":{"lat":-23.5837935,"lng":-46.6110737,"locality":"04262-000","location":"04262-000 São Paulo, São Paulo SP","street":"Av. Nazaré, 28, (Ipiranga)"},"insurances":"","misc":"","name":"Hospital Ipiranga","phone":"(11) 2067-7799","working_hours":""}},"education":{},"experience":"","name":"Livia Ribeiro Fernandes","picture":"http://photos.doctoralia.com/V2635457994129641617_2.jpg","registration_number":"","salutation":"","services":"","speciality":"Intensivista","subspecialities":""}},{"url":"http://www.doctoralia.com.br/medico/fares+georges+abdulmassih-12011286","doctor": {"address":{"1":{"address":{"lat":-23.5427295,"lng":-46.6512088,"locality":"01238-010","location":"01238-010 São Paulo, São Paulo SP","street":"Rua Dona Veridiana, 311 (Vila Buarque)"},"insurances":"","misc":"","name":"Santa Casa de São Paulo Hospital Santa Isabel","phone":"(11) 2176-7702","working_hours":""}},"education":{},"experience":"","name":"Fares Georges Abdulmassih","picture":"http://photos.doctoralia.com/V2635457994129641617_2.jpg","registration_number":"","salutation":"","services":"","speciality":"Intensivista","subspecialities":""}},{"url":"http://www.doctoralia.com.br/medico/francisco+antonio+duarte+junior-11962827","doctor": {"address":{"1":{"address":{"lat":-23.5837935,"lng":-46.6110737,"locality":"04262-000","location":"04262-000 São Paulo, São Paulo SP","street":"Av. Nazaré, 28, (Ipiranga)"},"insurances":"","misc":"","name":"Hospital Ipiranga","phone":"(11) 2067-7799","working_hours":""}},"education":{},"experience":"","name":"Francisco Antonio Duarte Junior","picture":"http://photos.doctoralia.com/V2635457994129641617_2.jpg","registration_number":"","salutation":"","services":"","speciality":"Intensivista","subspecialities":""}},{"url":"http://www.doctoralia.com.br/medico/eduardo+ramos+de+andrade+neto-11987011","doctor": {"address":{"1":{"address":{"lat":-23.5427318,"lng":-46.6489045,"locality":"01221-020","location":"01221-020 São Paulo, São Paulo SP","street":"R. Dr. Cesario Motta Jr, 112 (Vila Buarque)"},"insurances":"","misc":"","name":"Santa Casa de São Paulo Hospital Central","phone":"(11) 2176-7000","working_hours":""}},"education":{},"experience":"","name":"Eduardo Ramos de Andrade Neto","picture":"http://photos.doctoralia.com/V2635457994129641617_2.jpg","registration_number":"","salutation":"","services":"","speciality":"Intensivista","subspecialities":""}},{"url":"http://www.doctoralia.com.br/medico/kyu+do+kim-12011300","doctor": {"address":{"1":{"address":{"lat":-23.5427295,"lng":-46.6512088,"locality":"01238-010","location":"01238-010 São Paulo, São Paulo SP","street":"Rua Dona Veridiana, 311 (Vila Buarque)"},"insurances":"","misc":"","name":"Santa Casa de São Paulo Hospital Santa Isabel","phone":"(11) 2176-7702","working_hours":""}},"education":{},"experience":"","name":"Kyu do Kim","picture":"http://photos.doctoralia.com/V2635457994129641617_2.jpg","registration_number":"","salutation":"","services":"","speciality":"Intensivista","subspecialities":""}},{"url":"http://www.doctoralia.com.br/medico/silvia+angelica+ovando+duran-12018602","doctor": {"address":{"1":{"address":{"lat":-23.6572847,"lng":-46.6537446,"locality":"04378-500","location":"04378-500 São Paulo, São Paulo SP","street":"Av. Santa Catarina, 2785 (Jabaquara)"},"insurances":"","misc":"","name":"Hospital e Maternidade Santa Marina","phone":"","working_hours":""}},"education":{},"experience":"","name":"Silvia Angelica Ovando Duran","picture":"http://photos.doctoralia.com/V2635457994129641617_2.jpg","registration_number":"","salutation":"","services":"","speciality":"Intensivista","subspecialities":""}},{"url":"http://www.doctoralia.com.br/medico/mauricio+augusto+goncalves-12011297","doctor": {"address":{"1":{"address":{"lat":-23.5427295,"lng":-46.6512088,"locality":"01238-010","location":"01238-010 São Paulo, São Paulo SP","street":"Rua Dona Veridiana, 311 (Vila Buarque)"},"insurances":"","misc":"","name":"Santa Casa de São Paulo Hospital Santa Isabel","phone":"(11) 2176-7702","working_hours":""}},"education":{},"experience":"","name":"Mauricio Augusto Goncalves","picture":"http://photos.doctoralia.com/V2635457994129641617_2.jpg","registration_number":"","salutation":"","services":"","speciality":"Intensivista","subspecialities":""}},{"url":"http://www.doctoralia.com.br/medico/nilson+moura+gambero-12011309","doctor": {"address":{"1":{"address":{"lat":-23.5427295,"lng":-46.6512088,"locality":"01238-010","location":"01238-010 São Paulo, São Paulo SP","street":"Rua Dona Veridiana, 311 (Vila Buarque)"},"insurances":"","misc":"","name":"Santa Casa de São Paulo Hospital Santa Isabel","phone":"","working_hours":""}},"education":{},"experience":"","name":"Nilson Moura Gambero","picture":"http://photos.doctoralia.com/V2635457994129641617_2.jpg","registration_number":"","salutation":"","services":"","speciality":"Intensivista","subspecialities":""}},{"url":"http://www.doctoralia.com.br/medico/fellipe+lessa+soares-11987024","doctor": {"address":{"1":{"address":{"lat":-23.5427318,"lng":-46.6489045,"locality":"01221-020","location":"01221-020 São Paulo, São Paulo SP","street":"R. Dr. Cesario Motta Jr, 112 (Vila Buarque)"},"insurances":"","misc":"","name":"Santa Casa de São Paulo Hospital Central","phone":"(11) 2176-7000","working_hours":""}},"education":{},"experience":"","name":"Fellipe Lessa Soares","picture":"http://photos.doctoralia.com/V2635457994129641617_2.jpg","registration_number":"","salutation":"","services":"","speciality":"Intensivista","subspecialities":""}},{"url":"http://www.doctoralia.com.br/medico/paulo+cesar+bastos+vieira-10588889","doctor": {"address":{"1":{"address":{"lat":-23.5259395,"lng":-46.7140644,"locality":"05078-000","location":"05078-000 São Paulo, São Paulo SP","street":"R Brigadeiro Gaviao Peixoto, 389 (Lapa)"},"insurances":"","misc":"","name":"Inst.Kencis de Medicina S/C Ltda","phone":"(11) 3832-9880","working_hours":""}},"education":{},"experience":"","name":"Paulo Cesar Bastos Vieira","picture":"http://photos.doctoralia.com/V2634997519197418138_2.jpg","registration_number":"","salutation":"Dr","services":"","speciality":"Pneumologista, Intensivista","subspecialities":""}},{"url":"http://www.doctoralia.com.br/medico/clizenaldo+torres+timotheo+junior-11964712","doctor": {"address":{"1":{"address":{"lat":-23.6279426,"lng":-46.9125302,"locality":"06717-200","location":"06717-200 Cotia, São Paulo SP","street":"Avenida Dr Odair Pacheco Pedroso, 171 (Jd Monte Santo)"},"insurances":"","misc":"","name":"Hospital Regional de Cotia","phone":"(11) 4148-9070","working_hours":""},"2":{"address":{"lat":-23.6572847,"lng":-46.6537446,"locality":"04378-500","location":"04378-500 São Paulo, São Paulo SP","street":"Av. Santa Catarina, 2785 (Jabaquara)"},"insurances":"","misc":"","name":"Hospital e Maternidade Santa Marina","phone":"(11) 5013-1100","working_hours":""}},"education":{},"experience":"","name":"Clizenaldo Torres Timotheo Junior","picture":"http://photos.doctoralia.com/V2635265117725969798_2.jpg","registration_number":"","salutation":"","services":"","speciality":"Médico clínico, Intensivista","subspecialities":""}},{"url":"http://www.doctoralia.com.br/medico/karen+martins+sola-10598079","doctor": {"address":{"1":{"address":{"lat":-23.468787,"lng":-46.616884,"locality":"01203-070","location":"01203-070 São Paulo, São Paulo SP","street":"Av. Nova Cantareira, 3659 (Tremembé)"},"insurances":"Pacientes privados (sem plano de saúde), Unimed","misc":"","name":"Consultório","phone":"(11) 2109-3791","working_hours":""}},"education":{},"experience":"","name":"Karen Martins Sola","picture":"http://photos.doctoralia.com/V2635457994129641617_2.jpg","registration_number":"","salutation":"Dra","services":"","speciality":"Intensivista","subspecialities":""}},{"url":"http://www.doctoralia.com.br/medico/hiran+rodrigues+de+souza+junior-10602407","doctor": {"address":{"1":{"address":{"lat":-23.566494,"lng":-46.6216683,"locality":"01538-000","location":"01538-000 São Paulo, São Paulo SP","street":"Av. Lins de Vasconcelos, 356 (Cambuci)"},"insurances":"Pacientes privados (sem plano de saúde), Geap","misc":"","name":"Consultório","phone":"(11) 3348-4000","working_hours":""}},"education":{},"experience":"","name":"Hiran Rodrigues de Souza Junior","picture":"http://photos.doctoralia.com/V2635457994129641617_2.jpg","registration_number":"","salutation":"Dr","services":"","speciality":"Intensivista","subspecialities":""}},{"url":"http://www.doctoralia.com.br/medico/haggeas+fernandes-10602820","doctor": {"address":{"1":{"address":{"lat":-23.5505199,"lng":-46.633309399999,"locality":"05651-901","location":"05651-901 São Paulo, São Paulo SP","street":"Av Morumbi, 627 - Quinto Andar (Morumbi)"},"insurances":"Pacientes privados (sem plano de saúde), Bradesco Saúde, Unimed, Itaú Seguros, Lincx, Marítima, Omint, Porto Seguro","misc":"","name":"Consultório","phone":"(11) 9994-8978","working_hours":""}},"education":{},"experience":"","name":"Haggeas Fernandes","picture":"http://photos.doctoralia.com/V2635457994129641617_2.jpg","registration_number":"","salutation":"Dr","services":"","speciality":"Intensivista","subspecialities":""}},{"url":"http://www.doctoralia.com.br/medico/luiz+marcelo+sa+malbouisson-11923645","doctor": {"address":{"1":{"address":{"lat":-23.5655034,"lng":-46.6501717,"locality":"01403-001","location":"01403-001 São Paulo, São Paulo SP","street":"Al. Joaquim Eugenio de Lima, 383 (Jardim Paulista)"},"insurances":"","misc":"","name":"Pro Matre Paulista","phone":"(11) 3269-2233","working_hours":""}},"education":{},"experience":"","name":"Luiz Marcelo Sa Malbouisson","picture":"http://photos.doctoralia.com/V2635457994129641617_2.jpg","registration_number":"","salutation":"","services":"","speciality":"Intensivista","subspecialities":""}},{"url":"http://www.doctoralia.com.br/medico/katia+ulrich+de+oliveira+braga-11962818","doctor": {"address":{"1":{"address":{"lat":-23.5837935,"lng":-46.6110737,"locality":"04262-000","location":"04262-000 São Paulo, São Paulo SP","street":"Av. Nazaré, 28, (Ipiranga)"},"insurances":"","misc":"","name":"Hospital Ipiranga","phone":"(11) 2067-7799","working_hours":""}},"education":{},"experience":"","name":"Katia Ulrich de Oliveira Braga","picture":"http://photos.doctoralia.com/V2635457994129641617_2.jpg","registration_number":"","salutation":"","services":"","speciality":"Intensivista","subspecialities":""}},{"url":"http://www.doctoralia.com.br/medico/ronei+renato+rubbo-11962828","doctor": {"address":{"1":{"address":{"lat":-23.5837935,"lng":-46.6110737,"locality":"04262-000","location":"04262-000 São Paulo, São Paulo SP","street":"Av. Nazaré, 28, (Ipiranga)"},"insurances":"","misc":"","name":"Hospital Ipiranga","phone":"(11) 2067-7799","working_hours":""}},"education":{},"experience":"","name":"Ronei Renato Rubbo","picture":"http://photos.doctoralia.com/V2635457994129641617_2.jpg","registration_number":"","salutation":"","services":"","speciality":"Intensivista","subspecialities":""}},{"url":"http://www.doctoralia.com.br/medico/thais+leila+lisante+camargo+teixiera-11948558","doctor": {"address":{"1":{"address":{"lat":-23.5883235,"lng":-46.6088286,"locality":"04266-000","location":"04266-000 São Paulo, São Paulo SP","street":"Rua Padre Marchetti, 557 (Ipiranga)"},"insurances":"","misc":"","name":"Supervisao Tecnica de Saude Ipiranga","phone":"(11) 6163-0622","working_hours":""}},"education":{},"experience":"","name":"Thais Leila Lisante Camargo Teixiera","picture":"http://photos.doctoralia.com/V2635457994129641617_2.jpg","registration_number":"","salutation":"","services":"","speciality":"Intensivista","subspecialities":""}},{"url":"http://www.doctoralia.com.br/medico/juraci+aparecida+rocha-11962817","doctor": {"address":{"1":{"address":{"lat":-23.5837935,"lng":-46.6110737,"locality":"04262-000","location":"04262-000 São Paulo, São Paulo SP","street":"Av. Nazaré, 28, (Ipiranga)"},"insurances":"","misc":"","name":"Hospital Ipiranga","phone":"(11) 2067-7799","working_hours":""}},"education":{},"experience":"","name":"Juraci Aparecida Rocha","picture":"http://photos.doctoralia.com/V2635457994129641617_2.jpg","registration_number":"","salutation":"","services":"","speciality":"Intensivista","subspecialities":""}},{"url":"http://www.doctoralia.com.br/medico/claudio+ricardo+frison-11962820","doctor": {"address":{"1":{"address":{"lat":-23.5837935,"lng":-46.6110737,"locality":"04262-000","location":"04262-000 São Paulo, São Paulo SP","street":"Av. Nazaré, 28, (Ipiranga)"},"insurances":"","misc":"","name":"Hospital Ipiranga","phone":"(11) 2067-7799","working_hours":""}},"education":{},"experience":"","name":"Claudio Ricardo Frison","picture":"http://photos.doctoralia.com/V2635457994129641617_2.jpg","registration_number":"","salutation":"","services":"","speciality":"Intensivista","subspecialities":""}},{"url":"http://www.doctoralia.com.br/medico/nephtali+segal+grinbaum-11962824","doctor": {"address":{"1":{"address":{"lat":-23.5837935,"lng":-46.6110737,"locality":"04262-000","location":"04262-000 São Paulo, São Paulo SP","street":"Av. Nazaré, 28, (Ipiranga)"},"insurances":"","misc":"","name":"Hospital Ipiranga","phone":"(11) 2067-7799","working_hours":""}},"education":{},"experience":"","name":"Nephtali Segal Grinbaum","picture":"http://photos.doctoralia.com/V2635457994129641617_2.jpg","registration_number":"","salutation":"","services":"","speciality":"Intensivista","subspecialities":""}},{"url":"http://www.doctoralia.com.br/medico/luiza+ferreira+de+souza+zaluski-11962836","doctor": {"address":{"1":{"address":{"lat":-23.5837935,"lng":-46.6110737,"locality":"04262-000","location":"04262-000 São Paulo, São Paulo SP","street":"Av. Nazaré, 28, (Ipiranga)"},"insurances":"","misc":"","name":"Hospital Ipiranga","phone":"(11) 2067-7799","working_hours":""}},"education":{},"experience":"","name":"Luiza Ferreira de Souza Zaluski","picture":"http://photos.doctoralia.com/V2635457994129641617_2.jpg","registration_number":"","salutation":"","services":"","speciality":"Intensivista","subspecialities":""}},{"url":"http://www.doctoralia.com.br/medico/antonio+carlos+forte-11987006","doctor": {"address":{"1":{"address":{"lat":-23.5427318,"lng":-46.6489045,"locality":"01221-020","location":"01221-020 São Paulo, São Paulo SP","street":"R. Dr. Cesario Motta Jr, 112 (Vila Buarque)"},"insurances":"","misc":"","name":"Santa Casa de São Paulo Hospital Central","phone":"(11) 2176-7000","working_hours":""}},"education":{},"experience":"","name":"Antonio Carlos Forte","picture":"http://photos.doctoralia.com/V2635457994129641617_2.jpg","registration_number":"","salutation":"","services":"","speciality":"Intensivista","subspecialities":""}},{"url":"http://www.doctoralia.com.br/medico/rodrigo+gea-11987020","doctor": {"address":{"1":{"address":{"lat":-23.5427318,"lng":-46.6489045,"locality":"01221-020","location":"01221-020 São Paulo, São Paulo SP","street":"R. Dr. Cesario Motta Jr, 112 (Vila Buarque)"},"insurances":"","misc":"","name":"Santa Casa de São Paulo Hospital Central","phone":"(11) 2176-7000","working_hours":""}},"education":{},"experience":"","name":"Rodrigo Gea","picture":"http://photos.doctoralia.com/V2635457994129641617_2.jpg","registration_number":"","salutation":"","services":"","speciality":"Intensivista","subspecialities":""}},{"url":"http://www.doctoralia.com.br/medico/elzo+peixoto-12011284","doctor": {"address":{"1":{"address":{"lat":-23.5427295,"lng":-46.6512088,"locality":"01238-010","location":"01238-010 São Paulo, São Paulo SP","street":"Rua Dona Veridiana, 311 (Vila Buarque)"},"insurances":"","misc":"","name":"Santa Casa de São Paulo Hospital Santa Isabel","phone":"(11) 2176-7702","working_hours":""}},"education":{},"experience":"","name":"Elzo Peixoto","picture":"http://photos.doctoralia.com/V2635457994129641617_2.jpg","registration_number":"","salutation":"","services":"","speciality":"Intensivista","subspecialities":""}},{"url":"http://www.doctoralia.com.br/medico/ricardo+helman-12011305","doctor": {"address":{"1":{"address":{"lat":-23.5427295,"lng":-46.6512088,"locality":"01238-010","location":"01238-010 São Paulo, São Paulo SP","street":"Rua Dona Veridiana, 311 (Vila Buarque)"},"insurances":"","misc":"","name":"Santa Casa de São Paulo Hospital Santa Isabel","phone":"(11) 2176-7702","working_hours":""}},"education":{},"experience":"","name":"Ricardo Helman","picture":"http://photos.doctoralia.com/V2635457994129641617_2.jpg","registration_number":"","salutation":"","services":"","speciality":"Intensivista","subspecialities":""}},{"url":"http://www.doctoralia.com.br/medico/carolina+reato+marcon-12011308","doctor": {"address":{"1":{"address":{"lat":-23.5427295,"lng":-46.6512088,"locality":"01238-010","location":"01238-010 São Paulo, São Paulo SP","street":"Rua Dona Veridiana, 311 (Vila Buarque)"},"insurances":"","misc":"","name":"Santa Casa de São Paulo Hospital Santa Isabel","phone":"(11) 2176-7702","working_hours":""},"2":{"address":{"lat":-23.5450018,"lng":-46.6670709,"locality":"01236-030","location":"01236-030 São Paulo, São Paulo SP","street":"Rua Arnolfo de Azevedo, 84 - Pacaembu (Pacaembu)"},"insurances":"","misc":"","name":"Clínica Stockli","phone":"11 32941957","working_hours":""}},"education":{},"experience":"","name":"Carolina Reato Marcon","picture":"http://photos.doctoralia.com/V2635457994129641617_2.jpg","registration_number":"","salutation":"","services":"","speciality":"Intensivista","subspecialities":""}},{"url":"http://www.doctoralia.com.br/medico/waldyr+rodrigues+dos+santos+junior-12011317","doctor": {"address":{"1":{"address":{"lat":-23.5427295,"lng":-46.6512088,"locality":"01238-010","location":"01238-010 São Paulo, São Paulo SP","street":"Rua Dona Veridiana, 311 (Vila Buarque)"},"insurances":"","misc":"","name":"Santa Casa de São Paulo Hospital Santa Isabel","phone":"(11) 2176-7702","working_hours":""}},"education":{},"experience":"","name":"Waldyr Rodrigues dos Santos Junior","picture":"http://photos.doctoralia.com/V2635457994129641617_2.jpg","registration_number":"","salutation":"","services":"","speciality":"Intensivista","subspecialities":""}},{"url":"http://www.doctoralia.com.br/medico/bruno+franco+mazza-12018599","doctor": {"address":{"1":{"address":{"lat":-23.6572847,"lng":-46.6537446,"locality":"04378-500","location":"04378-500 São Paulo, São Paulo SP","street":"Av. Santa Catarina, 2785 (Jabaquara)"},"insurances":"","misc":"","name":"Hospital e Maternidade Santa Marina","phone":"(11) 5013-1100","working_hours":""}},"education":{},"experience":"","name":"Bruno Franco Mazza","picture":"http://photos.doctoralia.com/V2635457994129641617_2.jpg","registration_number":"","salutation":"","services":"","speciality":"Intensivista","subspecialities":""}},{"url":"http://www.doctoralia.com.br/medico/marise+ferraz+rossi+de+sousa-11878564","doctor": {"address":{"1":{"address":{"lat":-23.5594185,"lng":-46.6558403,"locality":"01409-901","location":"01409-901 São Paulo, São Paulo SP","street":"Rua Peixoto Gomide, 625 / 10 Andar (Jdpaulista)"},"insurances":"","misc":"","name":"Oxigenio Hiperbarico","phone":"(11) 3147-9760, (11) 3263-0611, (11) 3263-0611","working_hours":""},"2":{"address":{"lat":-23.5505199,"lng":-46.633309399999,"locality":"04122-000","location":"04122-000 São Paulo, São Paulo SP","street":"Rua Santa Cruz, 398 / Terreo (Vila Afonso Celso)"},"insurances":"","misc":"","name":"Oxigenio Hiperbarico Vila Mariana","phone":"(11) 5549-6041","working_hours":""}},"education":{},"experience":"","name":"Marise Ferraz Rossi de Sousa","picture":"http://photos.doctoralia.com/V2635457994129641617_2.jpg","registration_number":"","salutation":"","services":"","speciality":"Intensivista","subspecialities":""}},{"url":"http://www.doctoralia.com.br/medico/mariza+dagostino+dias-11878565","doctor": {"address":{"1":{"address":{"lat":-23.5594185,"lng":-46.6558403,"locality":"01409-901","location":"01409-901 São Paulo, São Paulo SP","street":"Rua Peixoto Gomide, 625 / 10 Andar (Jdpaulista)"},"insurances":"","misc":"","name":"Oxigenio Hiperbarico","phone":"(11) 3147-9760, (11) 3263-0611, (11) 3263-0611","working_hours":""},"2":{"address":{"lat":-23.5505199,"lng":-46.633309399999,"locality":"04122-000","location":"04122-000 São Paulo, São Paulo SP","street":"Rua Santa Cruz, 398 / Terreo (Vila Afonso Celso)"},"insurances":"","misc":"","name":"Oxigenio Hiperbarico Vila Mariana","phone":"(11) 5549-6041","working_hours":""}},"education":{},"experience":"","name":"Mariza Dagostino Dias","picture":"http://photos.doctoralia.com/V2635457994129641617_2.jpg","registration_number":"","salutation":"","services":"","speciality":"Intensivista","subspecialities":""}},{"url":"http://www.doctoralia.com.br/medico/carlos+henrique+esteves-11898201","doctor": {"address":{"1":{"address":{"lat":-23.6437399,"lng":-46.6426045,"locality":"04321-120","location":"04321-120 São Paulo, São Paulo SP","street":"Rua das Perobas, 344 / 4 Andar (Jabaquara)"},"insurances":"","misc":"","name":"Medicina Hiperbarica","phone":"(11) 5011-6658","working_hours":""}},"education":{},"experience":"","name":"Carlos Henrique Esteves","picture":"http://photos.doctoralia.com/V2635457994129641617_2.jpg","registration_number":"","salutation":"","services":"","speciality":"Intensivista","subspecialities":""}},{"url":"http://www.doctoralia.com.br/medico/kaled+reda+el+hayek-11916521","doctor": {"address":{"1":{"address":{"lat":-23.6339088,"lng":-46.6067382,"locality":"04174-040","location":"04174-040 São Paulo, São Paulo SP","street":"Rua Julio Felipe Guedes, 200 (Vila das Merces)"},"insurances":"","misc":"","name":"Pronto Socorro Mun Augusto Gomes de Matos","phone":"(11) 6969-9965","working_hours":""}},"education":{},"experience":"","name":"Kaled Reda El Hayek","picture":"http://photos.doctoralia.com/V2635457994129641617_2.jpg","registration_number":"","salutation":"","services":"","speciality":"Intensivista","subspecialities":""}},{"url":"http://www.doctoralia.com.br/medico/paulo+cesar+tostes-11923641","doctor": {"address":{"1":{"address":{"lat":-23.5655034,"lng":-46.6501717,"locality":"01403-001","location":"01403-001 São Paulo, São Paulo SP","street":"Al. Joaquim Eugenio de Lima, 383 (Jardim Paulista)"},"insurances":"","misc":"","name":"Pro Matre Paulista","phone":"(11) 3269-2233","working_hours":""}},"education":{},"experience":"","name":"Paulo Cesar Tostes","picture":"http://photos.doctoralia.com/V2635457994129641617_2.jpg","registration_number":"","salutation":"","services":"","speciality":"Intensivista","subspecialities":""}},{"url":"http://www.doctoralia.com.br/medico/maria+do+carmo+gomes-11923642","doctor": {"address":{"1":{"address":{"lat":-23.5655034,"lng":-46.6501717,"locality":"01403-001","location":"01403-001 São Paulo, São Paulo SP","street":"Al. Joaquim Eugenio de Lima, 383 (Jardim Paulista)"},"insurances":"","misc":"","name":"Pro Matre Paulista","phone":"(11) 3269-2233","working_hours":""}},"education":{},"experience":"","name":"Maria do Carmo Gomes","picture":"http://photos.doctoralia.com/V2635457994129641617_2.jpg","registration_number":"","salutation":"","services":"","speciality":"Intensivista","subspecialities":""}},{"url":"http://www.doctoralia.com.br/medico/debora+de+fatima+marques+da+silva+werneck-11923643","doctor": {"address":{"1":{"address":{"lat":-23.5655034,"lng":-46.6501717,"locality":"01403-001","location":"01403-001 São Paulo, São Paulo SP","street":"Al. Joaquim Eugenio de Lima, 383 (Jardim Paulista)"},"insurances":"","misc":"","name":"Pro Matre Paulista","phone":"(11) 3269-2233","working_hours":""}},"education":{},"experience":"","name":"Debora de Fatima Marques da Silva Werneck","picture":"http://photos.doctoralia.com/V2635457994129641617_2.jpg","registration_number":"","salutation":"","services":"","speciality":"Intensivista","subspecialities":""}},{"url":"http://www.doctoralia.com.br/medico/sandra+batista+dos+santos-11923644","doctor": {"address":{"1":{"address":{"lat":-23.5655034,"lng":-46.6501717,"locality":"01403-001","location":"01403-001 São Paulo, São Paulo SP","street":"Al. Joaquim Eugenio de Lima, 383 (Jardim Paulista)"},"insurances":"","misc":"","name":"Pro Matre Paulista","phone":"(11) 3269-2233","working_hours":""}},"education":{},"experience":"","name":"Sandra Batista dos Santos","picture":"http://photos.doctoralia.com/V2635457994129641617_2.jpg","registration_number":"","salutation":"","services":"","speciality":"Intensivista","subspecialities":""}},{"url":"http://www.doctoralia.com.br/medico/glauce+cordeiro+ulhoa+tostes-11923646","doctor": {"address":{"1":{"address":{"lat":-23.5655034,"lng":-46.6501717,"locality":"01403-001","location":"01403-001 São Paulo, São Paulo SP","street":"Al. Joaquim Eugenio de Lima, 383 (Jardim Paulista)"},"insurances":"","misc":"","name":"Pro Matre Paulista","phone":"(11) 3269-2233","working_hours":""}},"education":{},"experience":"","name":"Glauce Cordeiro Ulhoa Tostes","picture":"http://photos.doctoralia.com/V2635457994129641617_2.jpg","registration_number":"","salutation":"","services":"","speciality":"Intensivista","subspecialities":""}},{"url":"http://www.doctoralia.com.br/medico/mohamad+alimad+yassin-11923647","doctor": {"address":{"1":{"address":{"lat":-23.5655034,"lng":-46.6501717,"locality":"01403-001","location":"01403-001 São Paulo, São Paulo SP","street":"Al. Joaquim Eugenio de Lima, 383 (Jardim Paulista)"},"insurances":"","misc":"","name":"Pro Matre Paulista","phone":"(11) 3269-2233","working_hours":""}},"education":{},"experience":"","name":"Mohamad Alimad Yassin","picture":"http://photos.doctoralia.com/V2635457994129641617_2.jpg","registration_number":"","salutation":"","services":"","speciality":"Intensivista","subspecialities":""}},{"url":"http://www.doctoralia.com.br/medico/onesimo+domingos+ferreira+filho-11962819","doctor": {"address":{"1":{"address":{"lat":-23.5837935,"lng":-46.6110737,"locality":"04262-000","location":"04262-000 São Paulo, São Paulo SP","street":"Av. Nazaré, 28, (Ipiranga)"},"insurances":"","misc":"","name":"Hospital Ipiranga","phone":"(11) 2067-7799","working_hours":""}},"education":{},"experience":"","name":"Onesimo Domingos Ferreira Filho","picture":"http://photos.doctoralia.com/V2635457994129641617_2.jpg","registration_number":"","salutation":"","services":"","speciality":"Intensivista","subspecialities":""}},{"url":"http://www.doctoralia.com.br/medico/maria+aparecida+pimont-11962821","doctor": {"address":{"1":{"address":{"lat":-23.1960486,"lng":-45.8908125,"locality":"12243-610","location":"12243-610 São José dos Campos, São Paulo SP","street":"Avenida Paulo Becker , 81 (Vila Adyanna)"},"insurances":"","misc":"","name":"Centrocor","phone":"(12) 3923-1755, (12) 3019-0888","working_hours":""},"2":{"address":{"lat":-23.5837935,"lng":-46.6110737,"locality":"04262-000","location":"04262-000 São Paulo, São Paulo SP","street":"Av. Nazaré, 28, (Ipiranga)"},"insurances":"","misc":"","name":"Hospital Ipiranga","phone":"(11) 2067-7799","working_hours":""}},"education":{},"experience":"","name":"Maria Aparecida Pimont","picture":"http://photos.doctoralia.com/V2635457994129641617_2.jpg","registration_number":"","salutation":"","services":"","speciality":"Intensivista","subspecialities":""}},{"url":"http://www.doctoralia.com.br/medico/rosemeyre+da+natividade+prates+neves-11962822","doctor": {"address":{"1":{"address":{"lat":-23.5837935,"lng":-46.6110737,"locality":"04262-000","location":"04262-000 São Paulo, São Paulo SP","street":"Av. Nazaré, 28, (Ipiranga)"},"insurances":"","misc":"","name":"Hospital Ipiranga","phone":"(11) 2067-7799","working_hours":""}},"education":{},"experience":"","name":"Rosemeyre da Natividade Prates Neves","picture":"http://photos.doctoralia.com/V2635457994129641617_2.jpg","registration_number":"","salutation":"","services":"","speciality":"Intensivista","subspecialities":""}},{"url":"http://www.doctoralia.com.br/medico/angela+aparecida+camargo+bonatti-11962823","doctor": {"address":{"1":{"address":{"lat":-23.5837935,"lng":-46.6110737,"locality":"04262-000","location":"04262-000 São Paulo, São Paulo SP","street":"Av. Nazaré, 28, (Ipiranga)"},"insurances":"","misc":"","name":"Hospital Ipiranga","phone":"(11) 2067-7799","working_hours":""}},"education":{},"experience":"","name":"Angela Aparecida Camargo Bonatti","picture":"http://photos.doctoralia.com/V2635457994129641617_2.jpg","registration_number":"","salutation":"","services":"","speciality":"Intensivista","subspecialities":""}},{"url":"http://www.doctoralia.com.br/medico/sergio+oliveira+cardoso-11962825","doctor": {"address":{"1":{"address":{"lat":-23.5837935,"lng":-46.6110737,"locality":"04262-000","location":"04262-000 São Paulo, São Paulo SP","street":"Av. Nazaré, 28, (Ipiranga)"},"insurances":"","misc":"","name":"Hospital Ipiranga","phone":"(11) 2067-7799","working_hours":""}},"education":{},"experience":"","name":"Sergio Oliveira Cardoso","picture":"http://photos.doctoralia.com/V2635457994129641617_2.jpg","registration_number":"","salutation":"","services":"","speciality":"Intensivista","subspecialities":""}},{"url":"http://www.doctoralia.com.br/medico/fernanda+de+andrade+cardoso-11962826","doctor": {"address":{"1":{"address":{"lat":-23.5837935,"lng":-46.6110737,"locality":"04262-000","location":"04262-000 São Paulo, São Paulo SP","street":"Av. Nazaré, 28, (Ipiranga)"},"insurances":"","misc":"","name":"Hospital Ipiranga","phone":"(11) 2067-7799","working_hours":""}},"education":{},"experience":"","name":"Fernanda de Andrade Cardoso","picture":"http://photos.doctoralia.com/V2635457994129641617_2.jpg","registration_number":"","salutation":"","services":"","speciality":"Intensivista","subspecialities":""}},{"url":"http://www.doctoralia.com.br/medico/thiago+diniz+goncalves+coelho-11962829","doctor": {"address":{"1":{"address":{"lat":-23.5837935,"lng":-46.6110737,"locality":"04262-000","location":"04262-000 São Paulo, São Paulo SP","street":"Av. Nazaré, 28, (Ipiranga)"},"insurances":"","misc":"","name":"Hospital Ipiranga","phone":"(11) 2067-7799","working_hours":""}},"education":{},"experience":"","name":"Thiago Diniz Goncalves Coelho","picture":"http://photos.doctoralia.com/V2635457994129641617_2.jpg","registration_number":"","salutation":"","services":"","speciality":"Intensivista","subspecialities":""}},{"url":"http://www.doctoralia.com.br/medico/eduardo+henrique+genofre-11962830","doctor": {"address":{"1":{"address":{"lat":-23.5837935,"lng":-46.6110737,"locality":"04262-000","location":"04262-000 São Paulo, São Paulo SP","street":"Av. Nazaré, 28, (Ipiranga)"},"insurances":"","misc":"","name":"Hospital Ipiranga","phone":"(11) 2067-7799","working_hours":""}},"education":{},"experience":"","name":"Eduardo Henrique Genofre","picture":"http://photos.doctoralia.com/V2635457994129641617_2.jpg","registration_number":"","salutation":"","services":"","speciality":"Intensivista","subspecialities":""}},{"url":"http://www.doctoralia.com.br/medico/nelson+hideaki+kato-11962831","doctor": {"address":{"1":{"address":{"lat":-23.5837935,"lng":-46.6110737,"locality":"04262-000","location":"04262-000 São Paulo, São Paulo SP","street":"Av. Nazaré, 28, (Ipiranga)"},"insurances":"","misc":"","name":"Hospital Ipiranga","phone":"(11) 2067-7799","working_hours":""}},"education":{},"experience":"","name":"Nelson Hideaki Kato","picture":"http://photos.doctoralia.com/V2635457994129641617_2.jpg","registration_number":"","salutation":"","services":"","speciality":"Intensivista","subspecialities":""}},{"url":"http://www.doctoralia.com.br/medico/luiz+otavio+lopes+abrantes-11962832","doctor": {"address":{"1":{"address":{"lat":-23.5837935,"lng":-46.6110737,"locality":"04262-000","location":"04262-000 São Paulo, São Paulo SP","street":"Av. Nazaré, 28, (Ipiranga)"},"insurances":"","misc":"","name":"Hospital Ipiranga","phone":"(11) 2067-7799","working_hours":""}},"education":{},"experience":"","name":"Luiz Otavio Lopes Abrantes","picture":"http://photos.doctoralia.com/V2635457994129641617_2.jpg","registration_number":"","salutation":"","services":"","speciality":"Intensivista","subspecialities":""}},{"url":"http://www.doctoralia.com.br/medico/carlos+martin+ohara+solis-11962833","doctor": {"address":{"1":{"address":{"lat":-23.5837935,"lng":-46.6110737,"locality":"04262-000","location":"04262-000 São Paulo, São Paulo SP","street":"Av. Nazaré, 28, (Ipiranga)"},"insurances":"","misc":"","name":"Hospital Ipiranga","phone":"(11) 2067-7799","working_hours":""}},"education":{},"experience":"","name":"Carlos Martin Ohara Solis","picture":"http://photos.doctoralia.com/V2635457994129641617_2.jpg","registration_number":"","salutation":"","services":"","speciality":"Intensivista","subspecialities":""}},{"url":"http://www.doctoralia.com.br/medico/italo+souza+oliveira+santos-11962835","doctor": {"address":{"1":{"address":{"lat":-23.5837935,"lng":-46.6110737,"locality":"04262-000","location":"04262-000 São Paulo, São Paulo SP","street":"Av. Nazaré, 28, (Ipiranga)"},"insurances":"","misc":"","name":"Hospital Ipiranga","phone":"(11) 2067-7799","working_hours":""}},"education":{},"experience":"","name":"Italo Souza Oliveira Santos","picture":"http://photos.doctoralia.com/V2635457994129641617_2.jpg","registration_number":"","salutation":"","services":"","speciality":"Intensivista","subspecialities":""}},{"url":"http://www.doctoralia.com.br/medico/sandra+emi+hori+guti-11962837","doctor": {"address":{"1":{"address":{"lat":-23.5837935,"lng":-46.6110737,"locality":"04262-000","location":"04262-000 São Paulo, São Paulo SP","street":"Av. Nazaré, 28, (Ipiranga)"},"insurances":"","misc":"","name":"Hospital Ipiranga","phone":"(11) 2067-7799","working_hours":""}},"education":{},"experience":"","name":"Sandra Emi Hori Guti","picture":"http://photos.doctoralia.com/V2635457994129641617_2.jpg","registration_number":"","salutation":"","services":"","speciality":"Intensivista","subspecialities":""}},{"url":"http://www.doctoralia.com.br/medico/rita+de+cassia+lima+de+lemos-11962838","doctor": {"address":{"1":{"address":{"lat":-23.5837935,"lng":-46.6110737,"locality":"04262-000","location":"04262-000 São Paulo, São Paulo SP","street":"Av. Nazaré, 28, (Ipiranga)"},"insurances":"","misc":"","name":"Hospital Ipiranga","phone":"(11) 2067-7799","working_hours":""}},"education":{},"experience":"","name":"Rita de Cassia Lima de Lemos","picture":"http://photos.doctoralia.com/V2635457994129641617_2.jpg","registration_number":"","salutation":"","services":"","speciality":"Intensivista","subspecialities":""}},{"url":"http://www.doctoralia.com.br/medico/fernando+soares-11962839","doctor": {"address":{"1":{"address":{"lat":-23.5837935,"lng":-46.6110737,"locality":"04262-000","location":"04262-000 São Paulo, São Paulo SP","street":"Av. Nazaré, 28, (Ipiranga)"},"insurances":"","misc":"","name":"Hospital Ipiranga","phone":"(11) 2067-7799","working_hours":""}},"education":{},"experience":"","name":"Fernando Soares","picture":"http://photos.doctoralia.com/V2635457994129641617_2.jpg","registration_number":"","salutation":"","services":"","speciality":"Intensivista","subspecialities":""}},{"url":"http://www.doctoralia.com.br/medico/taina+vera+de+sandes+freitas-11962840","doctor": {"address":{"1":{"address":{"lat":-23.5837935,"lng":-46.6110737,"locality":"04262-000","location":"04262-000 São Paulo, São Paulo SP","street":"Av. Nazaré, 28, (Ipiranga)"},"insurances":"","misc":"","name":"Hospital Ipiranga","phone":"(11) 2067-7799","working_hours":""}},"education":{},"experience":"","name":"Taina Vera de Sandes Freitas","picture":"http://photos.doctoralia.com/V2635457994129641617_2.jpg","registration_number":"","salutation":"","services":"","speciality":"Intensivista","subspecialities":""}},{"url":"http://www.doctoralia.com.br/medico/erika+kameya+da+silva-11987005","doctor": {"address":{"1":{"address":{"lat":-23.5427318,"lng":-46.6489045,"locality":"01221-020","location":"01221-020 São Paulo, São Paulo SP","street":"R. Dr. Cesario Motta Jr, 112 (Vila Buarque)"},"insurances":"","misc":"","name":"Santa Casa de São Paulo Hospital Central","phone":"(11) 2176-7000","working_hours":""}},"education":{},"experience":"","name":"Erika Kameya da Silva","picture":"http://photos.doctoralia.com/V2635457994129641617_2.jpg","registration_number":"","salutation":"","services":"","speciality":"Intensivista","subspecialities":""}},{"url":"http://www.doctoralia.com.br/medico/cid+eduardo+de+carvalho-11987007","doctor": {"address":{"1":{"address":{"lat":-23.5427318,"lng":-46.6489045,"locality":"01221-020","location":"01221-020 São Paulo, São Paulo SP","street":"R. Dr. Cesario Motta Jr, 112 (Vila Buarque)"},"insurances":"","misc":"","name":"Santa Casa de São Paulo Hospital Central","phone":"(11) 2176-7000","working_hours":""}},"education":{},"experience":"","name":"Cid Eduardo de Carvalho","picture":"http://photos.doctoralia.com/V2635457994129641617_2.jpg","registration_number":"","salutation":"","services":"","speciality":"Intensivista","subspecialities":""}},{"url":"http://www.doctoralia.com.br/medico/tadeu+orlando+franconieri-11987008","doctor": {"address":{"1":{"address":{"lat":-23.5427318,"lng":-46.6489045,"locality":"01221-020","location":"01221-020 São Paulo, São Paulo SP","street":"R. Dr. Cesario Motta Jr, 112 (Vila Buarque)"},"insurances":"","misc":"","name":"Santa Casa de São Paulo Hospital Central","phone":"(11) 2176-7000","working_hours":""}},"education":{},"experience":"","name":"Tadeu Orlando Franconieri","picture":"http://photos.doctoralia.com/V2635457994129641617_2.jpg","registration_number":"","salutation":"","services":"","speciality":"Intensivista","subspecialities":""}},{"url":"http://www.doctoralia.com.br/medico/nelio+de+souza-11987009","doctor": {"address":{"1":{"address":{"lat":-23.5427318,"lng":-46.6489045,"locality":"01221-020","location":"01221-020 São Paulo, São Paulo SP","street":"R. Dr. Cesario Motta Jr, 112 (Vila Buarque)"},"insurances":"","misc":"","name":"Santa Casa de São Paulo Hospital Central","phone":"(11) 2176-7000","working_hours":""}},"education":{},"experience":"","name":"Nelio de Souza","picture":"http://photos.doctoralia.com/V2635457994129641617_2.jpg","registration_number":"","salutation":"","services":"","speciality":"Intensivista","subspecialities":""}},{"url":"http://www.doctoralia.com.br/medico/heiki+mori-11987010","doctor": {"address":{"1":{"address":{"lat":-23.5427318,"lng":-46.6489045,"locality":"01221-020","location":"01221-020 São Paulo, São Paulo SP","street":"R. Dr. Cesario Motta Jr, 112 (Vila Buarque)"},"insurances":"","misc":"","name":"Santa Casa de São Paulo Hospital Central","phone":"(11) 2176-7000","working_hours":""}},"education":{},"experience":"","name":"Heiki Mori","picture":"http://photos.doctoralia.com/V2635457994129641617_2.jpg","registration_number":"","salutation":"","services":"","speciality":"Intensivista","subspecialities":""}},{"url":"http://www.doctoralia.com.br/medico/domenico+monetta+neto-11987012","doctor": {"address":{"1":{"address":{"lat":-23.5427318,"lng":-46.6489045,"locality":"01221-020","location":"01221-020 São Paulo, São Paulo SP","street":"R. Dr. Cesario Motta Jr, 112 (Vila Buarque)"},"insurances":"","misc":"","name":"Santa Casa de São Paulo Hospital Central","phone":"(11) 2176-7000","working_hours":""}},"education":{},"experience":"","name":"Domenico Monetta Neto","picture":"http://photos.doctoralia.com/V2635457994129641617_2.jpg","registration_number":"","salutation":"","services":"","speciality":"Intensivista","subspecialities":""}},{"url":"http://www.doctoralia.com.br/medico/regina+grigolli+cesar-11987014","doctor": {"address":{"1":{"address":{"lat":-23.5427318,"lng":-46.6489045,"locality":"01221-020","location":"01221-020 São Paulo, São Paulo SP","street":"R. Dr. Cesario Motta Jr, 112 (Vila Buarque)"},"insurances":"","misc":"","name":"Santa Casa de São Paulo Hospital Central","phone":"(11) 2176-7000","working_hours":""}},"education":{},"experience":"","name":"Regina Grigolli Cesar","picture":"http://photos.doctoralia.com/V2635457994129641617_2.jpg","registration_number":"","salutation":"","services":"","speciality":"Intensivista","subspecialities":""}},{"url":"http://www.doctoralia.com.br/medico/eliza+jarolavsky-11987015","doctor": {"address":{"1":{"address":{"lat":-23.5427318,"lng":-46.6489045,"locality":"01221-020","location":"01221-020 São Paulo, São Paulo SP","street":"R. Dr. Cesario Motta Jr, 112 (Vila Buarque)"},"insurances":"","misc":"","name":"Santa Casa de São Paulo Hospital Central","phone":"(11) 2176-7000","working_hours":""}},"education":{},"experience":"","name":"Eliza Jarolavsky","picture":"http://photos.doctoralia.com/V2635457994129641617_2.jpg","registration_number":"","salutation":"","services":"","speciality":"Intensivista","subspecialities":""}},{"url":"http://www.doctoralia.com.br/medico/gisele+assumpcao-11987016","doctor": {"address":{"1":{"address":{"lat":-23.5427318,"lng":-46.6489045,"locality":"01221-020","location":"01221-020 São Paulo, São Paulo SP","street":"R. Dr. Cesario Motta Jr, 112 (Vila Buarque)"},"insurances":"","misc":"","name":"Santa Casa de São Paulo Hospital Central","phone":"(11) 2176-7000","working_hours":""}},"education":{},"experience":"","name":"Gisele Assumpcao","picture":"http://photos.doctoralia.com/V2635457994129641617_2.jpg","registration_number":"","salutation":"","services":"","speciality":"Intensivista","subspecialities":""}},{"url":"http://www.doctoralia.com.br/medico/moacir+rodrigues-11987017","doctor": {"address":{"1":{"address":{"lat":-23.5427318,"lng":-46.6489045,"locality":"01221-020","location":"01221-020 São Paulo, São Paulo SP","street":"R. Dr. Cesario Motta Jr, 112 (Vila Buarque)"},"insurances":"","misc":"","name":"Santa Casa de São Paulo Hospital Central","phone":"(11) 2176-7000","working_hours":""}},"education":{},"experience":"","name":"Moacir Rodrigues","picture":"http://photos.doctoralia.com/V2635457994129641617_2.jpg","registration_number":"","salutation":"","services":"","speciality":"Intensivista","subspecialities":""}},{"url":"http://www.doctoralia.com.br/medico/marcia+barbosa+trarbach-11987018","doctor": {"address":{"1":{"address":{"lat":-23.5427318,"lng":-46.6489045,"locality":"01221-020","location":"01221-020 São Paulo, São Paulo SP","street":"R. Dr. Cesario Motta Jr, 112 (Vila Buarque)"},"insurances":"","misc":"","name":"Santa Casa de São Paulo Hospital Central","phone":"(11) 2176-7000","working_hours":""}},"education":{},"experience":"","name":"Marcia Barbosa Trarbach","picture":"http://photos.doctoralia.com/V2635457994129641617_2.jpg","registration_number":"","salutation":"","services":"","speciality":"Intensivista","subspecialities":""}},{"url":"http://www.doctoralia.com.br/medico/flavia+nobrega+henriques-11987019","doctor": {"address":{"1":{"address":{"lat":-23.5427318,"lng":-46.6489045,"locality":"01221-020","location":"01221-020 São Paulo, São Paulo SP","street":"R. Dr. Cesario Motta Jr, 112 (Vila Buarque)"},"insurances":"","misc":"","name":"Santa Casa de São Paulo Hospital Central","phone":"(11) 2176-7000","working_hours":""}},"education":{},"experience":"","name":"Flavia Nobrega Henriques","picture":"http://photos.doctoralia.com/V2635457994129641617_2.jpg","registration_number":"","salutation":"","services":"","speciality":"Intensivista","subspecialities":""}},{"url":"http://www.doctoralia.com.br/medico/marcos+roberto+queiroz+franca-11987021","doctor": {"address":{"1":{"address":{"lat":-23.5427318,"lng":-46.6489045,"locality":"01221-020","location":"01221-020 São Paulo, São Paulo SP","street":"R. Dr. Cesario Motta Jr, 112 (Vila Buarque)"},"insurances":"","misc":"","name":"Santa Casa de São Paulo Hospital Central","phone":"(11) 2176-7000","working_hours":""},"2":{"address":{"lat":-23.5427295,"lng":-46.6512088,"locality":"01238-010","location":"01238-010 São Paulo, São Paulo SP","street":"Rua Dona Veridiana, 311 (Vila Buarque)"},"insurances":"","misc":"","name":"Santa Casa de São Paulo Hospital Santa Isabel","phone":"(11) 2176-7702","working_hours":""}},"education":{},"experience":"","name":"Marcos Roberto Queiroz Franca","picture":"http://photos.doctoralia.com/V2635457994129641617_2.jpg","registration_number":"","salutation":"","services":"","speciality":"Intensivista","subspecialities":""}},{"url":"http://www.doctoralia.com.br/medico/lina+maria+moreno+molina+santos-11987022","doctor": {"address":{"1":{"address":{"lat":-23.5427318,"lng":-46.6489045,"locality":"01221-020","location":"01221-020 São Paulo, São Paulo SP","street":"R. Dr. Cesario Motta Jr, 112 (Vila Buarque)"},"insurances":"","misc":"","name":"Santa Casa de São Paulo Hospital Central","phone":"(11) 2176-7000","working_hours":""}},"education":{},"experience":"","name":"Lina Maria Moreno Molina Santos","picture":"http://photos.doctoralia.com/V2635457994129641617_2.jpg","registration_number":"","salutation":"","services":"","speciality":"Intensivista","subspecialities":""}},{"url":"http://www.doctoralia.com.br/medico/chen+yen+ju-11987023","doctor": {"address":{"1":{"address":{"lat":-23.5427318,"lng":-46.6489045,"locality":"01221-020","location":"01221-020 São Paulo, São Paulo SP","street":"R. Dr. Cesario Motta Jr, 112 (Vila Buarque)"},"insurances":"","misc":"","name":"Santa Casa de São Paulo Hospital Central","phone":"(11) 2176-7000","working_hours":""}},"education":{},"experience":"","name":"Chen Yen Ju","picture":"http://photos.doctoralia.com/V2635457994129641617_2.jpg","registration_number":"","salutation":"","services":"","speciality":"Intensivista","subspecialities":""}},{"url":"http://www.doctoralia.com.br/medico/carolina+figueira+rabello+alonso-11987025","doctor": {"address":{"1":{"address":{"lat":-23.5427318,"lng":-46.6489045,"locality":"01221-020","location":"01221-020 São Paulo, São Paulo SP","street":"R. Dr. Cesario Motta Jr, 112 (Vila Buarque)"},"insurances":"","misc":"","name":"Santa Casa de São Paulo Hospital Central","phone":"(11) 2176-7000","working_hours":""}},"education":{},"experience":"","name":"Carolina Figueira Rabello Alonso","picture":"http://photos.doctoralia.com/V2635457994129641617_2.jpg","registration_number":"","salutation":"","services":"","speciality":"Intensivista","subspecialities":""}},{"url":"http://www.doctoralia.com.br/medico/flavio+angelo+bortoncello-11987026","doctor": {"address":{"1":{"address":{"lat":-23.5427318,"lng":-46.6489045,"locality":"01221-020","location":"01221-020 São Paulo, São Paulo SP","street":"R. Dr. Cesario Motta Jr, 112 (Vila Buarque)"},"insurances":"","misc":"","name":"Santa Casa de São Paulo Hospital Central","phone":"(11) 2176-7000","working_hours":""}},"education":{},"experience":"","name":"Flavio Angelo Bortoncello","picture":"http://photos.doctoralia.com/V2635457994129641617_2.jpg","registration_number":"","salutation":"","services":"","speciality":"Intensivista","subspecialities":""}},{"url":"http://www.doctoralia.com.br/medico/carlos+adalberto+ferreira+pinto-12011283","doctor": {"address":{"1":{"address":{"lat":-23.5427295,"lng":-46.6512088,"locality":"01238-010","location":"01238-010 São Paulo, São Paulo SP","street":"Rua Dona Veridiana, 311 (Vila Buarque)"},"insurances":"","misc":"","name":"Santa Casa de São Paulo Hospital Santa Isabel","phone":"(11) 2176-7702","working_hours":""}},"education":{},"experience":"","name":"Carlos Adalberto Ferreira Pinto","picture":"http://photos.doctoralia.com/V2635457994129641617_2.jpg","registration_number":"","salutation":"","services":"","speciality":"Intensivista","subspecialities":""}},{"url":"http://www.doctoralia.com.br/medico/roberto+gomes+dos+reis+guidoni-12011285","doctor": {"address":{"1":{"address":{"lat":-23.5427295,"lng":-46.6512088,"locality":"01238-010","location":"01238-010 São Paulo, São Paulo SP","street":"Rua Dona Veridiana, 311 (Vila Buarque)"},"insurances":"","misc":"","name":"Santa Casa de São Paulo Hospital Santa Isabel","phone":"","working_hours":""}},"education":{},"experience":"","name":"Roberto Gomes dos Reis Guidoni","picture":"http://photos.doctoralia.com/V2635457994129641617_2.jpg","registration_number":"","salutation":"","services":"","speciality":"Intensivista","subspecialities":""}},{"url":"http://www.doctoralia.com.br/medico/carlos+eduardo+da+costa+nunes+bosso-12011303","doctor": {"address":{"1":{"address":{"lat":-23.5427295,"lng":-46.6512088,"locality":"01238-010","location":"01238-010 São Paulo, São Paulo SP","street":"Rua Dona Veridiana, 311 (Vila Buarque)"},"insurances":"","misc":"","name":"Santa Casa de São Paulo Hospital Santa Isabel","phone":"(11) 2176-7702","working_hours":""}},"education":{},"experience":"","name":"Carlos Eduardo da Costa Nunes Bosso","picture":"http://photos.doctoralia.com/V2635457994129641617_2.jpg","registration_number":"","salutation":"","services":"","speciality":"Intensivista","subspecialities":""}},{"url":"http://www.doctoralia.com.br/medico/frederico+carbone+filho-12011289","doctor": {"address":{"1":{"address":{"lat":-23.5427295,"lng":-46.6512088,"locality":"01238-010","location":"01238-010 São Paulo, São Paulo SP","street":"Rua Dona Veridiana, 311 (Vila Buarque)"},"insurances":"","misc":"","name":"Santa Casa de São Paulo Hospital Santa Isabel","phone":"(11) 2176-7702","working_hours":""}},"education":{},"experience":"","name":"Frederico Carbone Filho","picture":"http://photos.doctoralia.com/V2635457994129641617_2.jpg","registration_number":"","salutation":"","services":"","speciality":"Intensivista","subspecialities":""}},{"url":"http://www.doctoralia.com.br/medico/roberto+marco-12011290","doctor": {"address":{"1":{"address":{"lat":-23.5427295,"lng":-46.6512088,"locality":"01238-010","location":"01238-010 São Paulo, São Paulo SP","street":"Rua Dona Veridiana, 311 (Vila Buarque)"},"insurances":"","misc":"","name":"Santa Casa de São Paulo Hospital Santa Isabel","phone":"(11) 2176-7702","working_hours":""}},"education":{},"experience":"","name":"Roberto Marco","picture":"http://photos.doctoralia.com/V2635457994129641617_2.jpg","registration_number":"","salutation":"","services":"","speciality":"Intensivista","subspecialities":""}},{"url":"http://www.doctoralia.com.br/medico/carlos+eduardo+motta+de+siqueira-12011291","doctor": {"address":{"1":{"address":{"lat":-23.5427295,"lng":-46.6512088,"locality":"01238-010","location":"01238-010 São Paulo, São Paulo SP","street":"Rua Dona Veridiana, 311 (Vila Buarque)"},"insurances":"","misc":"","name":"Santa Casa de São Paulo Hospital Santa Isabel","phone":"(11) 2176-7702","working_hours":""}},"education":{},"experience":"","name":"Carlos Eduardo Motta de Siqueira","picture":"http://photos.doctoralia.com/V2635457994129641617_2.jpg","registration_number":"","salutation":"","services":"","speciality":"Intensivista","subspecialities":""}},{"url":"http://www.doctoralia.com.br/medico/flavio+carneiro+leao+cavalcanti+de+araujo-12011293","doctor": {"address":{"1":{"address":{"lat":-23.5427295,"lng":-46.6512088,"locality":"01238-010","location":"01238-010 São Paulo, São Paulo SP","street":"Rua Dona Veridiana, 311 (Vila Buarque)"},"insurances":"","misc":"","name":"Santa Casa de São Paulo Hospital Santa Isabel","phone":"(11) 2176-7702","working_hours":""}},"education":{},"experience":"","name":"Flavio Carneiro Leao Cavalcanti de Araujo","picture":"http://photos.doctoralia.com/V2635457994129641617_2.jpg","registration_number":"","salutation":"","services":"","speciality":"Intensivista","subspecialities":""}},{"url":"http://www.doctoralia.com.br/medico/alexey+pomares+peroni-12011294","doctor": {"address":{"1":{"address":{"lat":-23.5427295,"lng":-46.6512088,"locality":"01238-010","location":"01238-010 São Paulo, São Paulo SP","street":"Rua Dona Veridiana, 311 (Vila Buarque)"},"insurances":"","misc":"","name":"Santa Casa de São Paulo Hospital Santa Isabel","phone":"(11) 2176-7702","working_hours":""}},"education":{},"experience":"","name":"Alexey Pomares Peroni","picture":"http://photos.doctoralia.com/V2635457994129641617_2.jpg","registration_number":"","salutation":"","services":"","speciality":"Intensivista","subspecialities":""}},{"url":"http://www.doctoralia.com.br/medico/paula+figueiredo+de+moura+de+sousa-12011295","doctor": {"address":{"1":{"address":{"lat":-23.5427295,"lng":-46.6512088,"locality":"01238-010","location":"01238-010 São Paulo, São Paulo SP","street":"Rua Dona Veridiana, 311 (Vila Buarque)"},"insurances":"","misc":"","name":"Santa Casa de São Paulo Hospital Santa Isabel","phone":"(11) 2176-7702","working_hours":""}},"education":{},"experience":"","name":"Paula Figueiredo de Moura de Sousa","picture":"http://photos.doctoralia.com/V2635457994129641617_2.jpg","registration_number":"","salutation":"","services":"","speciality":"Intensivista","subspecialities":""}},{"url":"http://www.doctoralia.com.br/medico/fabiano+hirata-12011296","doctor": {"address":{"1":{"address":{"lat":-23.5427295,"lng":-46.6512088,"locality":"01238-010","location":"01238-010 São Paulo, São Paulo SP","street":"Rua Dona Veridiana, 311 (Vila Buarque)"},"insurances":"","misc":"","name":"Santa Casa de São Paulo Hospital Santa Isabel","phone":"(11) 2176-7702","working_hours":""}},"education":{},"experience":"","name":"Fabiano Hirata","picture":"http://photos.doctoralia.com/V2635457994129641617_2.jpg","registration_number":"","salutation":"","services":"","speciality":"Intensivista","subspecialities":""}},{"url":"http://www.doctoralia.com.br/medico/henrique+gandara+canosa-12011298","doctor": {"address":{"1":{"address":{"lat":-23.5427295,"lng":-46.6512088,"locality":"01238-010","location":"01238-010 São Paulo, São Paulo SP","street":"Rua Dona Veridiana, 311 (Vila Buarque)"},"insurances":"","misc":"","name":"Santa Casa de São Paulo Hospital Santa Isabel","phone":"(11) 2176-7702","working_hours":""}},"education":{},"experience":"","name":"Henrique Gandara Canosa","picture":"http://photos.doctoralia.com/V2635457994129641617_2.jpg","registration_number":"","salutation":"","services":"","speciality":"Intensivista","subspecialities":""}},{"url":"http://www.doctoralia.com.br/medico/maria+susane+filgueira+barreto+ferreira-12011299","doctor": {"address":{"1":{"address":{"lat":-23.5427295,"lng":-46.6512088,"locality":"01238-010","location":"01238-010 São Paulo, São Paulo SP","street":"Rua Dona Veridiana, 311 (Vila Buarque)"},"insurances":"","misc":"","name":"Santa Casa de São Paulo Hospital Santa Isabel","phone":"(11) 2176-7702","working_hours":""}},"education":{},"experience":"","name":"Maria Susane Filgueira Barreto Ferreira","picture":"http://photos.doctoralia.com/V2635457994129641617_2.jpg","registration_number":"","salutation":"","services":"","speciality":"Intensivista","subspecialities":""}},{"url":"http://www.doctoralia.com.br/medico/raquel+de+barros+correia+gonzaga-12011301","doctor": {"address":{"1":{"address":{"lat":-23.5427295,"lng":-46.6512088,"locality":"01238-010","location":"01238-010 São Paulo, São Paulo SP","street":"Rua Dona Veridiana, 311 (Vila Buarque)"},"insurances":"","misc":"","name":"Santa Casa de São Paulo Hospital Santa Isabel","phone":"(11) 2176-7702","working_hours":""}},"education":{},"experience":"","name":"Raquel de Barros Correia Gonzaga","picture":"http://photos.doctoralia.com/V2635457994129641617_2.jpg","registration_number":"","salutation":"","services":"","speciality":"Intensivista","subspecialities":""}},{"url":"http://www.doctoralia.com.br/medico/andre+luiz+tosello+penteado-12011302","doctor": {"address":{"1":{"address":{"lat":-23.5427295,"lng":-46.6512088,"locality":"01238-010","location":"01238-010 São Paulo, São Paulo SP","street":"Rua Dona Veridiana, 311 (Vila Buarque)"},"insurances":"","misc":"","name":"Santa Casa de São Paulo Hospital Santa Isabel","phone":"(11) 2176-7702","working_hours":""}},"education":{},"experience":"","name":"Andre Luiz Tosello Penteado","picture":"http://photos.doctoralia.com/V2635457994129641617_2.jpg","registration_number":"","salutation":"","services":"","speciality":"Intensivista","subspecialities":""}},{"url":"http://www.doctoralia.com.br/medico/sergio+antonio+pulzi+junior-12011306","doctor": {"address":{"1":{"address":{"lat":-23.5427295,"lng":-46.6512088,"locality":"01238-010","location":"01238-010 São Paulo, São Paulo SP","street":"Rua Dona Veridiana, 311 (Vila Buarque)"},"insurances":"","misc":"","name":"Santa Casa de São Paulo Hospital Santa Isabel","phone":"(11) 2176-7702","working_hours":""}},"education":{},"experience":"","name":"Sergio Antonio Pulzi Junior","picture":"http://photos.doctoralia.com/V2635457994129641617_2.jpg","registration_number":"","salutation":"","services":"","speciality":"Intensivista","subspecialities":""}},{"url":"http://www.doctoralia.com.br/medico/pedro+paulo+da+silva+moreira-12011287","doctor": {"address":{"1":{"address":{"lat":-23.5427295,"lng":-46.6512088,"locality":"01238-010","location":"01238-010 São Paulo, São Paulo SP","street":"Rua Dona Veridiana, 311 (Vila Buarque)"},"insurances":"","misc":"","name":"Santa Casa de São Paulo Hospital Santa Isabel","phone":"(11) 2176-7702","working_hours":""}},"education":{},"experience":"","name":"Pedro Paulo da Silva Moreira","picture":"http://photos.doctoralia.com/V2635457994129641617_2.jpg","registration_number":"","salutation":"","services":"","speciality":"Intensivista","subspecialities":""}},{"url":"http://www.doctoralia.com.br/medico/luciano+moura+valle-12011288","doctor": {"address":{"1":{"address":{"lat":-23.5427295,"lng":-46.6512088,"locality":"01238-010","location":"01238-010 São Paulo, São Paulo SP","street":"Rua Dona Veridiana, 311 (Vila Buarque)"},"insurances":"","misc":"","name":"Santa Casa de São Paulo Hospital Santa Isabel","phone":"(11) 2176-7702","working_hours":""}},"education":{},"experience":"","name":"Luciano Moura Valle","picture":"http://photos.doctoralia.com/V2635457994129641617_2.jpg","registration_number":"","salutation":"","services":"","speciality":"Intensivista","subspecialities":""}},{"url":"http://www.doctoralia.com.br/medico/luis+augusto+palma+dallan-12011307","doctor": {"address":{"1":{"address":{"lat":-23.5427295,"lng":-46.6512088,"locality":"01238-010","location":"01238-010 São Paulo, São Paulo SP","street":"Rua Dona Veridiana, 311 (Vila Buarque)"},"insurances":"","misc":"","name":"Santa Casa de São Paulo Hospital Santa Isabel","phone":"(11) 2176-7702","working_hours":""}},"education":{},"experience":"","name":"Luis Augusto Palma Dallan","picture":"http://photos.doctoralia.com/V2635457994129641617_2.jpg","registration_number":"","salutation":"","services":"","speciality":"Intensivista","subspecialities":""}},{"url":"http://www.doctoralia.com.br/medico/anselmo+luis+ribeiro+mota-12011310","doctor": {"address":{"1":{"address":{"lat":-23.5427295,"lng":-46.6512088,"locality":"01238-010","location":"01238-010 São Paulo, São Paulo SP","street":"Rua Dona Veridiana, 311 (Vila Buarque)"},"insurances":"","misc":"","name":"Santa Casa de São Paulo Hospital Santa Isabel","phone":"(11) 2176-7702","working_hours":""}},"education":{},"experience":"","name":"Anselmo Luis Ribeiro Mota","picture":"http://photos.doctoralia.com/V2635457994129641617_2.jpg","registration_number":"","salutation":"","services":"","speciality":"Intensivista","subspecialities":""}},{"url":"http://www.doctoralia.com.br/medico/ana+carolina+cavalcanti+pessoa+de+souza-12011311","doctor": {"address":{"1":{"address":{"lat":-23.5427295,"lng":-46.6512088,"locality":"01238-010","location":"01238-010 São Paulo, São Paulo SP","street":"Rua Dona Veridiana, 311 (Vila Buarque)"},"insurances":"","misc":"","name":"Santa Casa de São Paulo Hospital Santa Isabel","phone":"(11) 2176-7702","working_hours":""}},"education":{},"experience":"","name":"Ana Carolina Cavalcanti Pessoa de Souza","picture":"http://photos.doctoralia.com/V2635457994129641617_2.jpg","registration_number":"","salutation":"","services":"","speciality":"Intensivista","subspecialities":""}},{"url":"http://www.doctoralia.com.br/medico/joao+maria+correa+filho-12011312","doctor": {"address":{"1":{"address":{"lat":-23.5427295,"lng":-46.6512088,"locality":"01238-010","location":"01238-010 São Paulo, São Paulo SP","street":"Rua Dona Veridiana, 311 (Vila Buarque)"},"insurances":"","misc":"","name":"Santa Casa de São Paulo Hospital Santa Isabel","phone":"(11) 2176-7702","working_hours":""}},"education":{},"experience":"","name":"Joao Maria Correa Filho","picture":"http://photos.doctoralia.com/V2635457994129641617_2.jpg","registration_number":"","salutation":"","services":"","speciality":"Intensivista","subspecialities":""}},{"url":"http://www.doctoralia.com.br/medico/alexandre+chiattone-12011313","doctor": {"address":{"1":{"address":{"lat":-23.5427295,"lng":-46.6512088,"locality":"01238-010","location":"01238-010 São Paulo, São Paulo SP","street":"Rua Dona Veridiana, 311 (Vila Buarque)"},"insurances":"","misc":"","name":"Santa Casa de São Paulo Hospital Santa Isabel","phone":"(11) 2176-7702","working_hours":""}},"education":{},"experience":"","name":"Alexandre Chiattone","picture":"http://photos.doctoralia.com/V2635457994129641617_2.jpg","registration_number":"","salutation":"","services":"","speciality":"Intensivista","subspecialities":""}},{"url":"http://www.doctoralia.com.br/medico/lucas+hollanda+oliveira-12011315","doctor": {"address":{"1":{"address":{"lat":-23.5427295,"lng":-46.6512088,"locality":"01238-010","location":"01238-010 São Paulo, São Paulo SP","street":"Rua Dona Veridiana, 311 (Vila Buarque)"},"insurances":"","misc":"","name":"Santa Casa de São Paulo Hospital Santa Isabel","phone":"(11) 2176-7702","working_hours":""}},"education":{},"experience":"","name":"Lucas Hollanda Oliveira","picture":"http://photos.doctoralia.com/V2635457994129641617_2.jpg","registration_number":"","salutation":"","services":"","speciality":"Intensivista","subspecialities":""}},{"url":"http://www.doctoralia.com.br/medico/ricardo+gassmann+figueiredo-12011318","doctor": {"address":{"1":{"address":{"lat":-23.5427295,"lng":-46.6512088,"locality":"01238-010","location":"01238-010 São Paulo, São Paulo SP","street":"Rua Dona Veridiana, 311 (Vila Buarque)"},"insurances":"","misc":"","name":"Santa Casa de São Paulo Hospital Santa Isabel","phone":"(11) 2176-7702","working_hours":""}},"education":{},"experience":"","name":"Ricardo Gassmann Figueiredo","picture":"http://photos.doctoralia.com/V2635457994129641617_2.jpg","registration_number":"","salutation":"","services":"","speciality":"Intensivista","subspecialities":""}},{"url":"http://www.doctoralia.com.br/medico/viviane+arevaldo+tabone-12011320","doctor": {"address":{"1":{"address":{"lat":-23.5427295,"lng":-46.6512088,"locality":"01238-010","location":"01238-010 São Paulo, São Paulo SP","street":"Rua Dona Veridiana, 311 (Vila Buarque)"},"insurances":"","misc":"","name":"Santa Casa de São Paulo Hospital Santa Isabel","phone":"(11) 2176-7702","working_hours":""}},"education":{},"experience":"","name":"Viviane Arevaldo Tabone","picture":"http://photos.doctoralia.com/V2635457994129641617_2.jpg","registration_number":"","salutation":"","services":"","speciality":"Intensivista","subspecialities":""}},{"url":"http://www.doctoralia.com.br/medico/ricardo+maldonado-12011321","doctor": {"address":{"1":{"address":{"lat":-23.5427295,"lng":-46.6512088,"locality":"01238-010","location":"01238-010 São Paulo, São Paulo SP","street":"Rua Dona Veridiana, 311 (Vila Buarque)"},"insurances":"","misc":"","name":"Santa Casa de São Paulo Hospital Santa Isabel","phone":"(11) 2176-7702","working_hours":""}},"education":{},"experience":"","name":"Ricardo Maldonado","picture":"http://photos.doctoralia.com/V2635457994129641617_2.jpg","registration_number":"","salutation":"","services":"","speciality":"Intensivista","subspecialities":""}},{"url":"http://www.doctoralia.com.br/medico/miriam+jackiu-12018597","doctor": {"address":{"1":{"address":{"lat":-23.6572847,"lng":-46.6537446,"locality":"04378-500","location":"04378-500 São Paulo, São Paulo SP","street":"Av. Santa Catarina, 2785 (Jabaquara)"},"insurances":"","misc":"","name":"Hospital e Maternidade Santa Marina","phone":"(11) 5013-1100","working_hours":""}},"education":{},"experience":"","name":"Miriam Jackiu","picture":"http://photos.doctoralia.com/V2635457994129641617_2.jpg","registration_number":"","salutation":"","services":"","speciality":"Intensivista","subspecialities":""}},{"url":"http://www.doctoralia.com.br/medico/arnaldo+araujo+de+mendonca+junior-12018598","doctor": {"address":{"1":{"address":{"lat":-23.6572847,"lng":-46.6537446,"locality":"04378-500","location":"04378-500 São Paulo, São Paulo SP","street":"Av. Santa Catarina, 2785 (Jabaquara)"},"insurances":"","misc":"","name":"Hospital e Maternidade Santa Marina","phone":"(11) 5013-1100","working_hours":""}},"education":{},"experience":"","name":"Arnaldo Araujo de Mendonca Junior","picture":"http://photos.doctoralia.com/V2635457994129641617_2.jpg","registration_number":"","salutation":"","services":"","speciality":"Intensivista","subspecialities":""}},{"url":"http://www.doctoralia.com.br/medico/camila+paiva+de+vasconcelos-12018601","doctor": {"address":{"1":{"address":{"lat":-23.6572847,"lng":-46.6537446,"locality":"04378-500","location":"04378-500 São Paulo, São Paulo SP","street":"Av. Santa Catarina, 2785 (Jabaquara)"},"insurances":"","misc":"","name":"Hospital e Maternidade Santa Marina","phone":"(11) 5013-1100","working_hours":""}},"education":{},"experience":"","name":"Camila Paiva de Vasconcelos","picture":"http://photos.doctoralia.com/V2635457994129641617_2.jpg","registration_number":"","salutation":"","services":"","speciality":"Intensivista","subspecialities":""}}]}