{"webData": [{"url":"http://www.doctoralia.com.br/medico/rosano+marcello-12136932","doctor": [{"address":{"1":{"address":{"lat":-23.6050675,"lng":-46.659195399999,"locality":"04089000","location":"04089000 São Paulo, São Paulo SP","street":"Alameda dos Maracatins, 426, cj 110 (Moema)"},"insurances":"Pacientes privados (sem plano de saúde), CABESP, Cassi, Notre Dame, Omint, Cruz Azul","misc":"","name":"Consultório","phone":"(11)3262-5564, (11)3266-7563","working_hours":""},"2":{"address":{"lat":-23.5657211,"lng":-46.6416332,"locality":"01323000","location":"01323000 São Paulo, São Paulo SP","street":"Rua Maestro Cardim 547 (Paraíso)"},"insurances":"Pacientes privados (sem plano de saúde)","misc":"","name":"Beneficência Portuguesa","phone":"(11) 2592-8130, (11) 99788-2552","working_hours":""}},"education":{"1":{"degree":"Unifesp","institute":"2007"}},"experience":"Doenças Da Glândula Tireóide, Doenças Das Paratireóides, Nódulo Da Glândula Tireóide","name":"Marcello Rosano","picture":"http://photos.doctoralia.com/634468842277293137_2.jpg","registration_number":"","salutation":"Dr","services":"Tiroidectomia Parcial, Tiroidectomia Total, Tiroidectomia Total Com Esvaziamento Ganglionar, Tiroidectomia Total Por Cancer","speciality":"Cirurgião de cabeça e pescoço","subspecialities":"","website":"http://marcellorosano.blogspot.com"}]},{"url":"http://www.doctoralia.com.br/medico/giulianno+molina+de+melo-10602758","doctor": [{"address":{"1":{"address":{"lat":-23.5657211,"lng":-46.6416332,"locality":"01323001","location":"01323001 São Paulo, São Paulo SP","street":"R. Maestro Cardim, 547 Liberdade - São Paulo-SP (Liberdade)"},"insurances":"Pacientes privados (sem plano de saúde)","misc":"","name":"Consultório","phone":"11-2592-8130, 11-2592-8056","working_hours":"2f-5f das 8:30 até 18:30h"}},"education":{"1":{"degree":"Sociedade Brasileira de Cirurgia de Cabeça e Pescoço","institute":"1999"},"2":{"degree":"Colégio Brasileiro de Cirurgiões","institute":"2007"},"3":{"degree":"AHNS-EUA","institute":"2012"},"4":{"degree":"ASCO-EUA","institute":"2013"},"5":{"degree":"UNIFESP","institute":"2014"}},"experience":"Bócio, Câncer da língua, Doenças Das Glândulas Salivares, Neoplasias Bucais, Neoplasias Da Glândula Tireóide, Neoplasias Laríngeas, Nódulo Da Glândula Tireóide, Tireoidite","name":"Giulianno Molina de Melo","picture":"http://photos.doctoralia.com/635632267176393814_2.jpg","registration_number":"","salutation":"Dr","services":"Primeira consulta Cirurgia de Cabeça e Pescoço, Retorno de consultas Cirurgia de Cabeça e Pescoço, Biopsia De Ganglio Linfatico, Disseccao Radical Do Pescoco, Excisao De Tumor De Glandula Parotida, Excisao De Tumor De Glandula Submaxilar, Exerese De Cisto Branquial, Exerese De Cisto Tireoglosso, Extirpacao De Tumor Da Faringe Por Cancer, Laringectomia Parcial, Laringectomia Total Por Cancer, Laringoscopia Com Exerese De Papiloma, Maxilectomia Com Ou Sem Esvaziamento Orbitario E Rino Lateral, Parotidectomia Por Cancer, Tiroidectomia Total, Tiroidectomia Total Com Esvaziamento Ganglionar, Tiroidectomia Total Por Cancer","speciality":"Cirurgião de cabeça e pescoço","subspecialities":""}]},{"url":"http://www.doctoralia.com.br/medico/daniel+marin+ramos-11960124","doctor": [{"address":{"1":{"address":{"lat":-23.5530482,"lng":-46.6766628,"locality":"05409-011","location":"05409-011 São Paulo, São Paulo SP","street":"Rua Oscar Freire 2250 (conjunto 405) (Pinheiros)"},"insurances":"Pacientes privados (sem plano de saúde)","misc":"","name":"Consultório","phone":"27381804, 50817886","working_hours":""},"2":{"address":{"lat":-23.6564609,"lng":-46.5594557,"locality":"09080110","location":"09080110 Santo André, São Paulo SP","street":"Rua Dom Pedro II Sala 91B (Vila Jardim)"},"insurances":"","misc":"","name":"Consultório","phone":"49925988","working_hours":""},"3":{"address":{"lat":-23.556738,"lng":-46.670129,"locality":"05403-000","location":"05403-000 São Paulo, São Paulo SP","street":"Av. Dr Enéas de Carvalho Aguiar, 255 (Cerqueira Cesar)"},"insurances":"","misc":"","name":"Hospital das Clínicas da Faculdade de Medicina Da USP","phone":"","working_hours":""},"4":{"address":{"lat":-23.552319,"lng":-46.6213241,"locality":"03102-002","location":"03102-002 São Paulo, São Paulo SP","street":"Avenida Alcântara Machado 2576 (Mooca)"},"insurances":"","misc":"","name":"Instituto Brasileiro de Controle Do Câncer","phone":"","working_hours":""},"5":{"address":{"lat":-23.555857,"lng":-46.6683884,"locality":"01246-000","location":"01246-000 São Paulo, São Paulo SP","street":"Av. Dr. Arnaldo, 251 (Cerqueira César)"},"insurances":"","misc":"","name":"Instituto do Câncer do Estado de São Paulo - ICESP","phone":"","working_hours":""},"6":{"address":{"lat":-23.6670654,"lng":-46.5313281,"locality":"09020110","location":"09020110 Santo André, São Paulo SP","street":"Rua Coronel Fernando Prestes, 1177"},"insurances":"","misc":"","name":"Hospital Brasil","phone":"","working_hours":""}},"education":{"1":{"degree":"Hospital das Clínicas da Faculdade de Medicina da Universidade de São Paulo","institute":"2008"},"2":{"degree":"Sociedade Brasileira de Cirurgia de Cabeça e Pescoço","institute":"2008"}},"experience":"Câncer de laringe, Doenças Da Glândula Tireóide, Neoplasias De Cabeça E Pescoço","name":"Daniel Marin Ramos","picture":"http://photos.doctoralia.com/635613640094580525_1.jpg","registration_number":"","salutation":"","services":"Primeira consulta Cirurgia de Cabeça e Pescoço, Retorno de consultas Cirurgia de Cabeça e Pescoço, Biopsia De Ganglio Linfatico, Biópsia De Glândulas Salivares, Disseccao Radical Do Pescoco, Excisao De Glandula Salivar, Excisao De Tumor De Glandula Parotida, Exerese De Cisto Branquial, Exerese De Cisto Tireoglosso, Extirpacao De Tumor Da Faringe Por Cancer, Fechamento De Fistula Traqueo-Cutanea, Laringectomia Parcial Por Cancer, Laringectomia Total Por Cancer, Paratireoidectomia, Paratireoidectomia Por Cancer, Parotidectomia, Parotidectomia Por Cancer, Tiroidectomia Parcial, Tiroidectomia Total, Tiroidectomia Total Com Esvaziamento Ganglionar","speciality":"Cirurgião de cabeça e pescoço","subspecialities":""}]},{"url":"http://www.doctoralia.com.br/medico/catafesta+das+neves+murilo-12898275","doctor": [{"address":{"1":{"address":{"lat":-23.6050675,"lng":-46.659195399999,"locality":"04089000","location":"04089000 São Paulo, São Paulo SP","street":"Al. Maracatins 426 conj 110 (Moema)"},"insurances":"Pacientes privados (sem plano de saúde), CABESP, Cassi, Omint","misc":"","name":"Consultório","phone":"32625564, 992677369","working_hours":"8 as 18 hs"},"2":{"address":{"lat":-23.6050675,"lng":-46.659195399999,"locality":"04089-000","location":"04089-000 São Paulo, São Paulo SP","street":"Alameda dos Maracatins 426 conjunto 110 (Moema)"},"insurances":"Pacientes privados (sem plano de saúde), CABESP, Cassi, Notre Dame, Omint","misc":"","name":"Medprimus","phone":"32625564","working_hours":""}},"education":{"1":{"degree":"Universidade de São Paulo - USP","institute":"2002"},"2":{"degree":"Universidade de São Paulo - USP","institute":"2004"},"3":{"degree":"Universidade Federal de São Paulo","institute":"2007"}},"experience":"Doenças Da Glândula Tireóide, Doenças Das Paratireóides, Neoplasias Bucais, Neoplasias De Cabeça E Pescoço","name":"Murilo Catafesta das Neves","picture":"http://photos.doctoralia.com/635182502964432977_1.jpg","registration_number":"108322","salutation":"Dr","services":"Disseccao Radical Do Pescoco, Paratireoidectomia, Tiroidectomia Total, Tiroidectomia Total Por Cancer","speciality":"Cirurgião de cabeça e pescoço","subspecialities":""}]},{"url":"http://www.doctoralia.com.br/medico/du+ub+kim+jorge-13847824","doctor": [{"address":{"1":{"address":{"lat":-23.5537887,"lng":-46.6617843,"locality":"01227-200","location":"01227-200 São Paulo, São Paulo SP","street":"Avenida Angélica 2491 (cj. 143) (Consolação)"},"insurances":"Pacientes privados (sem plano de saúde), Omint","misc":"","name":"Consultório","phone":"(11) 3582-1335, (11) 3582-1336","working_hours":"8:00 - 20:00"},"2":{"address":{"lat":-23.5537887,"lng":-46.6617843,"locality":"01227200","location":"01227200 São Paulo, São Paulo SP","street":"Avenida Angélica, 2491 cj. 143 (Consolação)"},"insurances":"Pacientes privados (sem plano de saúde)","misc":"","name":"Clínica Alira","phone":"3582-1335, 3582-1336","working_hours":""}},"education":{"1":{"degree":"Faculdade de Medicina da USP","institute":"2006"},"2":{"degree":"Hospital das Clínicas da Faculdade de Medicina da USP","institute":"2010"},"3":{"degree":"Sociedade Brasileira de Cirurgia de Cabeça e Pescoço","institute":"2011"}},"experience":"Câncer da língua, Doenças Da Glândula Tireóide, Doenças Das Paratireóides, Neoplasias De Cabeça E Pescoço","name":"Jorge Du Ub Kim","picture":"http://photos.doctoralia.com/635351501905805394_1.jpg","registration_number":"124970","salutation":"Dr","services":"Biopsia De Ganglio Linfatico, Excisao De Glandula Salivar, Paratireoidectomia, Tiroidectomia Total","speciality":"Cirurgião de cabeça e pescoço","subspecialities":""}]},{"url":"http://www.doctoralia.com.br/medico/massoni+neto+ledo-14788401","doctor": [{"address":{"1":{"address":{"lat":-23.5553562,"lng":-46.6738509,"locality":"05406000","location":"05406000 São Paulo, São Paulo SP","street":"Rua Teodoro Sampaio 352 (conj84) (Pinheiros)"},"insurances":"Pacientes privados (sem plano de saúde)","misc":"","name":"Consultório","phone":"30634365, 980842633","working_hours":"Terças feiras 13 às 17, Sextas feiras 15:30 às 17h"}},"education":{"1":{"degree":"Faculdade de Medicina da Universidade de São Paulo","institute":"2006"},"2":{"degree":"Faculdade de Medicina da Universidade de São Paulo","institute":"2009"},"3":{"degree":"Hospital das Clínicas da Faculdade de Medicina da Universidade de São Paulo","institute":"2011"}},"experience":"Câncer da língua, Câncer de laringe, Cisto Tireoglosso, Doenças Da Glândula Tireóide","name":"Ledo Massoni Neto","picture":"http://photos.doctoralia.com/635449178677945748_1.jpg","registration_number":"124985","salutation":"Dr","services":"Exerese De Cisto Branquial, Exerese De Cisto Tireoglosso, Exerese De Ganglio Linfatico, Paratireoidectomia","speciality":"Cirurgião de cabeça e pescoço","subspecialities":""}]},{"url":"http://www.doctoralia.com.br/medico/alves+de+andrade+claudio+roberto-12049565","doctor": [{"address":{"1":{"address":{"lat":-23.5981119,"lng":-46.6464514,"locality":"04039-002","location":"04039-002 São Paulo, São Paulo SP","street":"Rua Pedro de Toledo n 980 conj 133 Vila Clementino (Vila Mariana) (Vila Clementino)"},"insurances":"Pacientes privados (sem plano de saúde), Amil, Lincx, Medial saude, Porto Seguro","misc":"","name":"Consultório","phone":"50817886, 55732191","working_hours":"seg 8:00-12:00"},"2":{"address":{"lat":-23.6699166,"lng":-46.4495709,"locality":"09310-320","location":"09310-320 Maua, São Paulo SP","street":"Rua Martim Afonso - 114 (Vila Bocaina)"},"insurances":"","misc":"","name":"Hospital America","phone":"(11) 4544-2085","working_hours":""}},"education":{"1":{"degree":"Universidade de São Paulo","institute":"1998"}},"experience":"","name":"Claudio Roberto Alves de Andrade","picture":"http://photos.doctoralia.com/634468842277293137_2.jpg","registration_number":"93852","salutation":"Dr","services":"","speciality":"Cirurgião de cabeça e pescoço","subspecialities":""}]},{"url":"http://www.doctoralia.com.br/medico/brasilino+de+carvalho+marcos-12902668","doctor": [{"address":{"1":{"address":{"lat":-23.5664389,"lng":-46.6396563,"locality":"04101300","location":"04101300 São Paulo, São Paulo SP","street":"Rua Vergueiro, 3185 (cj.23) (Vila Mariana)"},"insurances":"","misc":"","name":"Consultório","phone":"55739998, 55393215","working_hours":"14:00 - !&:00"}},"education":{"1":{"degree":"Hospital AC Camargo","institute":"1975"},"2":{"degree":"Institut Gustave Roussy, Paris, França","institute":"1983"},"3":{"degree":"UNICAMP","institute":"1993"}},"experience":"Câncer da língua, Câncer de laringe, Neoplasias Da Glândula Tireóide, Neoplasias De Cabeça E Pescoço","name":"Marcos Brasilino de Carvalho","picture":"http://photos.doctoralia.com/V2635495421099022306_2.jpg","registration_number":"","salutation":"Dr","services":"Extirpacao De Tumor Da Faringe Por Cancer, Laringectomia Parcial Por Cancer, Parotidectomia Por Cancer, Tiroidectomia Total","speciality":"Cirurgião de cabeça e pescoço, Oncologista","subspecialities":"Cancerologista Cirurgico"}]},{"url":"http://www.doctoralia.com.br/medico/bandiera+de+oliveira+santos+andre-14786227","doctor": [{"address":{"1":{"address":{"lat":-23.5800438,"lng":-46.6627669,"locality":"01401-002","location":"01401-002 São Paulo, São Paulo SP","street":"Av Brigadeiro Luis Antonio, 4237 (Jardim Paulista)"},"insurances":"Pacientes privados (sem plano de saúde)","misc":"","name":"Consultório","phone":"3887-5596","working_hours":""}},"education":{"1":{"degree":"Universidade de São Paulo","institute":"2010"}},"experience":"Bócio, Carcinoma Papilar, Neoplasias De Cabeça E Pescoço, Nódulo Da Glândula Tireóide","name":"André Bandiera de Oliveira Santos","picture":"http://photos.doctoralia.com/634468842277293137_2.jpg","registration_number":"","salutation":"Dr","services":"Biopsia De Ganglio Linfatico, Excisao De Glandula Salivar, Tiroidectomia Total","speciality":"Cirurgião de cabeça e pescoço","subspecialities":""}]},{"url":"http://www.doctoralia.com.br/medico/celestino+chulam+thiago-13835182","doctor": [{"address":{"1":{"address":{"lat":-23.5865258,"lng":-46.6668786,"locality":"04507-000","location":"04507-000 São Paulo, São Paulo SP","street":"Av: Antonio Joaquim de Moura Andrade, 315 - Vila Nova Conceição (Vila Nova Conceição)"},"insurances":"","misc":"","name":"Consultório","phone":"011 4305-6070, 011 4305-6073","working_hours":"Quartas e Sextas 16-20h"}},"education":{"1":{"degree":"AC Camargo Cancer Center","institute":"2008"},"2":{"degree":"FAP","institute":"2013"},"3":{"degree":"UFES - Universidade Federal do Espírito Santo","institute":"2013"}},"experience":"Câncer da língua, Câncer de laringe, Doenças Da Glândula Tireóide, Nódulo Da Glândula Tireóide","name":"Thiago Celestino Chulam","picture":"http://photos.doctoralia.com/635254694768781037_1.jpg","registration_number":"131","salutation":"Dr","services":"Excisao De Glandula Salivar, Paratireoidectomia, Parotidectomia, Tiroidectomia Total","speciality":"Cirurgião de cabeça e pescoço","subspecialities":""}]},{"url":"http://www.doctoralia.com.br/medico/tosato+caliseo+caio-12852183","doctor": [{"address":{"1":{"address":{"lat":-23.5845827,"lng":-46.6683318,"locality":"04503-090","location":"04503-090 São Paulo, São Paulo SP","street":"Rua Cândido do Nascimento, 50 (Jardim Paulistano)"},"insurances":"","misc":"","name":"Consultório","phone":"30523558, 30521506","working_hours":"08:00 as 21:00"},"2":{"address":{"lat":-23.555857,"lng":-46.6683884,"locality":"01246-000","location":"01246-000 São Paulo, São Paulo SP","street":"Av. Dr. Arnaldo, 251 (Cerqueira César)"},"insurances":"","misc":"Departamento: Cirurgia de Cabeça e Pescoço","name":"Instituto do Câncer do Estado de São Paulo - ICESP","phone":"3893-2000","working_hours":""}},"education":{"1":{"degree":"UNICAMP","institute":"2008"},"2":{"degree":"Faculdade de Medicina -USP","institute":"2010"},"3":{"degree":"Sociedade Brasileira de Cirurgia de Cabeça e Pescoço","institute":"2010"}},"experience":"Câncer da língua, Câncer de laringe, Doenças Das Glândulas Salivares, Neoplasias Da Glândula Tireóide","name":"Caio Tosato Caliseo","picture":"http://photos.doctoralia.com/634468842277293137_2.jpg","registration_number":"115","salutation":"Dr","services":"Disseccao Radical Do Pescoco, Excisao De Tumor De Glandula Parotida, Laringectomia Total Por Cancer, Tiroidectomia Total Por Cancer","speciality":"Cirurgião de cabeça e pescoço","subspecialities":""}]},{"url":"http://www.doctoralia.com.br/medico/de+carlucci+jr+dorival-10607954","doctor": [{"address":{"1":{"address":{"lat":-23.5619343,"lng":-46.6624664,"locality":"01411-000","location":"01411-000 São Paulo, São Paulo SP","street":"Padre João Manuel, 450 - Cj 96 (Cerqueira Cesar)"},"insurances":"Pacientes privados (sem plano de saúde), Amil, Bradesco Saúde, Lincx","misc":"","name":"Consultório","phone":"(11) 3086-2192, (11) 2365-0690","working_hours":""},"2":{"address":{"lat":-23.4949631,"lng":-46.8471783,"locality":"06454-010","location":"06454-010 Barueri, São Paulo SP","street":"Alameda Madeira, 258 sala 1902 Alphaville (Alphaville Comercial)"},"insurances":"Pacientes privados (sem plano de saúde), Amil, Bradesco Saúde, Lincx","misc":"","name":"Consultório","phone":"4193-4077","working_hours":""}},"education":{},"experience":"","name":"Dorival De Carlucci Jr","picture":"http://photos.doctoralia.com/634468842277293137_2.jpg","registration_number":"","salutation":"Dr","services":"Cisto Tireoglosso, Doenças Da Glândula Tireóide, Doenças Das Paratireóides, Neoplasias Laríngeas","speciality":"Cirurgião de cabeça e pescoço","subspecialities":""}]},{"url":"http://www.doctoralia.com.br/medico/romualdo+suzano+louzeiro+tiago-10626834","doctor": [{"address":{"1":{"address":{"lat":-23.5969276,"lng":-46.6470292,"locality":"04038-032","location":"04038-032 São Paulo, São Paulo SP","street":"Rua Borges Lagoa, 1065, Conj 90-91 (Vila Clementino)"},"insurances":"","misc":"","name":"Consultório","phone":"11-50815883","working_hours":""},"2":{"address":{"lat":-23.5969276,"lng":-46.6470292,"locality":"04038-032","location":"04038-032 São Paulo, São Paulo SP","street":"Rua Borges Lagoa 1065 (Cj 90-91) (Vila Clementino)"},"insurances":"","misc":"","name":"Clínica de Otorrinolaringologia E Cirurgia de Cabeça E Pescoço Dr. Romualdo Tiago","phone":"11-50815883","working_hours":""}},"education":{},"experience":"","name":"Romualdo Suzano Louzeiro Tiago","picture":"http://photos.doctoralia.com/634668312135146966_2.jpg","registration_number":"","salutation":"Dr","services":"Obstrução Nasal, Perda Auditiva, Síndromes Da Apnéia Do Sono","speciality":"Otorrinolaringologista, Cirurgião de cabeça e pescoço","subspecialities":""}]},{"url":"http://www.doctoralia.com.br/medico/emerson+thomazi-12032586","doctor": [{"address":{"1":{"address":{"lat":-23.5746404,"lng":-46.5792076,"locality":"03117000","location":"03117000 São Paulo, São Paulo SP","street":"Rua do Oratorio (Mooca)"},"insurances":"","misc":"","name":"Consultório","phone":"(11)26024096, (11)26028000","working_hours":""}},"education":{},"experience":"","name":"Emerson Thomazi","picture":"http://photos.doctoralia.com/V2634968385800406989_2.jpg","registration_number":"","salutation":"","services":"","speciality":"Otorrinolaringologista, Cirurgião de cabeça e pescoço","subspecialities":"Cirurgia ORL"}]},{"url":"http://www.doctoralia.com.br/medico/vergilius+jose+furtado+de+araujo+filho-10581965","doctor": [{"address":{"1":{"address":{"lat":-23.5482379,"lng":-46.6590561,"locality":"01228-200","location":"01228-200 São Paulo, São Paulo SP","street":"Av. Angelica, 1814 - Cj. 601 (Consolacao)"},"insurances":"","misc":"","name":"Consultório","phone":"3661 9137, 3661 9307","working_hours":"2a à 6a das 8:00  as 18:0"}},"education":{},"experience":"","name":"Vergilius Jose Furtado de Araujo Filho","picture":"http://photos.doctoralia.com/634468842277293137_2.jpg","registration_number":"","salutation":"Dr","services":"","speciality":"Cirurgião de cabeça e pescoço","subspecialities":""}]},{"url":"http://www.doctoralia.com.br/medico/luiz+carlos+manganello+de+souza-10595807","doctor": [{"address":{"1":{"address":{"lat":-23.5603838,"lng":-46.6533578,"locality":"1332-000","location":"1332-000 São Paulo, São Paulo SP","street":"Itapeva, 500 - 1º And. (Bela Vista)"},"insurances":"Pacientes privados (sem plano de saúde), Unimed","misc":"","name":"Consultório","phone":"(11) 3288-7168","working_hours":""}},"education":{},"experience":"","name":"Luiz Carlos Manganello de Souza","picture":"http://photos.doctoralia.com/V2635264492849238743_2.jpg","registration_number":"","salutation":"Dr","services":"","speciality":"Cirurgião plástico, Cirurgião de cabeça e pescoço","subspecialities":"Cirurgia Crânio-Maxilo-Facial"}]},{"url":"http://www.doctoralia.com.br/medico/mario+indolfo+filho-10590819","doctor": [{"address":{"1":{"address":{"lat":-23.5945924,"lng":-46.6463124,"locality":"4025-010","location":"4025-010 São Paulo, São Paulo SP","street":"Leandro Dupré, 42 (Vl. Clementino)"},"insurances":"Pacientes privados (sem plano de saúde), Unimed","misc":"","name":"Consultório","phone":"115-5721, (47) 9571-9803","working_hours":""}},"education":{},"experience":"","name":"Mario Indolfo Filho","picture":"http://photos.doctoralia.com/V2635318135048249015_2.jpg","registration_number":"","salutation":"Dr","services":"","speciality":"Cirurgião de cabeça e pescoço, Endoscopista","subspecialities":"Endoscopia Digestiva"}]},{"url":"http://www.doctoralia.com.br/medico/marcos+roberto+tavares-10593643","doctor": [{"address":{"1":{"address":{"lat":-23.5837426,"lng":-46.6709514,"locality":"04534-010","location":"04534-010 São Paulo, São Paulo SP","street":"Rua Joaquim Floriano, 101 - 6 Andar Sala 601 (Itaim Bibi)"},"insurances":"Pacientes privados (sem plano de saúde), Cassi","misc":"","name":"Consultório","phone":"","working_hours":""}},"education":{},"experience":"","name":"Marcos Roberto Tavares","picture":"http://photos.doctoralia.com/635585607340513888_2.jpg","registration_number":"","salutation":"Dr","services":"","speciality":"Cirurgião Geral, Cirurgião de cabeça e pescoço","subspecialities":""}]},{"url":"http://www.doctoralia.com.br/medico/sergio+takeji+mitsuda-10584137","doctor": [{"address":{"1":{"address":{"lat":-23.5478833,"lng":-46.5392041,"locality":"3403-002","location":"3403-002 São Paulo, São Paulo SP","street":"Conselheiro Carrao, 2300 - Cj. 73/74 (Vl. Carrão)"},"insurances":"Pacientes privados (sem plano de saúde), Unimed","misc":"","name":"Consultório","phone":"112-2963, (55) 2296-3055","working_hours":""}},"education":{},"experience":"","name":"Sergio Takeji Mitsuda","picture":"http://photos.doctoralia.com/634468842277293137_2.jpg","registration_number":"","salutation":"Dr","services":"","speciality":"Otorrinolaringologista, Cirurgião de cabeça e pescoço","subspecialities":"Cirurgia Crânio-Maxilo-Facial"}]},{"url":"http://www.doctoralia.com.br/medico/gerson+da+silva+rodrigues-10603650","doctor": [{"address":{"1":{"address":{"lat":-23.5699592,"lng":-46.644380899999,"locality":"01333-011","location":"01333-011 São Paulo, São Paulo SP","street":"R Cincinato Braga, 59 - Conj 57 (Bela Vista)"},"insurances":"Pacientes privados (sem plano de saúde), Geap","misc":"","name":"Consultório","phone":"","working_hours":""}},"education":{},"experience":"","name":"Gerson da Silva Rodrigues","picture":"http://photos.doctoralia.com/634468842277293137_2.jpg","registration_number":"","salutation":"Dr","services":"","speciality":"Cirurgião Geral, Cirurgião de cabeça e pescoço","subspecialities":""}]},{"url":"http://www.doctoralia.com.br/medico/haroldo+jose+campos+lima-10602520","doctor": [{"address":{"1":{"address":{"lat":-23.5587126,"lng":-46.6408929,"locality":"01321-010","location":"01321-010 São Paulo, São Paulo SP","street":"Rua Humaita, 248 - Sala 2/3 (Bela Vista)"},"insurances":"Pacientes privados (sem plano de saúde), Unimed","misc":"","name":"Consultório","phone":"(11) 3107-9814","working_hours":""}},"education":{},"experience":"","name":"Haroldo Jose Campos Lima","picture":"http://photos.doctoralia.com/634468842277293137_2.jpg","registration_number":"","salutation":"Dr","services":"","speciality":"Ortopedista - Traumatologista, Cirurgião de cabeça e pescoço","subspecialities":"Cirurgia Crânio-Maxilo-Facial, Cirurgia do Trauma"}]},{"url":"http://www.doctoralia.com.br/medico/paulo+nuno+fernandes+farinha-10588178","doctor": [{"address":{"1":{"address":{"lat":-23.5602304,"lng":-46.6533578,"locality":"1332-000","location":"1332-000 São Paulo, São Paulo SP","street":"Itapeva, 490 - Cj. 114 (Cerqueira César)"},"insurances":"Pacientes privados (sem plano de saúde), Unimed","misc":"","name":"Consultório","phone":"113-2894","working_hours":""},"2":{"address":{"lat":-23.6013379,"lng":-46.6519287,"locality":"São","location":"São Paulo, São Paulo SP","street":"11. Andar"},"insurances":"","misc":"","name":"Consultório","phone":"11 3289-4733","working_hours":""}},"education":{},"experience":"","name":"Paulo Nuno Fernandes Farinha","picture":"http://photos.doctoralia.com/V2635264492849238743_2.jpg","registration_number":"","salutation":"Dr","services":"","speciality":"Cirurgião plástico, Cirurgião de cabeça e pescoço","subspecialities":"Cirurgia Crânio-Maxilo-Facial"}]},{"url":"http://www.doctoralia.com.br/medico/hyun+seung+yoon-10602046","doctor": [{"address":{"1":{"address":{"lat":-23.5981119,"lng":-46.6464514,"locality":"04039002","location":"04039002 São Paulo, São Paulo SP","street":"Rua Pedro de Toledo, 980 Conj. 133 (Vila Clementino)"},"insurances":"Pacientes privados (sem plano de saúde)","misc":"","name":"Consultório","phone":"5573-2191, 99313-0404","working_hours":""}},"education":{},"experience":"","name":"Hyun Seung Yoon","picture":"http://photos.doctoralia.com/634468842277293137_2.jpg","registration_number":"","salutation":"Dr","services":"","speciality":"Cirurgião de cabeça e pescoço","subspecialities":""}]},{"url":"http://www.doctoralia.com.br/medico/heraldo+lepera-10602254","doctor": [{"address":{"1":{"address":{"lat":-23.5295555,"lng":-46.5604958,"locality":"04429-000","location":"04429-000 São Paulo, São Paulo SP","street":"Largo Sao Jose do Maranhao, 109 (Maranhao)"},"insurances":"Pacientes privados (sem plano de saúde), Unimed","misc":"","name":"Consultório","phone":"","working_hours":""}},"education":{},"experience":"","name":"Heraldo Lepera","picture":"http://photos.doctoralia.com/V2635119599762887763_2.jpg","registration_number":"","salutation":"Dr","services":"","speciality":"Ortopedista - Traumatologista, Cirurgião de cabeça e pescoço","subspecialities":"Cirurgia Crânio-Maxilo-Facial, Cirurgia do Trauma"}]},{"url":"http://www.doctoralia.com.br/medico/bertelli+antonio-12110623","doctor": [{"address":{"1":{"address":{"lat":-23.536439,"lng":-46.6609338,"locality":"01232-011","location":"01232-011 São Paulo, São Paulo SP","street":"Rua Conselheiro Brotero, 1539 - 10º andar - Clínica Vivere (Higienópolis)"},"insurances":"","misc":"","name":"Consultório","phone":"3667 2627, 3667 0587","working_hours":""}},"education":{},"experience":"","name":"Antonio Bertelli","picture":"http://photos.doctoralia.com/634849711799321980_1.jpg","registration_number":"","salutation":"Dr","services":"Doenças Da Glândula Tireóide, Neoplasias Da Glândula Tireóide, Nódulo Da Glândula Tireóide","speciality":"Cirurgião de cabeça e pescoço","subspecialities":""}]},{"url":"http://www.doctoralia.com.br/medico/celso+ubirajara+moretto+friguglietti-10609994","doctor": [{"address":{"1":{"address":{"lat":-23.5642653,"lng":-46.6532259,"locality":"01311-200","location":"01311-200 São Paulo, São Paulo SP","street":"Av.Paulista, 1159 - Cj.1514 (Bela Vista)"},"insurances":"Pacientes privados (sem plano de saúde), Cassi","misc":"","name":"Consultório","phone":"(11) 3285-6300","working_hours":""}},"education":{},"experience":"","name":"Celso Ubirajara Moretto Friguglietti","picture":"http://photos.doctoralia.com/634468842277293137_2.jpg","registration_number":"","salutation":"Dr","services":"","speciality":"Cirurgião de cabeça e pescoço","subspecialities":""}]},{"url":"http://www.doctoralia.com.br/medico/iaroslava+chomen+ramos-10602102","doctor": [{"address":{"1":{"address":{"lat":-23.5712489,"lng":-46.6599201,"locality":"01425-001","location":"01425-001 São Paulo, São Paulo SP","street":"Rua Guarara, 529 - Cj133 (Jardim Paulista)"},"insurances":"Pacientes privados (sem plano de saúde), Unimed","misc":"","name":"Consultório","phone":"(11) 3889-9704","working_hours":""}},"education":{},"experience":"","name":"Iaroslava Chomen Ramos","picture":"http://photos.doctoralia.com/634468842277293137_2.jpg","registration_number":"","salutation":"Dr","services":"","speciality":"Cirurgião de cabeça e pescoço","subspecialities":""}]},{"url":"http://www.doctoralia.com.br/medico/marco+aurelio+vamondes+kulcsar-10593904","doctor": [{"address":{"1":{"address":{"lat":-23.5642653,"lng":-46.6532259,"locality":"1311-300","location":"1311-300 São Paulo, São Paulo SP","street":"Paulista, 1159 - Cj. 1514 (Bela Vista)"},"insurances":"Pacientes privados (sem plano de saúde), Unimed","misc":"","name":"Consultório","phone":"113-2888, (48) 3285-6300","working_hours":""}},"education":{},"experience":"","name":"Marco Aurélio Vamondes Kulcsar","picture":"http://photos.doctoralia.com/634468842277293137_2.jpg","registration_number":"","salutation":"Dr","services":"","speciality":"Cirurgião de cabeça e pescoço","subspecialities":""}]},{"url":"http://www.doctoralia.com.br/medico/flavio+carneiro+hojaij-10604857","doctor": [{"address":{"1":{"address":{"lat":-23.5619343,"lng":-46.6624664,"locality":"1411-000","location":"1411-000 São Paulo, São Paulo SP","street":"Padre João Manuel, 450 - Cj. 11 (Cerqueira César)"},"insurances":"Pacientes privados (sem plano de saúde), Unimed","misc":"","name":"Consultório","phone":"113-0862","working_hours":""}},"education":{},"experience":"","name":"Flávio Carneiro Hojaij","picture":"http://photos.doctoralia.com/634468842277293137_2.jpg","registration_number":"","salutation":"Dr","services":"","speciality":"Cirurgião de cabeça e pescoço","subspecialities":""}]},{"url":"http://www.doctoralia.com.br/medico/antonio+de+rosis+sobrinho-10613111","doctor": [{"address":{"1":{"address":{"lat":-23.5681066,"lng":-46.6422369,"locality":"01323-001","location":"01323-001 São Paulo, São Paulo SP","street":"Rua Maestro Cardim, 818 (Liberdade)"},"insurances":"Pacientes privados (sem plano de saúde), Unimed","misc":"","name":"Consultório","phone":"(11) 283-4591, (11) 3283-4591","working_hours":""}},"education":{},"experience":"","name":"Antonio de Rosis Sobrinho","picture":"http://photos.doctoralia.com/634468842277293137_2.jpg","registration_number":"","salutation":"Dr","services":"","speciality":"Cirurgião de cabeça e pescoço","subspecialities":""}]},{"url":"http://www.doctoralia.com.br/medico/antonio+carlos+vieira+cavalcanti-10612996","doctor": [{"address":{"1":{"address":{"lat":-23.6052851,"lng":-46.669915,"locality":"4516-012","location":"4516-012 São Paulo, São Paulo SP","street":"Pavão, 580 (Moema)"},"insurances":"","misc":"","name":"Consultório","phone":"115-5429","working_hours":""}},"education":{},"experience":"","name":"Antonio Carlos Vieira Cavalcanti","picture":"http://photos.doctoralia.com/634468842277293137_2.jpg","registration_number":"","salutation":"Dr","services":"","speciality":"Cirurgião Geral, Cirurgião de cabeça e pescoço","subspecialities":""}]},{"url":"http://www.doctoralia.com.br/medico/gurgel+testa+jose+ricardo-10598990","doctor": [{"address":{"1":{"address":{"lat":-23.5227239,"lng":-46.7026633,"locality":"05050-090","location":"05050-090 São Paulo, São Paulo SP","street":"R. Roma, 620 (Sl 111a, 113a / 11° And.) (Lapa)"},"insurances":"Pacientes privados (sem plano de saúde), Cassi","misc":"","name":"Consultório","phone":"(11) 3862-2637, (11) 3672-8178","working_hours":""}},"education":{},"experience":"","name":"José Ricardo Gurgel Testa","picture":"http://photos.doctoralia.com/634468842277293137_2.jpg","registration_number":"","salutation":"Dr","services":"","speciality":"Cirurgião de cabeça e pescoço","subspecialities":""}]},{"url":"http://www.doctoralia.com.br/medico/emerson+favero-10605803","doctor": [{"address":{"1":{"address":{"lat":-23.4957555,"lng":-46.4396685,"locality":"8010-150","location":"8010-150 São Paulo, São Paulo SP","street":"João Augusto de Morais, 181 (São Miguel Paulista)"},"insurances":"","misc":"","name":"Consultório","phone":"116-2974, (60) 6297-4400","working_hours":""}},"education":{},"experience":"","name":"Emerson Favero","picture":"http://photos.doctoralia.com/634468842277293137_2.jpg","registration_number":"","salutation":"Dr","services":"","speciality":"Cirurgião Geral, Cirurgião de cabeça e pescoço","subspecialities":""}]},{"url":"http://www.doctoralia.com.br/medico/roberto+pereira+de+magalhaes-10586492","doctor": [{"address":{"1":{"address":{"lat":-23.568108,"lng":-46.6437544,"locality":"01327-010","location":"01327-010 São Paulo, São Paulo SP","street":"Praça Amadeu Amral, 47 - Cj 41 (Bela Vista)"},"insurances":"Pacientes privados (sem plano de saúde), Unimed","misc":"","name":"Consultório","phone":"(11) 3287-3837, (11) 3284-4145","working_hours":""}},"education":{},"experience":"","name":"Roberto Pereira de Magalhães","picture":"http://photos.doctoralia.com/634468842277293137_2.jpg","registration_number":"","salutation":"Dr","services":"","speciality":"Cirurgião de cabeça e pescoço","subspecialities":""}]},{"url":"http://www.doctoralia.com.br/medico/anoi+castro+cordeiro-10613228","doctor": [{"address":{"1":{"address":{"lat":-23.5780754,"lng":-46.6588784,"locality":"13322-132","location":"13322-132 São Paulo, São Paulo SP","street":"Rua Manoel da Nobrega, 1564 (Paraiso)"},"insurances":"Pacientes privados (sem plano de saúde), Geap","misc":"","name":"Consultório","phone":"(11) 3887-1757","working_hours":""}},"education":{},"experience":"","name":"Anoi Castro Cordeiro","picture":"http://photos.doctoralia.com/634468842277293137_2.jpg","registration_number":"","salutation":"Dr","services":"","speciality":"Cirurgião de cabeça e pescoço","subspecialities":""}]},{"url":"http://www.doctoralia.com.br/medico/estefania+dos+santos-10606917","doctor": [{"address":{"1":{"address":{"lat":-23.5559846,"lng":-46.6599923,"locality":"01309-000","location":"01309-000 São Paulo, São Paulo SP","street":"R Luis Coelho, 308 - 7º Cj 77 (Consolacao)"},"insurances":"Pacientes privados (sem plano de saúde), Cassi","misc":"","name":"Consultório","phone":"(11) 3255-8550","working_hours":""}},"education":{},"experience":"","name":"Estefania dos Santos","picture":"http://photos.doctoralia.com/V2635119599762887763_2.jpg","registration_number":"","salutation":"Dr","services":"","speciality":"Ortopedista - Traumatologista, Cirurgião de cabeça e pescoço","subspecialities":"Cirurgia Crânio-Maxilo-Facial, Cirurgia do Trauma"}]},{"url":"http://www.doctoralia.com.br/medico/antonio+borba+da+silva-10613764","doctor": [{"address":{"1":{"address":{"lat":-23.6547868,"lng":-46.6995917,"locality":"04741-010","location":"04741-010 São Paulo, São Paulo SP","street":"Rua Darwin, 243 (Jardim Santo Amaro)"},"insurances":"Pacientes privados (sem plano de saúde), Cassi","misc":"","name":"Consultório","phone":"(11) 5548-1525","working_hours":""}},"education":{},"experience":"","name":"Antonio Borba da Silva","picture":"http://photos.doctoralia.com/634468842277293137_2.jpg","registration_number":"","salutation":"Dr","services":"","speciality":"Ortopedista - Traumatologista, Cirurgião de cabeça e pescoço","subspecialities":"Cirurgia Crânio-Maxilo-Facial, Cirurgia do Trauma"}]},{"url":"http://www.doctoralia.com.br/medico/ubirajara+m+friguglietti+celso-10609993","doctor": [{"address":{"1":{"address":{"lat":-23.564271,"lng":-46.6532193,"locality":"01311-200","location":"01311-200 São Paulo, São Paulo SP","street":"Av. Paulista, 1159 (cj 1514) (Bela Vista)"},"insurances":"","misc":"","name":"Consultório","phone":"(11) 3285-6300","working_hours":""}},"education":{},"experience":"","name":"Celso Ubirajara M","picture":"http://photos.doctoralia.com/634468842277293137_2.jpg","registration_number":"","salutation":"Dr","services":"","speciality":"Cirurgião de cabeça e pescoço","subspecialities":""}]},{"url":"http://www.doctoralia.com.br/medico/barreto+correa+nely+cristina-11986382","doctor": [{"address":{"1":{"address":{"lat":-23.5427318,"lng":-46.6489045,"locality":"01221-020","location":"01221-020 São Paulo, São Paulo SP","street":"R. Dr. Cesario Motta Jr, 112 (Vila Buarque)"},"insurances":"","misc":"","name":"Santa Casa de São Paulo Hospital Central","phone":"(11) 2176-7000","working_hours":""}},"education":{},"experience":"","name":"Nely Cristina Barreto Correa","picture":"http://photos.doctoralia.com/634468842277293137_2.jpg","registration_number":"","salutation":"Dra","services":"","speciality":"Cirurgião de cabeça e pescoço","subspecialities":""}]},{"url":"http://www.doctoralia.com.br/medico/sunao+nishio-12018475","doctor": [{"address":{"1":{"address":{"lat":-23.6572847,"lng":-46.6537446,"locality":"04378-500","location":"04378-500 São Paulo, São Paulo SP","street":"Av. Santa Catarina, 2785 (Jabaquara)"},"insurances":"","misc":"","name":"Hospital e Maternidade Santa Marina","phone":"(11) 5013-1100","working_hours":""}},"education":{},"experience":"","name":"Sunao Nishio","picture":"http://photos.doctoralia.com/634468842277293137_2.jpg","registration_number":"","salutation":"","services":"","speciality":"Cirurgião de cabeça e pescoço","subspecialities":""}]},{"url":"http://www.doctoralia.com.br/medico/andre+afonso+nimtz+rodrigues-11986381","doctor": [{"address":{"1":{"address":{"lat":-23.5427318,"lng":-46.6489045,"locality":"01221-020","location":"01221-020 São Paulo, São Paulo SP","street":"R. Dr. Cesario Motta Jr, 112 (Vila Buarque)"},"insurances":"","misc":"","name":"Santa Casa de São Paulo Hospital Central","phone":"(11) 2176-7000","working_hours":""}},"education":{},"experience":"","name":"Andre Afonso Nimtz Rodrigues","picture":"http://photos.doctoralia.com/634468842277293137_2.jpg","registration_number":"","salutation":"","services":"","speciality":"Cirurgião de cabeça e pescoço","subspecialities":""}]},{"url":"http://www.doctoralia.com.br/medico/milton+eiti+adachi-11962629","doctor": [{"address":{"1":{"address":{"lat":-23.5837935,"lng":-46.6110737,"locality":"04262-000","location":"04262-000 São Paulo, São Paulo SP","street":"Av. Nazaré, 28, (Ipiranga)"},"insurances":"","misc":"","name":"Hospital Ipiranga","phone":"(11) 2067-7799","working_hours":""}},"education":{},"experience":"","name":"Milton Eiti Adachi","picture":"http://photos.doctoralia.com/634468842277293137_2.jpg","registration_number":"","salutation":"","services":"","speciality":"Cirurgião de cabeça e pescoço","subspecialities":""}]},{"url":"http://www.doctoralia.com.br/medico/marcelo+augusto+varoni+rezende-10595116","doctor": [{"address":{"1":{"address":{"lat":-23.5490131,"lng":-46.570954,"locality":"3323-020","location":"3323-020 São Paulo, São Paulo SP","street":"Serra de Jurea, 560 (Tatuapé)"},"insurances":"Pacientes privados (sem plano de saúde), Unimed","misc":"","name":"Consultório","phone":"116-1936","working_hours":""}},"education":{},"experience":"","name":"Marcelo Augusto Varoni Rezende","picture":"http://photos.doctoralia.com/634468842277293137_2.jpg","registration_number":"","salutation":"Dr","services":"","speciality":"Cirurgião de cabeça e pescoço","subspecialities":""}]},{"url":"http://www.doctoralia.com.br/medico/jose+geraldo+barbosa+jr-10599867","doctor": [{"address":{"1":{"address":{"lat":-23.5479926,"lng":-46.6811727,"locality":"1255-000","location":"1255-000 São Paulo, São Paulo SP","street":"Dr. Arnaldo, 1927 (Sumaré)"},"insurances":"Pacientes privados (sem plano de saúde), Unimed","misc":"","name":"Consultório","phone":"(11) 3865-0200","working_hours":""}},"education":{},"experience":"","name":"Jose Geraldo Barbosa Jr","picture":"http://photos.doctoralia.com/634468842277293137_2.jpg","registration_number":"","salutation":"Dr","services":"","speciality":"Cirurgião de cabeça e pescoço","subspecialities":""}]},{"url":"http://www.doctoralia.com.br/medico/roberto+souza+camargo-10585992","doctor": [{"address":{"1":{"address":{"lat":-23.5567374,"lng":-46.654171,"locality":"01308-000","location":"01308-000 São Paulo, São Paulo SP","street":"Rua Barata Ribeiro, 398 - 6 Andar (Bela Vista)"},"insurances":"Pacientes privados (sem plano de saúde), Cassi","misc":"","name":"Consultório","phone":"","working_hours":""}},"education":{},"experience":"","name":"Roberto Souza Camargo","picture":"http://photos.doctoralia.com/634468842277293137_2.jpg","registration_number":"","salutation":"Dr","services":"","speciality":"Cirurgião de cabeça e pescoço","subspecialities":""}]},{"url":"http://www.doctoralia.com.br/medico/renato+n+gotoda-12018476","doctor": [{"address":{"1":{"address":{"lat":-23.6572847,"lng":-46.6537446,"locality":"04378-500","location":"04378-500 São Paulo, São Paulo SP","street":"Av. Santa Catarina, 2785 (Jabaquara)"},"insurances":"","misc":"","name":"Hospital e Maternidade Santa Marina","phone":"(11) 5013-1100","working_hours":""}},"education":{},"experience":"","name":"Renato N Gotoda","picture":"http://photos.doctoralia.com/634468842277293137_2.jpg","registration_number":"","salutation":"","services":"","speciality":"Cirurgião de cabeça e pescoço","subspecialities":""}]},{"url":"http://www.doctoralia.com.br/medico/tania+regina+bastos+de+souza-11962630","doctor": [{"address":{"1":{"address":{"lat":-23.5837935,"lng":-46.6110737,"locality":"04262-000","location":"04262-000 São Paulo, São Paulo SP","street":"Av. Nazaré, 28, (Ipiranga)"},"insurances":"","misc":"","name":"Hospital Ipiranga","phone":"(11) 2067-7799","working_hours":""}},"education":{},"experience":"","name":"Tania Regina Bastos de Souza","picture":"http://photos.doctoralia.com/634468842277293137_2.jpg","registration_number":"","salutation":"","services":"","speciality":"Cirurgião de cabeça e pescoço","subspecialities":""}]},{"url":"http://www.doctoralia.com.br/medico/marcio+antonio+ribeiro+sampaio-12087779","doctor": [{"address":{"1":{"address":{"lat":-23.5566208,"lng":-46.6253464,"locality":"01518-020","location":"01518-020 São Paulo, São Paulo SP","street":"Rua Leopoldo Miguez, 327 (Cambuci)"},"insurances":"","misc":"","name":"Pam Varzea Do Carmo Nga 63","phone":"(11) 3385-7000","working_hours":""}},"education":{},"experience":"","name":"Marcio Antonio Ribeiro Sampaio","picture":"http://photos.doctoralia.com/634468842277293137_2.jpg","registration_number":"","salutation":"","services":"","speciality":"Cirurgião de cabeça e pescoço","subspecialities":""}]},{"url":"http://www.doctoralia.com.br/medico/d+elboux+guimaraes+brescia+marilia-12798125","doctor": [{"address":{"1":{"address":{"lat":-23.5500328,"lng":-46.658528999999,"locality":"01239-040","location":"01239-040 São Paulo, São Paulo SP","street":"R. Mato Grosso, 306 (16° andar, cj 1602) (Higienópolis)"},"insurances":"","misc":"","name":"Instituto Abathon - Medicina e Saúde","phone":"(11) 2114-6080","working_hours":""}},"education":{},"experience":"","name":"Marília D'Elboux Guimarães Brescia","picture":"http://photos.doctoralia.com/634468842277293137_2.jpg","registration_number":"","salutation":"Dra","services":"","speciality":"Cirurgião de cabeça e pescoço","subspecialities":""}]},{"url":"http://www.doctoralia.com.br/medico/flavio+c+hojaij-12018477","doctor": [{"address":{"1":{"address":{"lat":-23.6572847,"lng":-46.6537446,"locality":"04378-500","location":"04378-500 São Paulo, São Paulo SP","street":"Av. Santa Catarina, 2785 (Jabaquara)"},"insurances":"","misc":"","name":"Hospital e Maternidade Santa Marina","phone":"(11) 5013-1100","working_hours":""}},"education":{},"experience":"","name":"Flavio C Hojaij","picture":"http://photos.doctoralia.com/634468842277293137_2.jpg","registration_number":"","salutation":"","services":"","speciality":"Cirurgião de cabeça e pescoço","subspecialities":""}]}]}